[
	{
		"authorityID":"PL000000004001",
		"name":"林關口",
		"dynasty":"明",
		"long":"114.0976",
		"lat":"39.7169",
		"districtHistorical":"明_山西",
		"districtModern":"中國-山西省-大同市-廣靈縣",
		"note":null,
		"lang":"中文",
		"shortAuthorityID":"PL4001",
		"names":"",
		"pinyin":[]
	},
	{
		"authorityID":"PL000000004002",
		"name":"直峪口",
		"dynasty":"清",
		"long":"114.252",
		"lat":"39.7026",
		"districtHistorical":"清_山西",
		"districtModern":"中國-山西省-大同市-廣靈縣",
		"note":null,
		"lang":"中文",
		"shortAuthorityID":"PL4002",
		"names":"",
		"pinyin":{
			"直峪口":"zhí yù kǒu"
		}
	},
	{
		"authorityID":"PL000000004003",
		"name":"直谷關",
		"dynasty":"元",
		"long":"114.2322",
		"lat":"39.7008",
		"districtHistorical":"元_中書省",
		"districtModern":"中國-山西省-大同市-廣靈縣",
		"note":null,
		"lang":"中文",
		"shortAuthorityID":"PL4003",
		"names":"",
		"pinyin":[]
	},
	{
		"authorityID":"PL000000004004",
		"name":"直谷關",
		"dynasty":"唐",
		"long":"114.2441",
		"lat":"39.6999",
		"districtHistorical":"唐_河東道",
		"districtModern":"中國-山西省-大同市-廣靈縣",
		"note":null,
		"lang":"中文",
		"shortAuthorityID":"PL4004",
		"names":"",
		"pinyin":[]
	},
	{
		"authorityID":"PL000000004005",
		"name":"靈丘聚",
		"dynasty":"東漢",
		"long":"114.3041",
		"lat":"39.4373",
		"districtHistorical":"東漢_幽州刺史部",
		"districtModern":"中國-山西省-大同市-靈丘縣",
		"note":null,
		"lang":"中文",
		"shortAuthorityID":"PL4005",
		"names":"",
		"pinyin":{
			"靈丘聚":"líng qiū jù"
		}
	},
	{
		"authorityID":"PL000000004006",
		"name":"靈丘",
		"dynasty":"西漢",
		"long":"114.3041",
		"lat":"39.4373",
		"districtHistorical":"西漢_并州刺史部",
		"districtModern":"中國-山西省-大同市-靈丘縣",
		"note":null,
		"lang":"中文",
		"shortAuthorityID":"PL4006",
		"names":"",
		"pinyin":{
			"靈丘":"líng qiū"
		}
	},
	{
		"authorityID":"PL000000004007",
		"name":"靈丘",
		"dynasty":"清",
		"long":"114.239",
		"lat":"39.4371",
		"districtHistorical":"清_山西",
		"districtModern":"中國-山西省-大同市-靈丘縣",
		"note":null,
		"lang":"中文",
		"shortAuthorityID":"PL4007",
		"names":"",
		"pinyin":{
			"靈丘":"líng qiū"
		}
	},
	{
		"authorityID":"PL000000004008",
		"name":"靈丘",
		"dynasty":"明",
		"long":"114.239",
		"lat":"39.4371",
		"districtHistorical":"明_山西",
		"districtModern":"中國-山西省-大同市-靈丘縣",
		"note":null,
		"lang":"中文",
		"shortAuthorityID":"PL4008",
		"names":"",
		"pinyin":{
			"靈丘":"líng qiū"
		}
	},
	{
		"authorityID":"PL000000004009",
		"name":"靈丘",
		"dynasty":"元",
		"long":"114.239",
		"lat":"39.4371",
		"districtHistorical":"元_中書省",
		"districtModern":"中國-山西省-大同市-靈丘縣",
		"note":null,
		"lang":"中文",
		"shortAuthorityID":"PL4009",
		"names":"",
		"pinyin":{
			"靈丘":"líng qiū"
		}
	},
	{
		"authorityID":"PL000000004010",
		"name":"靈丘",
		"dynasty":"遼",
		"long":"114.239",
		"lat":"39.4371",
		"districtHistorical":"遼_西京道",
		"districtModern":"中國-山西省-大同市-靈丘縣",
		"note":null,
		"lang":"中文",
		"shortAuthorityID":"PL4010",
		"names":"",
		"pinyin":{
			"靈丘":"líng qiū"
		}
	},
	{
		"authorityID":"PL000000004011",
		"name":"蔚州",
		"dynasty":"唐",
		"long":"114.239",
		"lat":"39.4371",
		"districtHistorical":"唐_河東道",
		"districtModern":"中國-山西省-大同市-靈丘縣",
		"note":null,
		"lang":"中文",
		"shortAuthorityID":"PL4011",
		"names":"",
		"pinyin":[]
	},
	{
		"authorityID":"PL000000004012",
		"name":"靈丘",
		"dynasty":"唐",
		"long":"114.239",
		"lat":"39.4371",
		"districtHistorical":"唐_河東道",
		"districtModern":"中國-山西省-大同市-靈丘縣",
		"note":"西漢置靈丘縣，以趙武靈王葬此，故名。位於山西省東北部。隋屬蔚州，後陷廢。唐武德六年復置靈丘縣，重為成州，屬西京路。（<a target=\"_blank\" href=\"http:\/\/baike.baidu.com\/view\/5953.htm\">http:\/\/baike.baidu.com\/靈丘縣<\/a>，2012.04.13）",
		"lang":"中文",
		"shortAuthorityID":"PL4012",
		"names":"",
		"pinyin":{
			"靈丘":"líng qiū"
		}
	},
	{
		"authorityID":"PL000000004013",
		"name":"靈丘",
		"dynasty":"隋",
		"long":"114.239",
		"lat":"39.4371",
		"districtHistorical":"隋_雁門郡",
		"districtModern":"中國-山西省-大同市-靈丘縣",
		"note":null,
		"lang":"中文",
		"shortAuthorityID":"PL4013",
		"names":"",
		"pinyin":{
			"靈丘":"líng qiū"
		}
	},
	{
		"authorityID":"PL000000004014",
		"name":"靈丘",
		"dynasty":"北魏",
		"long":"114.239",
		"lat":"39.4371",
		"districtHistorical":"北朝 魏_恆州",
		"districtModern":"中國-山西省-大同市-靈丘縣",
		"note":null,
		"lang":"中文",
		"shortAuthorityID":"PL4014",
		"names":"",
		"pinyin":{
			"靈丘":"líng qiū"
		}
	},
	{
		"authorityID":"PL000000004015",
		"name":"靈丘郡",
		"dynasty":"北魏",
		"long":"114.239",
		"lat":"39.4371",
		"districtHistorical":"北朝 魏_恆州",
		"districtModern":"中國-山西省-大同市-靈丘縣",
		"note":null,
		"lang":"中文",
		"shortAuthorityID":"PL4015",
		"names":"",
		"pinyin":{
			"靈丘郡":"líng qiū jùn"
		}
	},
	{
		"authorityID":"PL000000004016",
		"name":"靈丘",
		"dynasty":"曹魏",
		"long":"114.2859",
		"lat":"39.4342",
		"districtHistorical":"三國 魏_冀州",
		"districtModern":"中國-山西省-大同市-靈丘縣",
		"note":null,
		"lang":"中文",
		"shortAuthorityID":"PL4016",
		"names":"",
		"pinyin":{
			"靈丘":"líng qiū"
		}
	},
	{
		"authorityID":"PL000000004017",
		"name":"常山",
		"dynasty":"沒有給定朝代",
		"long":"112.9102",
		"lat":"38.5885",
		"districtHistorical":null,
		"districtModern":"中國-山西省-大同市-渾源縣",
		"note":"",
		"lang":"中文",
		"shortAuthorityID":"PL4017",
		"names":"[中文] 元岳,北岳,恒岳",
		"pinyin":{
			"常山":"cháng shān",
			"元岳":"yuán yuè",
			"恒岳":"héng yuè"
		}
	},
	{
		"authorityID":"PL000000004018",
		"name":"草垛山",
		"dynasty":null,
		"long":"113.020736",
		"lat":"39.282834",
		"districtHistorical":null,
		"districtModern":"中國-山西省-忻州市-代縣",
		"note":"古之帝王避暑處。（g081p0067；淵四．山西通志．卷二十六：27）",
		"lang":"中文",
		"shortAuthorityID":"PL4018",
		"names":"[中文] 玄冥埵,覆宿山,夏屋山,賈屋山,賈母山,北埵,夏壺山",
		"pinyin":[]
	},
	{
		"authorityID":"PL000000004019",
		"name":"亂嶺關",
		"dynasty":"明",
		"long":"113.8935",
		"lat":"39.7668",
		"districtHistorical":"明_山西",
		"districtModern":"中國-山西省-大同市-渾源縣",
		"note":null,
		"lang":"中文",
		"shortAuthorityID":"PL4019",
		"names":"",
		"pinyin":[]
	},
	{
		"authorityID":"PL000000004020",
		"name":"蔡村堡",
		"dynasty":"清",
		"long":"113.6066",
		"lat":"39.7504",
		"districtHistorical":"清_山西",
		"districtModern":"中國-山西省-大同市-渾源縣",
		"note":null,
		"lang":"中文",
		"shortAuthorityID":"PL4020",
		"names":"",
		"pinyin":[]
	},
	{
		"authorityID":"PL000000004021",
		"name":"崞山",
		"dynasty":"北魏",
		"long":"113.6382",
		"lat":"39.7114",
		"districtHistorical":"北朝 魏_恆州",
		"districtModern":"中國-山西省-大同市-渾源縣",
		"note":null,
		"lang":"中文",
		"shortAuthorityID":"PL4021",
		"names":"",
		"pinyin":{
			"崞山":"guō shān"
		}
	},
	{
		"authorityID":"PL000000004022",
		"name":"崞縣",
		"dynasty":"東漢",
		"long":"113.6159",
		"lat":"39.711",
		"districtHistorical":"東漢_并州刺史部",
		"districtModern":"中國-山西省-大同市-渾源縣",
		"note":null,
		"lang":"中文",
		"shortAuthorityID":"PL4022",
		"names":"",
		"pinyin":[]
	},
	{
		"authorityID":"PL000000004023",
		"name":"崞縣",
		"dynasty":"西漢",
		"long":"113.6159",
		"lat":"39.711",
		"districtHistorical":"西漢_并州刺史部",
		"districtModern":"中國-山西省-大同市-渾源縣",
		"note":null,
		"lang":"中文",
		"shortAuthorityID":"PL4023",
		"names":"",
		"pinyin":[]
	},
	{
		"authorityID":"PL000000004024",
		"name":"崞縣",
		"dynasty":"西晉",
		"long":"113.6122",
		"lat":"39.702",
		"districtHistorical":"西晉_并州",
		"districtModern":"中國-山西省-大同市-渾源縣",
		"note":null,
		"lang":"中文",
		"shortAuthorityID":"PL4024",
		"names":"",
		"pinyin":[]
	},
	{
		"authorityID":"PL000000004025",
		"name":"渾源州",
		"dynasty":"清",
		"long":"113.6947",
		"lat":"39.6958",
		"districtHistorical":"清_山西",
		"districtModern":"中國-山西省-大同市-渾源縣",
		"note":"金貞祐二年（1214）置，治所在渾源縣（今屬山西）。轄境相當今渾源縣地。元至元四年（1267）省渾源縣入州。（<a target=\"_blank\" href=\"http:\/\/zh.wikipedia.org\/wiki\/%E6%B5%91%E6%BA%90%E5%B7%9E\">http:\/\/zh.wikipedia.org\/渾源州<\/a>，2012.04.27）",
		"lang":"中文",
		"shortAuthorityID":"PL4025",
		"names":"",
		"pinyin":{
			"渾源州":"hún yuán zhōu"
		}
	},
	{
		"authorityID":"PL000000004026",
		"name":"渾源州",
		"dynasty":"明",
		"long":"113.6947",
		"lat":"39.6958",
		"districtHistorical":"明_山西",
		"districtModern":"中國-山西省-大同市-渾源縣",
		"note":"金貞祐二年（1214）置，治所在渾源縣（今屬山西）。轄境相當今渾源縣地。元至元四年（1267）省渾源縣入州。（<a target=\"_blank\" href=\"http:\/\/zh.wikipedia.org\/wiki\/%E6%B5%91%E6%BA%90%E5%B7%9E\">http:\/\/zh.wikipedia.org\/渾源州<\/a>，2012.04.25）",
		"lang":"中文",
		"shortAuthorityID":"PL4026",
		"names":"",
		"pinyin":[]
	},
	{
		"authorityID":"PL000000004027",
		"name":"渾源州",
		"dynasty":"元",
		"long":"113.6947",
		"lat":"39.6958",
		"districtHistorical":"元_中書省",
		"districtModern":"中國-山西省-大同市-渾源縣",
		"note":null,
		"lang":"中文",
		"shortAuthorityID":"PL4027",
		"names":"",
		"pinyin":[]
	},
	{
		"authorityID":"PL000000004028",
		"name":"渾源",
		"dynasty":"遼",
		"long":"113.6947",
		"lat":"39.6958",
		"districtHistorical":"遼_西京道",
		"districtModern":"中國-山西省-大同市-渾源縣",
		"note":null,
		"lang":"中文",
		"shortAuthorityID":"PL4028",
		"names":"",
		"pinyin":[]
	},
	{
		"authorityID":"PL000000004029",
		"name":"賈莊",
		"dynasty":"清",
		"long":"113.5252",
		"lat":"39.6556",
		"districtHistorical":"清_山西",
		"districtModern":"中國-山西省-大同市-渾源縣",
		"note":null,
		"lang":"中文",
		"shortAuthorityID":"PL4029",
		"names":"",
		"pinyin":[]
	},
	{
		"authorityID":"PL000000004030",
		"name":"李峪口",
		"dynasty":"清",
		"long":"113.6751",
		"lat":"39.6527",
		"districtHistorical":"清_山西",
		"districtModern":"中國-山西省-大同市-渾源縣",
		"note":null,
		"lang":"中文",
		"shortAuthorityID":"PL4030",
		"names":"",
		"pinyin":{
			"李峪口":"lǐ yù kǒu"
		}
	},
	{
		"authorityID":"PL000000004031",
		"name":"瓷窯口",
		"dynasty":"明",
		"long":"113.7451",
		"lat":"39.6367",
		"districtHistorical":"明_山西",
		"districtModern":"中國-山西省-大同市-渾源縣",
		"note":null,
		"lang":"中文",
		"shortAuthorityID":"PL4031",
		"names":"",
		"pinyin":[]
	},
	{
		"authorityID":"PL000000004032",
		"name":"繁畤",
		"dynasty":"東漢",
		"long":"113.51",
		"lat":"39.6128",
		"districtHistorical":"東漢_并州刺史部",
		"districtModern":"中國-山西省-大同市-渾源縣",
		"note":null,
		"lang":"中文",
		"shortAuthorityID":"PL4032",
		"names":"",
		"pinyin":[]
	},
	{
		"authorityID":"PL000000004033",
		"name":"繁畤",
		"dynasty":"西漢",
		"long":"113.51",
		"lat":"39.6128",
		"districtHistorical":"西漢_并州刺史部",
		"districtModern":"中國-山西省-大同市-渾源縣",
		"note":null,
		"lang":"中文",
		"shortAuthorityID":"PL4033",
		"names":"",
		"pinyin":[]
	},
	{
		"authorityID":"PL000000004034",
		"name":"繁畤",
		"dynasty":"西晉",
		"long":"113.4885",
		"lat":"39.6071",
		"districtHistorical":"西晉_并州",
		"districtModern":"中國-山西省-大同市-渾源縣",
		"note":null,
		"lang":"中文",
		"shortAuthorityID":"PL4034",
		"names":"",
		"pinyin":[]
	},
	{
		"authorityID":"PL000000004035",
		"name":"大凌雲口",
		"dynasty":"清",
		"long":"113.5622",
		"lat":"39.5675",
		"districtHistorical":"清_山西",
		"districtModern":"中國-山西省-大同市-渾源縣",
		"note":null,
		"lang":"中文",
		"shortAuthorityID":"PL4035",
		"names":"",
		"pinyin":[]
	},
	{
		"authorityID":"PL000000004036",
		"name":"莎泉",
		"dynasty":"北魏",
		"long":"113.8281",
		"lat":"39.4721",
		"districtHistorical":"北朝 魏_恆州",
		"districtModern":"中國-山西省-大同市-渾源縣",
		"note":null,
		"lang":"中文",
		"shortAuthorityID":"PL4036",
		"names":"",
		"pinyin":[]
	},
	{
		"authorityID":"PL000000004037",
		"name":"王家莊堡",
		"dynasty":"清",
		"long":"113.9144",
		"lat":"39.4221",
		"districtHistorical":"清_山西",
		"districtModern":"中國-山西省-大同市-渾源縣",
		"note":null,
		"lang":"中文",
		"shortAuthorityID":"PL4037",
		"names":"",
		"pinyin":[]
	},
	{
		"authorityID":"PL000000004038",
		"name":"大寨頭",
		"dynasty":"明",
		"long":"113.8629",
		"lat":"39.405",
		"districtHistorical":"明_山西",
		"districtModern":"中國-山西省-大同市-渾源縣",
		"note":null,
		"lang":"中文",
		"shortAuthorityID":"PL4038",
		"names":"",
		"pinyin":[]
	},
	{
		"authorityID":"PL000000004039",
		"name":"麻谷寨",
		"dynasty":"北宋",
		"long":"113.8253",
		"lat":"39.3978",
		"districtHistorical":"北宋_河東路",
		"districtModern":"中國-山西省-大同市-渾源縣",
		"note":null,
		"lang":"中文",
		"shortAuthorityID":"PL4039",
		"names":"",
		"pinyin":[]
	},
	{
		"authorityID":"PL000000004040",
		"name":"水磨堡",
		"dynasty":"清",
		"long":"113.6119",
		"lat":"39.6647",
		"districtHistorical":"清_山西",
		"districtModern":"中國-山西省-大同市-渾源縣",
		"note":null,
		"lang":"中文",
		"shortAuthorityID":"PL4040",
		"names":"",
		"pinyin":[]
	},
	{
		"authorityID":"PL000000004041",
		"name":"保安堡",
		"dynasty":"明",
		"long":"112.9038",
		"lat":"40.2289",
		"districtHistorical":"明_山西",
		"districtModern":"中國-山西省-大同市-左雲縣",
		"note":null,
		"lang":"中文",
		"shortAuthorityID":"PL4041",
		"names":"",
		"pinyin":[]
	},
	{
		"authorityID":"PL000000004042",
		"name":"保安",
		"dynasty":"清",
		"long":"112.9012",
		"lat":"40.228",
		"districtHistorical":"清_山西",
		"districtModern":"中國-山西省-大同市-左雲縣",
		"note":null,
		"lang":"中文",
		"shortAuthorityID":"PL4042",
		"names":"",
		"pinyin":{
			"保安":"bǎo ān"
		}
	},
	{
		"authorityID":"PL000000004043",
		"name":"威魯堡",
		"dynasty":"明",
		"long":"112.8028",
		"lat":"40.1538",
		"districtHistorical":"明_山西",
		"districtModern":"中國-山西省-大同市-左雲縣",
		"note":null,
		"lang":"中文",
		"shortAuthorityID":"PL4043",
		"names":"",
		"pinyin":[]
	},
	{
		"authorityID":"PL000000004044",
		"name":"威魯堡",
		"dynasty":"清",
		"long":"112.8018",
		"lat":"40.1477",
		"districtHistorical":"清_山西",
		"districtModern":"中國-山西省-大同市-左雲縣",
		"note":null,
		"lang":"中文",
		"shortAuthorityID":"PL4044",
		"names":"",
		"pinyin":[]
	},
	{
		"authorityID":"PL000000004045",
		"name":"安魯",
		"dynasty":"清",
		"long":"112.6996",
		"lat":"40.1412",
		"districtHistorical":"清_山西",
		"districtModern":"中國-山西省-大同市-左雲縣",
		"note":null,
		"lang":"中文",
		"shortAuthorityID":"PL4045",
		"names":"",
		"pinyin":[]
	},
	{
		"authorityID":"PL000000004046",
		"name":"寧魯堡",
		"dynasty":"明",
		"long":"112.7072",
		"lat":"40.1376",
		"districtHistorical":"明_山西",
		"districtModern":"中國-山西省-大同市-左雲縣",
		"note":null,
		"lang":"中文",
		"shortAuthorityID":"PL4046",
		"names":"",
		"pinyin":[]
	},
	{
		"authorityID":"PL000000004047",
		"name":"三屯堡",
		"dynasty":"清",
		"long":"112.7001",
		"lat":"40.0514",
		"districtHistorical":"清_山西",
		"districtModern":"中國-山西省-大同市-左雲縣",
		"note":null,
		"lang":"中文",
		"shortAuthorityID":"PL4047",
		"names":"",
		"pinyin":[]
	},
	{
		"authorityID":"PL000000004048",
		"name":"左雲",
		"dynasty":"清",
		"long":"112.7034",
		"lat":"40.0076",
		"districtHistorical":"清_山西",
		"districtModern":"中國-山西省-大同市-左雲縣",
		"note":null,
		"lang":"中文",
		"shortAuthorityID":"PL4048",
		"names":"",
		"pinyin":{
			"左雲":"zuǒ yún"
		}
	},
	{
		"authorityID":"PL000000004049",
		"name":"武周城",
		"dynasty":"唐",
		"long":"112.7034",
		"lat":"40.0076",
		"districtHistorical":"唐_河東道",
		"districtModern":"中國-山西省-大同市-左雲縣",
		"note":null,
		"lang":"中文",
		"shortAuthorityID":"PL4049",
		"names":"",
		"pinyin":{
			"武周城":"wǔ zhōu chéng"
		}
	},
	{
		"authorityID":"PL000000004050",
		"name":"武周",
		"dynasty":"北魏",
		"long":"112.7034",
		"lat":"40.0076",
		"districtHistorical":"北朝 魏_恆州",
		"districtModern":"中國-山西省-大同市-左雲縣",
		"note":null,
		"lang":"中文",
		"shortAuthorityID":"PL4050",
		"names":"",
		"pinyin":{
			"武周":"wǔ zhōu"
		}
	},
	{
		"authorityID":"PL000000004051",
		"name":"武州",
		"dynasty":"西漢",
		"long":"112.7034",
		"lat":"40.0076",
		"districtHistorical":"西漢_并州刺史部",
		"districtModern":"中國-山西省-大同市-左雲縣",
		"note":null,
		"lang":"中文",
		"shortAuthorityID":"PL4051",
		"names":"",
		"pinyin":{
			"武州":"wǔ zhōu"
		}
	},
	{
		"authorityID":"PL000000004052",
		"name":"雲川衛",
		"dynasty":"明",
		"long":"112.7034",
		"lat":"40.0076",
		"districtHistorical":"明_山西",
		"districtModern":"中國-山西省-大同市-左雲縣",
		"note":"",
		"lang":"中文",
		"shortAuthorityID":"PL4052",
		"names":"",
		"pinyin":{
			"雲川衛":"yún chuān wèi"
		}
	},
	{
		"authorityID":"PL000000004053",
		"name":"大同左衛",
		"dynasty":"明",
		"long":"112.7034",
		"lat":"40.0076",
		"districtHistorical":"明_山西",
		"districtModern":"中國-山西省-大同市-左雲縣",
		"note":null,
		"lang":"中文",
		"shortAuthorityID":"PL4053",
		"names":"",
		"pinyin":[]
	},
	{
		"authorityID":"PL000000004054",
		"name":"牛皮關",
		"dynasty":"唐",
		"long":"113.494",
		"lat":"40.178",
		"districtHistorical":"唐_河東道",
		"districtModern":"中國-山西省-大同市-大同縣",
		"note":null,
		"lang":"中文",
		"shortAuthorityID":"PL4054",
		"names":"",
		"pinyin":[]
	},
	{
		"authorityID":"PL000000004055",
		"name":"聚落所",
		"dynasty":"明",
		"long":"113.5819",
		"lat":"40.1728",
		"districtHistorical":"明_山西",
		"districtModern":"中國-山西省-大同市-大同縣",
		"note":null,
		"lang":"中文",
		"shortAuthorityID":"PL4055",
		"names":"",
		"pinyin":[]
	},
	{
		"authorityID":"PL000000004056",
		"name":"聚樂城",
		"dynasty":"清",
		"long":"113.5645",
		"lat":"40.1661",
		"districtHistorical":"清_山西",
		"districtModern":"中國-山西省-大同市-大同縣",
		"note":null,
		"lang":"中文",
		"shortAuthorityID":"PL4056",
		"names":"",
		"pinyin":[]
	},
	{
		"authorityID":"PL000000004057",
		"name":"白登",
		"dynasty":"東漢",
		"long":"113.4362",
		"lat":"40.1611",
		"districtHistorical":"東漢_并州刺史部",
		"districtModern":"中國-山西省-大同市-大同縣",
		"note":null,
		"lang":"中文",
		"shortAuthorityID":"PL4057",
		"names":"",
		"pinyin":[]
	},
	{
		"authorityID":"PL000000004058",
		"name":"白登",
		"dynasty":"西漢",
		"long":"113.4362",
		"lat":"40.1611",
		"districtHistorical":"西漢_并州刺史部",
		"districtModern":"中國-山西省-大同市-大同縣",
		"note":null,
		"lang":"中文",
		"shortAuthorityID":"PL4058",
		"names":"",
		"pinyin":[]
	},
	{
		"authorityID":"PL000000004059",
		"name":"平邑",
		"dynasty":"秦",
		"long":"113.6682",
		"lat":"40.0492",
		"districtHistorical":"秦_代郡",
		"districtModern":"中國-山西省-大同市-大同縣",
		"note":null,
		"lang":"中文",
		"shortAuthorityID":"PL4059",
		"names":"",
		"pinyin":[]
	},
	{
		"authorityID":"PL000000004060",
		"name":"陵a莊堡",
		"dynasty":"明",
		"long":"113.7442",
		"lat":"40.0313",
		"districtHistorical":"明_山西",
		"districtModern":"中國-山西省-大同市-大同縣",
		"note":null,
		"lang":"中文",
		"shortAuthorityID":"PL4060",
		"names":"",
		"pinyin":[]
	},
	{
		"authorityID":"PL000000004061",
		"name":"平邑",
		"dynasty":"西漢",
		"long":"113.6965",
		"lat":"40.0269",
		"districtHistorical":"西漢_并州刺史部",
		"districtModern":"中國-山西省-大同市-大同縣",
		"note":null,
		"lang":"中文",
		"shortAuthorityID":"PL4061",
		"names":"",
		"pinyin":[]
	},
	{
		"authorityID":"PL000000004062",
		"name":"北平邑",
		"dynasty":"東漢",
		"long":"113.6937",
		"lat":"40.0247",
		"districtHistorical":"東漢_幽州刺史部",
		"districtModern":"中國-山西省-大同市-大同縣",
		"note":null,
		"lang":"中文",
		"shortAuthorityID":"PL4062",
		"names":"",
		"pinyin":[]
	},
	{
		"authorityID":"PL000000004063",
		"name":"沙堝",
		"dynasty":"明",
		"long":"113.677",
		"lat":"39.9922",
		"districtHistorical":"明_山西",
		"districtModern":"中國-山西省-大同市-大同縣",
		"note":null,
		"lang":"中文",
		"shortAuthorityID":"PL4063",
		"names":"",
		"pinyin":[]
	},
	{
		"authorityID":"PL000000004064",
		"name":"上泉站",
		"dynasty":"元",
		"long":"113.3819",
		"lat":"39.9718",
		"districtHistorical":"元_中書省",
		"districtModern":"中國-山西省-大同市-大同縣",
		"note":null,
		"lang":"中文",
		"shortAuthorityID":"PL4064",
		"names":"",
		"pinyin":[]
	},
	{
		"authorityID":"PL000000004065",
		"name":"平潭站",
		"dynasty":"元",
		"long":"113.5671",
		"lat":"37.8781",
		"districtHistorical":"元_中書省",
		"districtModern":"中國-山西省-陽泉市-礦區",
		"note":null,
		"lang":"中文",
		"shortAuthorityID":"PL4065",
		"names":"",
		"pinyin":[]
	},
	{
		"authorityID":"PL000000004066",
		"name":"平譚城",
		"dynasty":"北魏",
		"long":"113.5391",
		"lat":"37.8523",
		"districtHistorical":"北朝 魏_并州",
		"districtModern":"中國-山西省-陽泉市-郊區",
		"note":null,
		"lang":"中文",
		"shortAuthorityID":"PL4066",
		"names":"",
		"pinyin":[]
	},
	{
		"authorityID":"PL000000004067",
		"name":"承天軍",
		"dynasty":"唐",
		"long":"113.911",
		"lat":"37.9732",
		"districtHistorical":"唐_河東道",
		"districtModern":"中國-山西省-陽泉市-平定縣",
		"note":null,
		"lang":"中文",
		"shortAuthorityID":"PL4067",
		"names":"",
		"pinyin":[]
	},
	{
		"authorityID":"PL000000004068",
		"name":"娘子關",
		"dynasty":"清",
		"long":"113.8893",
		"lat":"37.9611",
		"districtHistorical":"清_山西",
		"districtModern":"中國-山西省-陽泉市-平定縣",
		"note":null,
		"lang":"中文",
		"shortAuthorityID":"PL4068",
		"names":"",
		"pinyin":[]
	},
	{
		"authorityID":"PL000000004069",
		"name":"葦澤關",
		"dynasty":"明",
		"long":"113.882",
		"lat":"37.9521",
		"districtHistorical":"明_山西",
		"districtModern":"中國-山西省-陽泉市-平定縣",
		"note":null,
		"lang":"中文",
		"shortAuthorityID":"PL4069",
		"names":"",
		"pinyin":[]
	},
	{
		"authorityID":"PL000000004070",
		"name":"故關",
		"dynasty":"明",
		"long":"113.9222",
		"lat":"37.9485",
		"districtHistorical":"明_山西",
		"districtModern":"中國-山西省-陽泉市-平定縣",
		"note":null,
		"lang":"中文",
		"shortAuthorityID":"PL4070",
		"names":"",
		"pinyin":[]
	},
	{
		"authorityID":"PL000000004071",
		"name":"故關",
		"dynasty":"元",
		"long":"113.9222",
		"lat":"37.9485",
		"districtHistorical":"元_中書省",
		"districtModern":"中國-山西省-陽泉市-平定縣",
		"note":null,
		"lang":"中文",
		"shortAuthorityID":"PL4071",
		"names":"",
		"pinyin":[]
	},
	{
		"authorityID":"PL000000004072",
		"name":"固關",
		"dynasty":"清",
		"long":"113.924",
		"lat":"37.9237",
		"districtHistorical":"清_山西",
		"districtModern":"中國-山西省-陽泉市-平定縣",
		"note":null,
		"lang":"中文",
		"shortAuthorityID":"PL4072",
		"names":"",
		"pinyin":[]
	},
	{
		"authorityID":"PL000000004073",
		"name":"固關",
		"dynasty":"明",
		"long":"113.935",
		"lat":"37.9161",
		"districtHistorical":"明_山西",
		"districtModern":"中國-山西省-陽泉市-平定縣",
		"note":null,
		"lang":"中文",
		"shortAuthorityID":"PL4073",
		"names":"",
		"pinyin":[]
	},
	{
		"authorityID":"PL000000004074",
		"name":"故關",
		"dynasty":"唐",
		"long":"113.9205",
		"lat":"37.9085",
		"districtHistorical":"唐_河東道",
		"districtModern":"中國-山西省-陽泉市-平定縣",
		"note":null,
		"lang":"中文",
		"shortAuthorityID":"PL4074",
		"names":"",
		"pinyin":[]
	},
	{
		"authorityID":"PL000000004075",
		"name":"新固關",
		"dynasty":"清",
		"long":"113.8802",
		"lat":"37.8902",
		"districtHistorical":"清_山西",
		"districtModern":"中國-山西省-陽泉市-平定縣",
		"note":null,
		"lang":"中文",
		"shortAuthorityID":"PL4075",
		"names":"",
		"pinyin":[]
	},
	{
		"authorityID":"PL000000004076",
		"name":"新固關所",
		"dynasty":"明",
		"long":"113.8814",
		"lat":"37.8836",
		"districtHistorical":"明_山西",
		"districtModern":"中國-山西省-陽泉市-平定縣",
		"note":null,
		"lang":"中文",
		"shortAuthorityID":"PL4076",
		"names":"",
		"pinyin":[]
	},
	{
		"authorityID":"PL000000004077",
		"name":"柏井驛",
		"dynasty":"清",
		"long":"113.8035",
		"lat":"37.8229",
		"districtHistorical":"清_山西",
		"districtModern":"中國-山西省-陽泉市-平定縣",
		"note":null,
		"lang":"中文",
		"shortAuthorityID":"PL4077",
		"names":"",
		"pinyin":[]
	},
	{
		"authorityID":"PL000000004078",
		"name":"百井寨",
		"dynasty":"北宋",
		"long":"113.8169",
		"lat":"37.8148",
		"districtHistorical":"北宋_河東路",
		"districtModern":"中國-山西省-陽泉市-平定縣",
		"note":null,
		"lang":"中文",
		"shortAuthorityID":"PL4078",
		"names":"",
		"pinyin":[]
	},
	{
		"authorityID":"PL000000004079",
		"name":"柏井站",
		"dynasty":"元",
		"long":"113.8059",
		"lat":"37.8098",
		"districtHistorical":"元_中書省",
		"districtModern":"中國-山西省-陽泉市-平定縣",
		"note":null,
		"lang":"中文",
		"shortAuthorityID":"PL4079",
		"names":"",
		"pinyin":[]
	},
	{
		"authorityID":"PL000000004080",
		"name":"平定州",
		"dynasty":"清",
		"long":"113.6318",
		"lat":"37.8014",
		"districtHistorical":"清_山西",
		"districtModern":"中國-山西省-陽泉市-平定縣",
		"note":null,
		"lang":"中文",
		"shortAuthorityID":"PL4080",
		"names":"",
		"pinyin":[]
	},
	{
		"authorityID":"PL000000004081",
		"name":"平定州",
		"dynasty":"明",
		"long":"113.6318",
		"lat":"37.8014",
		"districtHistorical":"明_山西",
		"districtModern":"中國-山西省-陽泉市-平定縣",
		"note":null,
		"lang":"中文",
		"shortAuthorityID":"PL4081",
		"names":"",
		"pinyin":[]
	},
	{
		"authorityID":"PL000000004082",
		"name":"平定",
		"dynasty":"北宋",
		"long":"113.6318",
		"lat":"37.8014",
		"districtHistorical":"北宋_河東路",
		"districtModern":"中國-山西省-陽泉市-平定縣",
		"note":null,
		"lang":"中文",
		"shortAuthorityID":"PL4082",
		"names":"",
		"pinyin":[]
	},
	{
		"authorityID":"PL000000004083",
		"name":"平定軍",
		"dynasty":"北宋",
		"long":"113.6318",
		"lat":"37.8014",
		"districtHistorical":"北宋_河東路",
		"districtModern":"中國-山西省-陽泉市-平定縣",
		"note":"平定軍是古晉陽地。（淵四．詩地理攷．卷六：15；<a target=\"_blank\" href=\"http:\/\/baike.baidu.com\/view\/1090922.htm\">http:\/\/baike.baidu.com\/view\/1090922.htm<\/a>、<a target=\"_blank\" href=\"http:\/\/www.xysa.net\/a200\/h350\/20songshi\/t-491.htm\">http:\/\/www.xysa.net\/a200\/h350\/20songshi\/t-491.htm<\/a>，2009.10.02）",
		"lang":"中文",
		"shortAuthorityID":"PL4083",
		"names":"",
		"pinyin":[]
	},
	{
		"authorityID":"PL000000004084",
		"name":"石艾",
		"dynasty":"唐",
		"long":"113.6318",
		"lat":"37.8014",
		"districtHistorical":"唐_河東道",
		"districtModern":"中國-山西省-陽泉市-平定縣",
		"note":null,
		"lang":"中文",
		"shortAuthorityID":"PL4084",
		"names":"",
		"pinyin":[]
	},
	{
		"authorityID":"PL000000004085",
		"name":"石艾",
		"dynasty":"隋",
		"long":"113.6318",
		"lat":"37.8014",
		"districtHistorical":"隋_太原郡",
		"districtModern":"中國-山西省-陽泉市-平定縣",
		"note":null,
		"lang":"中文",
		"shortAuthorityID":"PL4085",
		"names":"",
		"pinyin":[]
	},
	{
		"authorityID":"PL000000004086",
		"name":"上艾",
		"dynasty":"西晉",
		"long":"113.6318",
		"lat":"37.8014",
		"districtHistorical":"西晉_并州",
		"districtModern":"中國-山西省-陽泉市-平定縣",
		"note":null,
		"lang":"中文",
		"shortAuthorityID":"PL4086",
		"names":"",
		"pinyin":[]
	},
	{
		"authorityID":"PL000000004087",
		"name":"上艾",
		"dynasty":"曹魏",
		"long":"113.6318",
		"lat":"37.8014",
		"districtHistorical":"三國 魏_并州",
		"districtModern":"中國-山西省-陽泉市-平定縣",
		"note":null,
		"lang":"中文",
		"shortAuthorityID":"PL4087",
		"names":"",
		"pinyin":[]
	},
	{
		"authorityID":"PL000000004088",
		"name":"上艾",
		"dynasty":"東漢",
		"long":"113.6318",
		"lat":"37.8014",
		"districtHistorical":"東漢_冀州刺史部",
		"districtModern":"中國-山西省-陽泉市-平定縣",
		"note":null,
		"lang":"中文",
		"shortAuthorityID":"PL4088",
		"names":"",
		"pinyin":[]
	},
	{
		"authorityID":"PL000000004089",
		"name":"上艾",
		"dynasty":"西漢",
		"long":"113.6318",
		"lat":"37.8014",
		"districtHistorical":"西漢_并州刺史部",
		"districtModern":"中國-山西省-陽泉市-平定縣",
		"note":null,
		"lang":"中文",
		"shortAuthorityID":"PL4089",
		"names":"",
		"pinyin":[]
	},
	{
		"authorityID":"PL000000004090",
		"name":"樂平郡",
		"dynasty":"前秦",
		"long":"113.6314",
		"lat":"37.7913",
		"districtHistorical":"前秦",
		"districtModern":"中國-山西省-陽泉市-平定縣",
		"note":null,
		"lang":"中文",
		"shortAuthorityID":"PL4090",
		"names":"",
		"pinyin":[]
	},
	{
		"authorityID":"PL000000004091",
		"name":"平定州",
		"dynasty":"元",
		"long":"113.6318",
		"lat":"37.8014",
		"districtHistorical":"元_中書省",
		"districtModern":"中國-山西省-陽泉市-平定縣",
		"note":null,
		"lang":"中文",
		"shortAuthorityID":"PL4091",
		"names":"",
		"pinyin":[]
	},
	{
		"authorityID":"PL000000004092",
		"name":"伏馬關",
		"dynasty":null,
		"long":"113.094736",
		"lat":"38.637631",
		"districtHistorical":null,
		"districtModern":"中國-山西省-忻州市-五台縣",
		"note":"（一）在山西省盂縣東北七十里，《新唐書．地理志》： 「盂縣東北有白馬故關，後魏置。」（二） 五台縣城南5千米處。舊為從南面進入五台山的大門。 （<a target=\"_blank\" href=\"http:\/\/baike.baidu.com\/view\/274324.htm?func=retitle\">http:\/\/baike.baidu.com\/view\/274324.htm?func=retitle<\/a>，2009.09.21；<a target=\"_blank\" href=\"http:\/\/www.wu-tai-shan.com\/bbs\/thread-203-1-1.html\">http:\/\/www.wu-tai-shan.com\/五台山四關 <\/a>、<a target=\"_blank\" href=\"http:\/\/www.wu-tai-shan.com\/bbs\/data\/attachment\/forum\/201111\/27\/120656jy7gj7ygig8iglgx.jpg\">http:\/\/www.wu-tai-shan.com\/五臺山地圖<\/a>，2012.04.05）",
		"lang":"中文",
		"shortAuthorityID":"PL4092",
		"names":"[中文] 白馬關,牧馬關,牧護關",
		"pinyin":[]
	},
	{
		"authorityID":"PL000000004093",
		"name":"大賢村",
		"dynasty":"沒有給定朝代",
		"long":"113.361735",
		"lat":"38.016759",
		"districtHistorical":null,
		"districtModern":"中國-山西省-陽泉市-盂縣",
		"note":"位於并部盂縣之西南同頴鄉。李通玄於開元七年春，至大賢村高山奴家，止於偏房中造論，演暢華嚴，不出戶庭，幾于三載。（T50n2061_p0853c14；宋僧索引：839）",
		"lang":"中文",
		"shortAuthorityID":"PL4093",
		"names":"",
		"pinyin":[]
	},
	{
		"authorityID":"PL000000004094",
		"mergeTo":"PL000000004093",
		"names":"",
		"pinyin":[]
	},
	{
		"authorityID":"PL000000004095",
		"name":"冠蓋村",
		"dynasty":"沒有給定朝代",
		"long":"113.358023",
		"lat":"38.039176",
		"districtHistorical":null,
		"districtModern":"中國-山西省-陽泉市-盂縣",
		"note":"位於并部盂縣攔掌村，傳唐宗族李長者，雲游來盂陷居於攔掌村西南北寺山註釋「華嚴經」，一日由北寺山要到雙鶴山路經該村，村民攔請李長者講學，李應之。此後村民議定將原名「冠蓋村」易名為「攔長村」。後演寫為攔掌村。（T50n2061_p0853c14；<a target=\"_blank\" href=\"http:\/\/www.yxzsyzw.gov.cn\/typenews.asp?id=188\">http:\/\/www.yxzsyzw.gov.cn\/typenews.asp?id=188<\/a>，2012.04.30）",
		"lang":"中文",
		"shortAuthorityID":"PL4095",
		"names":"[中文] 攔掌村,攔長村,韓氏莊",
		"pinyin":{
			"冠蓋村":"guàn gài cūn",
			"攔掌村":"lán zhǎng cūn",
			"攔長村":"lán zhǎng cūn",
			"韓氏莊":"hán shì zhuāng"
		}
	},
	{
		"authorityID":"PL000000004096",
		"name":"長者泉",
		"dynasty":null,
		"long":"113.407143",
		"lat":"38.083074",
		"districtHistorical":null,
		"districtModern":"中國-山西省-陽泉市-盂縣",
		"note":"位於并部盂縣冠蓋村，李通玄長者曾居此附近，其處原無泉可汲用，會暴風雨，拔老松去，可百尺餘成池，約深丈許，其味香甘，至今呼為長者泉。（T50n2061_p0853c14、T50n2064_p0995b04）",
		"lang":"中文",
		"shortAuthorityID":"PL4096",
		"names":"",
		"pinyin":[]
	},
	{
		"authorityID":"PL000000004097",
		"name":"榆棗口",
		"dynasty":"清",
		"long":"113.4187",
		"lat":"38.4269",
		"districtHistorical":"清_山西",
		"districtModern":"中國-山西省-陽泉市-盂縣",
		"note":null,
		"lang":"中文",
		"shortAuthorityID":"PL4097",
		"names":"",
		"pinyin":{
			"榆棗口":"yú zǎo kǒu"
		}
	},
	{
		"authorityID":"PL000000004098",
		"name":"榆棗關",
		"dynasty":"明",
		"long":"113.4154",
		"lat":"38.4228",
		"districtHistorical":"明_山西",
		"districtModern":"中國-山西省-陽泉市-盂縣",
		"note":null,
		"lang":"中文",
		"shortAuthorityID":"PL4098",
		"names":"",
		"pinyin":[]
	},
	{
		"authorityID":"PL000000004099",
		"name":"中社",
		"dynasty":"清",
		"long":"113.3048",
		"lat":"38.276",
		"districtHistorical":"清_山西",
		"districtModern":"中國-山西省-陽泉市-盂縣",
		"note":null,
		"lang":"中文",
		"shortAuthorityID":"PL4099",
		"names":"",
		"pinyin":[]
	},
	{
		"authorityID":"PL000000004100",
		"name":"六嶺關",
		"dynasty":"清",
		"long":"113.5624",
		"lat":"38.231",
		"districtHistorical":"清_直隸",
		"districtModern":"中國-山西省-陽泉市-盂縣",
		"note":null,
		"lang":"中文",
		"shortAuthorityID":"PL4100",
		"names":"",
		"pinyin":[]
	},
	{
		"authorityID":"PL000000004101",
		"name":"西煙堡",
		"dynasty":"清",
		"long":"113.074",
		"lat":"38.1702",
		"districtHistorical":"清_山西",
		"districtModern":"中國-山西省-陽泉市-盂縣",
		"note":null,
		"lang":"中文",
		"shortAuthorityID":"PL4101",
		"names":"",
		"pinyin":[]
	},
	{
		"authorityID":"PL000000004102",
		"name":"烏城驛",
		"dynasty":"唐",
		"long":"113.0673",
		"lat":"38.1631",
		"districtHistorical":"唐_河東道",
		"districtModern":"中國-山西省-陽泉市-盂縣",
		"note":null,
		"lang":"中文",
		"shortAuthorityID":"PL4102",
		"names":"",
		"pinyin":[]
	},
	{
		"authorityID":"PL000000004103",
		"name":"牛村寨",
		"dynasty":"清",
		"long":"113.5069",
		"lat":"38.1048",
		"districtHistorical":"清_山西",
		"districtModern":"中國-山西省-陽泉市-盂縣",
		"note":null,
		"lang":"中文",
		"shortAuthorityID":"PL4103",
		"names":"",
		"pinyin":[]
	},
	{
		"authorityID":"PL000000004104",
		"name":"盂縣",
		"dynasty":"清",
		"long":"113.4225",
		"lat":"38.0904",
		"districtHistorical":"清_山西",
		"districtModern":"中國-山西省-陽泉市-盂縣",
		"note":null,
		"lang":"中文",
		"shortAuthorityID":"PL4104",
		"names":"",
		"pinyin":[]
	},
	{
		"authorityID":"PL000000004105",
		"name":"盂縣",
		"dynasty":"明",
		"long":"113.4225",
		"lat":"38.0904",
		"districtHistorical":"明_山西",
		"districtModern":"中國-山西省-陽泉市-盂縣",
		"note":"位於山西省東部盆地，地處太行山西側。古名仇猶，是山西最古老的縣份之一，現屬陽泉市管轄。盂縣乃春秋晉大夫盂丙之邑，故城在今陽曲縣東北大盂鎮。因縣境山巒回合，中低如盂得名。宋神宗時，盂屬太原府。金興定年間升為州。明洪武七年（1374），降盂州為盂縣，屬山西省太原。（<a target=\"_blank\" href=\"http:\/\/baike.baidu.com\/view\/10183.htm\">http:\/\/baike.baidu.com\/盂縣<\/a>，2012.04.09）",
		"lang":"中文",
		"shortAuthorityID":"PL4105",
		"names":"",
		"pinyin":[]
	},
	{
		"authorityID":"PL000000004106",
		"name":"盂州",
		"dynasty":"元",
		"long":"113.4225",
		"lat":"38.0904",
		"districtHistorical":"元_中書省",
		"districtModern":"中國-山西省-陽泉市-盂縣",
		"note":null,
		"lang":"中文",
		"shortAuthorityID":"PL4106",
		"names":"",
		"pinyin":{
			"盂州":"yú zhōu"
		}
	},
	{
		"authorityID":"PL000000004107",
		"name":"盂縣",
		"dynasty":"北宋",
		"long":"113.4225",
		"lat":"38.0904",
		"districtHistorical":"北宋_河東路",
		"districtModern":"中國-山西省-陽泉市-盂縣",
		"note":null,
		"lang":"中文",
		"shortAuthorityID":"PL4107",
		"names":"",
		"pinyin":[]
	},
	{
		"authorityID":"PL000000004108",
		"name":"盂縣",
		"dynasty":"唐",
		"long":"113.4225",
		"lat":"38.0904",
		"districtHistorical":"唐_河東道",
		"districtModern":"中國-山西省-陽泉市-盂縣",
		"note":"隋縣。武德三年，置受州，領盂、壽陽二縣。六年，移受州於壽陽。貞觀八年，省受州，盂復屬并州。（<a target=\"_blank\" href=\"http:\/\/zh.wikisource.org\/zh-hant\/%E8%88%8A%E5%94%90%E6%9B%B8\/%E5%8D%B739\">http:\/\/zh.wikisource.org\/zh-hant\/%E8%88%8A%E5%94%90%E6%9B%B8\/%E5%8D%B739<\/a>；<a target=\"_blank\" href=\"http:\/\/www.hudong.com\/wiki\/%E7%9B%82%E5%8E%BF\">http:\/\/www.hudong.com\/wiki\/盂縣<\/a>，2014.04.15）",
		"lang":"中文",
		"shortAuthorityID":"PL4108",
		"names":"",
		"pinyin":[]
	},
	{
		"authorityID":"PL000000004109",
		"name":"盂縣",
		"dynasty":"隋",
		"long":"113.4225",
		"lat":"38.0904",
		"districtHistorical":"隋_太原郡",
		"districtModern":"中國-山西省-陽泉市-盂縣",
		"note":null,
		"lang":"中文",
		"shortAuthorityID":"PL4109",
		"names":"",
		"pinyin":[]
	},
	{
		"authorityID":"PL000000004110",
		"name":"濁漳水",
		"dynasty":null,
		"long":"113.862767",
		"lat":"36.353664",
		"districtHistorical":null,
		"districtModern":"中國-山西省-長治市",
		"note":"漳河上游。在今山西省中部。有三源，南源出長子縣西發鳩山，西源出沁縣西北漳源鎮，北源出榆社縣北，至襄坦縣東與黎城縣交界處匯合，東南流至平順縣西北，折而東流入河北省涉縣境，合於清漳河。……。（歷地史：1978；<a target=\"_blank\" href=\"http:\/\/zh.wikipedia.org\/zh-tw\/%E6%BC%B3%E6%B2%B3_%28%E5%B1%B1%E8%A5%BF%29\">濁漳河<\/a>，2010.03.22）",
		"lang":"中文",
		"shortAuthorityID":"PL4110",
		"names":"[中文] 濁漳河",
		"pinyin":{
			"濁漳水":"zhuó zhāng shuǐ",
			"濁漳河":"zhuó zhāng hé"
		}
	},
	{
		"authorityID":"PL000000004111",
		"name":"延祥院",
		"dynasty":null,
		"long":"113.111158",
		"lat":"36.194892",
		"districtHistorical":null,
		"districtModern":"中國-山西省-長治市",
		"note":"位於潞州境內。（T47n1973_p0325c20）",
		"lang":"中文",
		"shortAuthorityID":"PL4111",
		"names":"",
		"pinyin":{
			"延祥院":"yán xiáng yuàn"
		}
	},
	{
		"authorityID":"PL000000004112",
		"name":"開元寺",
		"dynasty":null,
		"long":"113.111158",
		"lat":"36.194892",
		"districtHistorical":null,
		"districtModern":"中國-山西省-長治市",
		"note":"位於上黨。（X77n1524_p0516b05）",
		"lang":"中文",
		"shortAuthorityID":"PL4112",
		"names":"",
		"pinyin":[]
	},
	{
		"authorityID":"PL000000004113",
		"name":"寒嶺",
		"dynasty":"沒有給定朝代",
		"long":"113.116118",
		"lat":"36.202842",
		"districtHistorical":null,
		"districtModern":"中國-山西省-長治市-城區",
		"note":"位於上黨。又釋巨方，觀方至上黨寒嶺而居。積稔之間，學徒數百，求請無阻。凡所提唱，真妄同源，遲速異劑，得心助道，在乎修治，大較如此。（T50n2061_p0759b23；宋僧索引：713）",
		"lang":"中文",
		"shortAuthorityID":"PL4113",
		"names":"",
		"pinyin":{
			"寒嶺":"hán lǐng"
		}
	},
	{
		"authorityID":"PL000000004114",
		"name":"法住寺",
		"dynasty":"唐",
		"long":"113.116118",
		"lat":"36.202842",
		"districtHistorical":null,
		"districtModern":"中國-山西省-長治市-城區",
		"note":"",
		"lang":"中文",
		"shortAuthorityID":"PL4114",
		"names":"",
		"pinyin":[]
	},
	{
		"authorityID":"PL000000004115",
		"name":"梵境寺",
		"dynasty":"隋",
		"long":"113.116118",
		"lat":"36.202842",
		"districtHistorical":null,
		"districtModern":"中國-山西省-長治市-城區",
		"note":"",
		"lang":"中文",
		"shortAuthorityID":"PL4115",
		"names":"",
		"pinyin":[]
	},
	{
		"authorityID":"PL000000004116",
		"name":"元開府寺",
		"dynasty":"北周",
		"long":"113.116118",
		"lat":"36.202842",
		"districtHistorical":null,
		"districtModern":"中國-山西省-長治市-城區",
		"note":"",
		"lang":"中文",
		"shortAuthorityID":"PL4116",
		"names":"",
		"pinyin":[]
	},
	{
		"authorityID":"PL000000004117",
		"name":"延唐寺",
		"dynasty":"沒有給定朝代",
		"long":"113.103576",
		"lat":"36.185494",
		"districtHistorical":null,
		"districtModern":"中國-山西省-長治市-城區",
		"note":"在長治縣城内。相傳唐明皇為别駕時，寺中有李樹連理。（唐寺考：95；<a target=\"_blank\" href=\" http:\/\/chgis.hmdc.harvard.edu\/search_details_1.php?ptid=relig_521\"> http:\/\/chgis.hmdc.harvard.edu\/search_details_1.php?ptid=relig_521<\/a>，2009.06.23；淵四．大清一統志．卷一百三：30；四部續．嘉慶一統志．潞安府二：2）",
		"lang":"中文",
		"shortAuthorityID":"PL4117",
		"names":"",
		"pinyin":{
			"延唐寺":"yán táng sì"
		}
	},
	{
		"authorityID":"PL000000004118",
		"name":"貞元寺",
		"dynasty":"唐",
		"long":"113.107695",
		"lat":"36.184234",
		"districtHistorical":null,
		"districtModern":"中國-山西省-長治市-城區",
		"note":"（唐寺考：96）",
		"lang":"中文",
		"shortAuthorityID":"PL4118",
		"names":"",
		"pinyin":[]
	},
	{
		"authorityID":"PL000000004119",
		"name":"宗教院",
		"dynasty":null,
		"long":"113.116118",
		"lat":"36.202842",
		"districtHistorical":null,
		"districtModern":"中國-山西省-長治市-城區",
		"note":"（明清序：248）",
		"lang":"中文",
		"shortAuthorityID":"PL4119",
		"names":"",
		"pinyin":[]
	},
	{
		"authorityID":"PL000000004120",
		"name":"長治",
		"dynasty":"清",
		"long":"113.1128",
		"lat":"36.1829",
		"districtHistorical":"清_山西",
		"districtModern":"中國-山西省-長治市-城區",
		"note":null,
		"lang":"中文",
		"shortAuthorityID":"PL4120",
		"names":"",
		"pinyin":[]
	},
	{
		"authorityID":"PL000000004121",
		"name":"濈安府",
		"dynasty":"清",
		"long":"113.1128",
		"lat":"36.1829",
		"districtHistorical":"清_山西",
		"districtModern":"中國-山西省-長治市-城區",
		"note":null,
		"lang":"中文",
		"shortAuthorityID":"PL4121",
		"names":"",
		"pinyin":[]
	},
	{
		"authorityID":"PL000000004122",
		"name":"長治",
		"dynasty":"明",
		"long":"113.1128",
		"lat":"36.1829",
		"districtHistorical":"明_山西",
		"districtModern":"中國-山西省-長治市-城區",
		"note":null,
		"lang":"中文",
		"shortAuthorityID":"PL4122",
		"names":"",
		"pinyin":[]
	},
	{
		"authorityID":"PL000000004123",
		"name":"潞安府",
		"dynasty":"明",
		"long":"113.1128",
		"lat":"36.1829",
		"districtHistorical":"明_山西",
		"districtModern":"中國-山西省-長治市-城區",
		"note":"元初曰隆德府，尋復為潞州，屬平陽路。明初洪武二年，以州治上黨縣省入。九年，直隸山西布政司。嘉靖八年，升為潞安府，領縣八。（<a target=\"_blank\" href=\"http:\/\/baike.baidu.com\/view\/1748991.htm\">http:\/\/baike.baidu.com\/view\/1748991.htm<\/a>，2011.11.17）",
		"lang":"中文",
		"shortAuthorityID":"PL4123",
		"names":"[中文] 潞安",
		"pinyin":{
			"潞安府":"lù ān fǔ",
			"潞安":"lù ān"
		}
	},
	{
		"authorityID":"PL000000004124",
		"name":"上黨",
		"dynasty":"元",
		"long":"113.1128",
		"lat":"36.1829",
		"districtHistorical":"元_中書省",
		"districtModern":"中國-山西省-長治市-城區",
		"note":null,
		"lang":"中文",
		"shortAuthorityID":"PL4124",
		"names":"",
		"pinyin":[]
	},
	{
		"authorityID":"PL000000004125",
		"name":"潞州",
		"dynasty":"金",
		"long":"113.1128",
		"lat":"36.1829",
		"districtHistorical":"金",
		"districtModern":"中國-山西省-長治市-城區",
		"note":null,
		"lang":"中文",
		"shortAuthorityID":"PL4125",
		"names":"",
		"pinyin":{
			"潞州":"lù zhōu"
		}
	},
	{
		"authorityID":"PL000000004126",
		"name":"上黨",
		"dynasty":"北宋",
		"long":"113.1128",
		"lat":"36.1829",
		"districtHistorical":"北宋_河東路",
		"districtModern":"中國-山西省-長治市-城區",
		"note":null,
		"lang":"中文",
		"shortAuthorityID":"PL4126",
		"names":"",
		"pinyin":[]
	},
	{
		"authorityID":"PL000000004127",
		"name":"隆德府",
		"dynasty":"北宋",
		"long":"113.1128",
		"lat":"36.1829",
		"districtHistorical":"北宋_河東路",
		"districtModern":"中國-山西省-長治市-城區",
		"note":null,
		"lang":"中文",
		"shortAuthorityID":"PL4127",
		"names":"",
		"pinyin":{
			"隆德府":"lóng dé fǔ"
		}
	},
	{
		"authorityID":"PL000000004128",
		"name":"潞州",
		"dynasty":"五代十國",
		"long":"113.1128",
		"lat":"36.1829",
		"districtHistorical":"五代十國_晉",
		"districtModern":"中國-山西省-長治市-城區",
		"note":null,
		"lang":"中文",
		"shortAuthorityID":"PL4128",
		"names":"",
		"pinyin":{
			"潞州":"lù zhōu"
		}
	},
	{
		"authorityID":"PL000000004129",
		"name":"上黨",
		"dynasty":"唐",
		"long":"113.1128",
		"lat":"36.1829",
		"districtHistorical":"唐_河東道",
		"districtModern":"中國-山西省-長治市-城區",
		"note":"漢壺關縣。隋分置上黨，州所治。（<a target=\"_blank\" href=\"http:\/\/zh.wikisource.org\/zh-hant\/%E8%88%8A%E5%94%90%E6%9B%B8\/%E5%8D%B739\">http:\/\/zh.wikisource.org\/zh-hant\/%E8%88%8A%E5%94%90%E6%9B%B8\/%E5%8D%B739<\/a>，2011.12.20）",
		"lang":"中文",
		"shortAuthorityID":"PL4129",
		"names":"",
		"pinyin":[]
	},
	{
		"authorityID":"PL000000004130",
		"name":"潞州",
		"dynasty":"唐",
		"long":"113.1128",
		"lat":"36.1829",
		"districtHistorical":"唐_河東道",
		"districtModern":"中國-山西省-長治市-城區",
		"note":"隋上黨郡。武德元年，改為潞州，領上黨、長子、屯留、潞城四縣。二年，置總管府，管潞、澤、沁、韓、蓋五州。四年，分上黨置壺關縣。貞觀元年，廢都督府。八年，置大都督府。十年，又改為都督府。貞觀十七年，廢韓州，以所管襄垣等五縣屬潞州。天寶元年，改為上黨郡。乾元元年，依舊為潞州大都督府。（<a target=\"_blank\" href=\"http:\/\/zh.wikisource.org\/zh-hant\/%E8%88%8A%E5%94%90%E6%9B%B8\/%E5%8D%B739\">http:\/\/zh.wikisource.org\/zh-hant\/%E8%88%8A%E5%94%90%E6%9B%B8\/%E5%8D%B739<\/a>，2011.12.20）",
		"lang":"中文",
		"shortAuthorityID":"PL4130",
		"names":"[中文] 上黨郡,昭義軍節度使,澤潞節度使",
		"pinyin":{
			"潞州":"lù zhōu",
			"上黨郡":"shàng dǎng jùn",
			"昭義軍節度使":"zhāo yì jūn jié dù shǐ",
			"澤潞節度使":"zé lù jié dù shǐ"
		}
	},
	{
		"authorityID":"PL000000004131",
		"name":"上黨",
		"dynasty":"隋",
		"long":"113.1128",
		"lat":"36.1829",
		"districtHistorical":"隋_上黨郡",
		"districtModern":"中國-山西省-長治市-城區",
		"note":null,
		"lang":"中文",
		"shortAuthorityID":"PL4131",
		"names":"",
		"pinyin":[]
	},
	{
		"authorityID":"PL000000004132",
		"name":"上黨郡",
		"dynasty":"隋",
		"long":"113.1128",
		"lat":"36.1829",
		"districtHistorical":"隋_上黨郡",
		"districtModern":"中國-山西省-長治市-城區",
		"note":null,
		"lang":"中文",
		"shortAuthorityID":"PL4132",
		"names":"",
		"pinyin":[]
	},
	{
		"authorityID":"PL000000004133",
		"name":"瀋陽中護衛",
		"dynasty":"明",
		"long":"113.1128",
		"lat":"36.1829",
		"districtHistorical":"明_山西",
		"districtModern":"中國-山西省-長治市-城區",
		"note":null,
		"lang":"中文",
		"shortAuthorityID":"PL4133",
		"names":"",
		"pinyin":[]
	},
	{
		"authorityID":"PL000000004134",
		"name":"潞州衛",
		"dynasty":"明",
		"long":"113.1128",
		"lat":"36.1829",
		"districtHistorical":"明_山西",
		"districtModern":"中國-山西省-長治市-城區",
		"note":null,
		"lang":"中文",
		"shortAuthorityID":"PL4134",
		"names":"",
		"pinyin":{
			"潞州衛":"lù zhōu wèi"
		}
	},
	{
		"authorityID":"PL000000004135",
		"name":"潞州",
		"dynasty":"元",
		"long":"113.1128",
		"lat":"36.1829",
		"districtHistorical":"元_中書省",
		"districtModern":"中國-山西省-長治市-城區",
		"note":null,
		"lang":"中文",
		"shortAuthorityID":"PL4135",
		"names":"",
		"pinyin":{
			"潞州":"lù zhōu"
		}
	},
	{
		"authorityID":"PL000000004136",
		"name":"昭義節度使",
		"dynasty":"五代十國",
		"long":"113.1128",
		"lat":"36.1829",
		"districtHistorical":"五代十國_晉",
		"districtModern":"中國-山西省-長治市-城區",
		"note":"",
		"lang":"中文",
		"shortAuthorityID":"PL4136",
		"names":"",
		"pinyin":[]
	},
	{
		"authorityID":"PL000000004137",
		"name":"石墨山",
		"dynasty":"唐",
		"long":"113.119349",
		"lat":"36.198963",
		"districtHistorical":null,
		"districtModern":"中國-山西省-長治市-郊區",
		"note":"位於上黨。（唐僧索引：519）",
		"lang":"中文",
		"shortAuthorityID":"PL4137",
		"names":"",
		"pinyin":[]
	},
	{
		"authorityID":"PL000000004138",
		"name":"壺關",
		"dynasty":"西晉",
		"long":"113.1155",
		"lat":"36.342",
		"districtHistorical":"西晉_并州",
		"districtModern":"中國-山西省-長治市-郊區",
		"note":null,
		"lang":"中文",
		"shortAuthorityID":"PL4138",
		"names":"",
		"pinyin":[]
	},
	{
		"authorityID":"PL000000004139",
		"name":"上黨郡",
		"dynasty":"曹魏",
		"long":"113.1155",
		"lat":"36.342",
		"districtHistorical":"三國 魏_并州",
		"districtModern":"中國-山西省-長治市-郊區",
		"note":null,
		"lang":"中文",
		"shortAuthorityID":"PL4139",
		"names":"",
		"pinyin":[]
	},
	{
		"authorityID":"PL000000004140",
		"name":"壺關",
		"dynasty":"曹魏",
		"long":"113.1155",
		"lat":"36.342",
		"districtHistorical":"三國 魏_并州",
		"districtModern":"中國-山西省-長治市-郊區",
		"note":null,
		"lang":"中文",
		"shortAuthorityID":"PL4140",
		"names":"",
		"pinyin":[]
	},
	{
		"authorityID":"PL000000004141",
		"name":"壺口關",
		"dynasty":"東漢",
		"long":"113.1682",
		"lat":"36.1711",
		"districtHistorical":"東漢_并州刺史部",
		"districtModern":"中國-山西省-長治市-郊區",
		"note":null,
		"lang":"中文",
		"shortAuthorityID":"PL4141",
		"names":"",
		"pinyin":[]
	},
	{
		"authorityID":"PL000000004142",
		"name":"壺口關",
		"dynasty":"西漢",
		"long":"113.1682",
		"lat":"36.1711",
		"districtHistorical":"西漢_并州刺史部",
		"districtModern":"中國-山西省-長治市-郊區",
		"note":null,
		"lang":"中文",
		"shortAuthorityID":"PL4142",
		"names":"",
		"pinyin":[]
	},
	{
		"authorityID":"PL000000004143",
		"name":"壺關",
		"dynasty":"東漢",
		"long":"113.0997",
		"lat":"36.3341",
		"districtHistorical":"東漢_并州刺史部",
		"districtModern":"中國-山西省-長治市-郊區",
		"note":null,
		"lang":"中文",
		"shortAuthorityID":"PL4143",
		"names":"",
		"pinyin":[]
	},
	{
		"authorityID":"PL000000004144",
		"name":"壺關",
		"dynasty":"西漢",
		"long":"113.0997",
		"lat":"36.3341",
		"districtHistorical":"西漢_并州刺史部",
		"districtModern":"中國-山西省-長治市-郊區",
		"note":null,
		"lang":"中文",
		"shortAuthorityID":"PL4144",
		"names":"",
		"pinyin":[]
	},
	{
		"authorityID":"PL000000004145",
		"name":"黃碾鎮",
		"dynasty":"清",
		"long":"113.1473",
		"lat":"36.3743",
		"districtHistorical":"清_山西",
		"districtModern":"中國-山西省-長治市-郊區",
		"note":null,
		"lang":"中文",
		"shortAuthorityID":"PL4145",
		"names":"",
		"pinyin":[]
	},
	{
		"authorityID":"PL000000004146",
		"name":"安昌鎮",
		"dynasty":"清",
		"long":"113.099",
		"lat":"36.3363",
		"districtHistorical":"清_山西",
		"districtModern":"中國-山西省-長治市-郊區",
		"note":null,
		"lang":"中文",
		"shortAuthorityID":"PL4146",
		"names":"",
		"pinyin":[]
	},
	{
		"authorityID":"PL000000004147",
		"name":"壺關口",
		"dynasty":"曹魏",
		"long":"113.1545",
		"lat":"36.1682",
		"districtHistorical":"三國 魏_并州",
		"districtModern":"中國-山西省-長治市-郊區",
		"note":null,
		"lang":"中文",
		"shortAuthorityID":"PL4147",
		"names":"",
		"pinyin":[]
	},
	{
		"authorityID":"PL000000004148",
		"name":"封田",
		"dynasty":"西晉",
		"long":"113.0938",
		"lat":"36.2368",
		"districtHistorical":"西晉_并州",
		"districtModern":"中國-山西省-長治市-郊區",
		"note":null,
		"lang":"中文",
		"shortAuthorityID":"PL4148",
		"names":"",
		"pinyin":[]
	},
	{
		"authorityID":"PL000000004149",
		"name":"上黨郡",
		"dynasty":"北魏",
		"long":"113.1203",
		"lat":"36.3325",
		"districtHistorical":"北朝 魏_并州",
		"districtModern":"中國-山西省-長治市-郊區",
		"note":"上黨地名最早見於春秋時期的晉國，但是具體的郡置時間已經難以考證。秦始皇統一天下分三十六郡，上黨郡是其中之一，西漢沿置。十六國、南北朝時，郡治徙遷數次後復治壺關城，北周宣政元年（578）分上黨郡地置潞州，上黨郡改隸潞州。唐朝改上黨郡為潞州，從此上黨郡之名不再存在。（<a target=\"_blank\" href=\"http:\/\/zh.wikipedia.org\/wiki\/%E4%B8%8A%E5%85%9A%E9%83%A1\">http:\/\/zh.wikipedia.org\/wiki\/%E4%B8%8A%E5%85%9A%E9%83%A1<\/a>，2012.08.21）",
		"lang":"中文",
		"shortAuthorityID":"PL4149",
		"names":"",
		"pinyin":[]
	},
	{
		"authorityID":"PL000000004150",
		"name":"壺關",
		"dynasty":"前秦",
		"long":"113.0703",
		"lat":"36.3437",
		"districtHistorical":"前秦",
		"districtModern":"中國-山西省-長治市-郊區",
		"note":null,
		"lang":"中文",
		"shortAuthorityID":"PL4150",
		"names":"",
		"pinyin":[]
	},
	{
		"authorityID":"PL000000004151",
		"name":"屯留",
		"dynasty":"北魏",
		"long":"113.0391",
		"lat":"36.3573",
		"districtHistorical":"北朝 魏_并州",
		"districtModern":"中國-山西省-長治市-郊區",
		"note":"建義（建義元年，分上黨之屯留置，有鹿臺山及祠）。（淵四．魏書．卷一百六上：16）",
		"lang":"中文",
		"shortAuthorityID":"PL4151",
		"names":"",
		"pinyin":[]
	},
	{
		"authorityID":"PL000000004152",
		"name":"西澗",
		"dynasty":"西晉",
		"long":"113.072",
		"lat":"36.1862",
		"districtHistorical":"西晉_并州",
		"districtModern":"中國-山西省-長治市-郊區",
		"note":null,
		"lang":"中文",
		"shortAuthorityID":"PL4152",
		"names":"",
		"pinyin":{
			"西澗":"xī jiàn"
		}
	},
	{
		"authorityID":"PL000000004153",
		"name":"裴村",
		"dynasty":"唐",
		"long":"113.0508",
		"lat":"36.1897",
		"districtHistorical":"唐_河東道",
		"districtModern":"中國-山西省-長治市-郊區",
		"note":null,
		"lang":"中文",
		"shortAuthorityID":"PL4153",
		"names":"",
		"pinyin":[]
	},
	{
		"authorityID":"PL000000004154",
		"name":"北董堡",
		"dynasty":"清",
		"long":"113.0911",
		"lat":"36.1345",
		"districtHistorical":"清_山西",
		"districtModern":"中國-山西省-長治市-長治縣",
		"note":null,
		"lang":"中文",
		"shortAuthorityID":"PL4154",
		"names":"",
		"pinyin":[]
	},
	{
		"authorityID":"PL000000004155",
		"name":"長子",
		"dynasty":"北魏",
		"long":"113.1117",
		"lat":"36.1104",
		"districtHistorical":"北朝 魏_并州",
		"districtModern":"中國-山西省-長治市-長治縣",
		"note":null,
		"lang":"中文",
		"shortAuthorityID":"PL4155",
		"names":"",
		"pinyin":[]
	},
	{
		"authorityID":"PL000000004156",
		"name":"高望堡",
		"dynasty":"唐",
		"long":"113.1592",
		"lat":"36.1046",
		"districtHistorical":"唐_河東道",
		"districtModern":"中國-山西省-長治市-長治縣",
		"note":null,
		"lang":"中文",
		"shortAuthorityID":"PL4156",
		"names":"",
		"pinyin":[]
	},
	{
		"authorityID":"PL000000004157",
		"name":"幸城",
		"dynasty":"北魏",
		"long":"113.037",
		"lat":"36.0914",
		"districtHistorical":"北朝 魏_并州",
		"districtModern":"中國-山西省-長治市-長治縣",
		"note":null,
		"lang":"中文",
		"shortAuthorityID":"PL4157",
		"names":"",
		"pinyin":[]
	},
	{
		"authorityID":"PL000000004158",
		"name":"黎亭",
		"dynasty":"東漢",
		"long":"113.0548",
		"lat":"36.0681",
		"districtHistorical":"東漢_并州刺史部",
		"districtModern":"中國-山西省-長治市-長治縣",
		"note":null,
		"lang":"中文",
		"shortAuthorityID":"PL4158",
		"names":"",
		"pinyin":{
			"黎亭":"lí tíng"
		}
	},
	{
		"authorityID":"PL000000004159",
		"name":"黎亭",
		"dynasty":"西晉",
		"long":"113.0673",
		"lat":"36.0663",
		"districtHistorical":"西晉_并州",
		"districtModern":"中國-山西省-長治市-長治縣",
		"note":null,
		"lang":"中文",
		"shortAuthorityID":"PL4159",
		"names":"",
		"pinyin":{
			"黎亭":"lí tíng"
		}
	},
	{
		"authorityID":"PL000000004160",
		"name":"韓店鎮",
		"dynasty":"清",
		"long":"113.0551",
		"lat":"36.0381",
		"districtHistorical":"清_山西",
		"districtModern":"中國-山西省-長治市-長治縣",
		"note":null,
		"lang":"中文",
		"shortAuthorityID":"PL4160",
		"names":"",
		"pinyin":[]
	},
	{
		"authorityID":"PL000000004161",
		"name":"韓店",
		"dynasty":"明",
		"long":"113.0584",
		"lat":"36.0376",
		"districtHistorical":"明_山西",
		"districtModern":"中國-山西省-長治市-長治縣",
		"note":null,
		"lang":"中文",
		"shortAuthorityID":"PL4161",
		"names":"",
		"pinyin":{
			"韓店":"hán diàn"
		}
	},
	{
		"authorityID":"PL000000004162",
		"name":"大峪嶺",
		"dynasty":"明",
		"long":"113.1713",
		"lat":"35.9752",
		"districtHistorical":"明_山西",
		"districtModern":"中國-山西省-長治市-長治縣",
		"note":null,
		"lang":"中文",
		"shortAuthorityID":"PL4162",
		"names":"",
		"pinyin":[]
	},
	{
		"authorityID":"PL000000004163",
		"name":"桑梓鎮",
		"dynasty":"清",
		"long":"113.0698",
		"lat":"35.9578",
		"districtHistorical":"清_山西",
		"districtModern":"中國-山西省-長治市-長治縣",
		"note":null,
		"lang":"中文",
		"shortAuthorityID":"PL4163",
		"names":"",
		"pinyin":[]
	},
	{
		"authorityID":"PL000000004164",
		"name":"大義鎮",
		"dynasty":"清",
		"long":"113.0244",
		"lat":"35.9386",
		"districtHistorical":"清_山西",
		"districtModern":"中國-山西省-長治市-長治縣",
		"note":null,
		"lang":"中文",
		"shortAuthorityID":"PL4164",
		"names":"",
		"pinyin":[]
	},
	{
		"authorityID":"PL000000004165",
		"name":"西火鎮",
		"dynasty":"清",
		"long":"113.1612",
		"lat":"35.9191",
		"districtHistorical":"清_山西",
		"districtModern":"中國-山西省-長治市-長治縣",
		"note":null,
		"lang":"中文",
		"shortAuthorityID":"PL4165",
		"names":"",
		"pinyin":[]
	},
	{
		"authorityID":"PL000000004166",
		"name":"武陽",
		"dynasty":"晉",
		"long":"113.044586",
		"lat":"36.534706",
		"districtHistorical":"",
		"districtModern":"中國-山西省-長治市-襄垣縣",
		"note":"在山西省襄垣縣，產煤，己開。（中地：508）",
		"lang":"中文",
		"shortAuthorityID":"PL4166",
		"names":"",
		"pinyin":{
			"武陽":"wǔ yáng"
		}
	},
	{
		"authorityID":"PL000000004167",
		"name":"延聖寺",
		"dynasty":"唐",
		"long":"113.044586",
		"lat":"36.534706",
		"districtHistorical":null,
		"districtModern":"中國-山西省-長治市-襄垣縣",
		"note":"",
		"lang":"中文",
		"shortAuthorityID":"PL4167",
		"names":"",
		"pinyin":[]
	},
	{
		"authorityID":"PL000000004168",
		"name":"修寂寺",
		"dynasty":"隋",
		"long":"113.044586",
		"lat":"36.534706",
		"districtHistorical":null,
		"districtModern":"中國-山西省-長治市-襄垣縣",
		"note":"",
		"lang":"中文",
		"shortAuthorityID":"PL4168",
		"names":"",
		"pinyin":[]
	},
	{
		"authorityID":"PL000000004169",
		"name":"西營鎮",
		"dynasty":"清",
		"long":"113.0527",
		"lat":"36.7139",
		"districtHistorical":"清_山西",
		"districtModern":"中國-山西省-長治市-襄垣縣",
		"note":null,
		"lang":"中文",
		"shortAuthorityID":"PL4169",
		"names":"",
		"pinyin":[]
	},
	{
		"authorityID":"PL000000004170",
		"name":"襄垣",
		"dynasty":"秦",
		"long":"113.0224",
		"lat":"36.6722",
		"districtHistorical":"秦_上黨郡",
		"districtModern":"中國-山西省-長治市-襄垣縣",
		"note":null,
		"lang":"中文",
		"shortAuthorityID":"PL4170",
		"names":"",
		"pinyin":{
			"襄垣":"xiāng yuán"
		}
	},
	{
		"authorityID":"PL000000004171",
		"name":"下良鎮",
		"dynasty":"清",
		"long":"113.054",
		"lat":"36.6557",
		"districtHistorical":"清_山西",
		"districtModern":"中國-山西省-長治市-襄垣縣",
		"note":null,
		"lang":"中文",
		"shortAuthorityID":"PL4171",
		"names":"",
		"pinyin":[]
	},
	{
		"authorityID":"PL000000004172",
		"name":"襄垣",
		"dynasty":"西晉",
		"long":"113.0404",
		"lat":"36.6502",
		"districtHistorical":"西晉_并州",
		"districtModern":"中國-山西省-長治市-襄垣縣",
		"note":null,
		"lang":"中文",
		"shortAuthorityID":"PL4172",
		"names":"",
		"pinyin":{
			"襄垣":"xiāng yuán"
		}
	},
	{
		"authorityID":"PL000000004173",
		"name":"襄垣",
		"dynasty":"曹魏",
		"long":"113.0404",
		"lat":"36.6502",
		"districtHistorical":"三國 魏_并州",
		"districtModern":"中國-山西省-長治市-襄垣縣",
		"note":null,
		"lang":"中文",
		"shortAuthorityID":"PL4173",
		"names":"",
		"pinyin":{
			"襄垣":"xiāng yuán"
		}
	},
	{
		"authorityID":"PL000000004174",
		"name":"襄垣",
		"dynasty":"東漢",
		"long":"113.008",
		"lat":"36.6492",
		"districtHistorical":"東漢_并州刺史部",
		"districtModern":"中國-山西省-長治市-襄垣縣",
		"note":null,
		"lang":"中文",
		"shortAuthorityID":"PL4174",
		"names":"",
		"pinyin":{
			"襄垣":"xiāng yuán"
		}
	},
	{
		"authorityID":"PL000000004175",
		"name":"襄垣",
		"dynasty":"西漢",
		"long":"113.008",
		"lat":"36.6492",
		"districtHistorical":"西漢_并州刺史部",
		"districtModern":"中國-山西省-長治市-襄垣縣",
		"note":null,
		"lang":"中文",
		"shortAuthorityID":"PL4175",
		"names":"",
		"pinyin":{
			"襄垣":"xiāng yuán"
		}
	},
	{
		"authorityID":"PL000000004176",
		"name":"安民城",
		"dynasty":"北魏",
		"long":"113.0341",
		"lat":"36.5825",
		"districtHistorical":"北朝 魏_并州",
		"districtModern":"中國-山西省-長治市-襄垣縣",
		"note":null,
		"lang":"中文",
		"shortAuthorityID":"PL4176",
		"names":"",
		"pinyin":{
			"安民城":"ān mín chéng"
		}
	},
	{
		"authorityID":"PL000000004177",
		"name":"下虒聚",
		"dynasty":"西漢",
		"long":"112.8217",
		"lat":"36.5789",
		"districtHistorical":"西漢_并州刺史部",
		"districtModern":"中國-山西省-長治市-襄垣縣",
		"note":null,
		"lang":"中文",
		"shortAuthorityID":"PL4177",
		"names":"",
		"pinyin":[]
	},
	{
		"authorityID":"PL000000004178",
		"name":"虒亭鎮",
		"dynasty":"清",
		"long":"112.8162",
		"lat":"36.5627",
		"districtHistorical":"清_山西",
		"districtModern":"中國-山西省-長治市-襄垣縣",
		"note":null,
		"lang":"中文",
		"shortAuthorityID":"PL4178",
		"names":"",
		"pinyin":[]
	},
	{
		"authorityID":"PL000000004179",
		"name":"褫亭鎮",
		"dynasty":"北宋",
		"long":"112.8225",
		"lat":"36.5607",
		"districtHistorical":"北宋_河東路",
		"districtModern":"中國-山西省-長治市-襄垣縣",
		"note":null,
		"lang":"中文",
		"shortAuthorityID":"PL4179",
		"names":"",
		"pinyin":[]
	},
	{
		"authorityID":"PL000000004180",
		"name":"襄垣",
		"dynasty":"清",
		"long":"113.0501",
		"lat":"36.534",
		"districtHistorical":"清_山西",
		"districtModern":"中國-山西省-長治市-襄垣縣",
		"note":null,
		"lang":"中文",
		"shortAuthorityID":"PL4180",
		"names":"",
		"pinyin":{
			"襄垣":"xiāng yuán"
		}
	},
	{
		"authorityID":"PL000000004181",
		"name":"襄垣",
		"dynasty":"明",
		"long":"113.0501",
		"lat":"36.534",
		"districtHistorical":"明_山西",
		"districtModern":"中國-山西省-長治市-襄垣縣",
		"note":null,
		"lang":"中文",
		"shortAuthorityID":"PL4181",
		"names":"",
		"pinyin":{
			"襄垣":"xiāng yuán"
		}
	},
	{
		"authorityID":"PL000000004182",
		"name":"襄垣",
		"dynasty":"元",
		"long":"113.0501",
		"lat":"36.534",
		"districtHistorical":"元_中書省",
		"districtModern":"中國-山西省-長治市-襄垣縣",
		"note":null,
		"lang":"中文",
		"shortAuthorityID":"PL4182",
		"names":"",
		"pinyin":{
			"襄垣":"xiāng yuán"
		}
	},
	{
		"authorityID":"PL000000004183",
		"name":"襄垣",
		"dynasty":"北宋",
		"long":"113.0501",
		"lat":"36.534",
		"districtHistorical":"北宋_河東路",
		"districtModern":"中國-山西省-長治市-襄垣縣",
		"note":null,
		"lang":"中文",
		"shortAuthorityID":"PL4183",
		"names":"",
		"pinyin":{
			"襄垣":"xiāng yuán"
		}
	},
	{
		"authorityID":"PL000000004184",
		"name":"襄垣",
		"dynasty":"唐",
		"long":"113.0501",
		"lat":"36.534",
		"districtHistorical":"唐_河東道",
		"districtModern":"中國-山西省-長治市-襄垣縣",
		"note":"又稱韓州，位於山西省東南部長治市轄區，太行山西麓，上黨盆地之北。襄垣因公元前455年趙襄子築城於此故名。襄垣夏屬冀州，商初屬上黨國，後併入黎國。西周復屬上黨國。春秋時期，周桓王二十一年（前699）地屬魯大夫黨氏食邑。秦朝置縣，新莽改稱上黨亭，東漢復稱襄垣縣。（<a target=\"_blank\" href=\"http:\/\/baike.baidu.com\/view\/176366.htm\">http:\/\/baike.baidu.com\/view\/176366.htm<\/a>，2011.12.09）",
		"lang":"中文",
		"shortAuthorityID":"PL4184",
		"names":"[中文] 韓州",
		"pinyin":{
			"襄垣":"xiāng yuán",
			"韓州":"hán zhōu"
		}
	},
	{
		"authorityID":"PL000000004185",
		"name":"襄垣",
		"dynasty":"隋",
		"long":"113.0501",
		"lat":"36.534",
		"districtHistorical":"隋_上黨郡",
		"districtModern":"中國-山西省-長治市-襄垣縣",
		"note":null,
		"lang":"中文",
		"shortAuthorityID":"PL4185",
		"names":"",
		"pinyin":{
			"襄垣":"xiāng yuán"
		}
	},
	{
		"authorityID":"PL000000004186",
		"name":"襄垣",
		"dynasty":"北魏",
		"long":"113.0501",
		"lat":"36.534",
		"districtHistorical":"北朝 魏_并州",
		"districtModern":"中國-山西省-長治市-襄垣縣",
		"note":null,
		"lang":"中文",
		"shortAuthorityID":"PL4186",
		"names":"",
		"pinyin":{
			"襄垣":"xiāng yuán"
		}
	},
	{
		"authorityID":"PL000000004187",
		"name":"夏店鎮",
		"dynasty":"清",
		"long":"112.9081",
		"lat":"36.514",
		"districtHistorical":"清_山西",
		"districtModern":"中國-山西省-長治市-襄垣縣",
		"note":null,
		"lang":"中文",
		"shortAuthorityID":"PL4187",
		"names":"",
		"pinyin":[]
	},
	{
		"authorityID":"PL000000004188",
		"name":"太平驛",
		"dynasty":"北宋",
		"long":"112.9443",
		"lat":"36.4944",
		"districtHistorical":"北宋_河東路",
		"districtModern":"中國-山西省-長治市-襄垣縣",
		"note":null,
		"lang":"中文",
		"shortAuthorityID":"PL4188",
		"names":"",
		"pinyin":[]
	},
	{
		"authorityID":"PL000000004189",
		"name":"太平驛",
		"dynasty":"唐",
		"long":"112.938",
		"lat":"36.4728",
		"districtHistorical":"唐_河東道",
		"districtModern":"中國-山西省-長治市-襄垣縣",
		"note":null,
		"lang":"中文",
		"shortAuthorityID":"PL4189",
		"names":"",
		"pinyin":[]
	},
	{
		"authorityID":"PL000000004190",
		"name":"東周鎮",
		"dynasty":"清",
		"long":"112.9749",
		"lat":"36.4717",
		"districtHistorical":"清_山西",
		"districtModern":"中國-山西省-長治市-襄垣縣",
		"note":null,
		"lang":"中文",
		"shortAuthorityID":"PL4190",
		"names":"",
		"pinyin":[]
	},
	{
		"authorityID":"PL000000004191",
		"name":"石佛寺",
		"dynasty":"唐",
		"long":"112.833998",
		"lat":"36.374934",
		"districtHistorical":null,
		"districtModern":"中國-山西省-長治市-屯留縣",
		"note":"在屯留縣西北十八里，唐貞觀初建。（唐寺考：95；<a target=\"_blank\" href=\" http:\/\/chgis.hmdc.harvard.edu\/search_details_1.php?ptid=relig_948\"> http:\/\/chgis.hmdc.harvard.edu\/search_details_1.php?ptid=relig_948<\/a>，2009.06.23；淵四．大清一統志．卷一百三：30；四部續．嘉慶一統志．潞安府二：2）",
		"lang":"中文",
		"shortAuthorityID":"PL4191",
		"names":"",
		"pinyin":{
			"石佛寺":"shí fó sì"
		}
	},
	{
		"authorityID":"PL000000004192",
		"name":"中村寨",
		"dynasty":"清",
		"long":"112.5592",
		"lat":"36.4145",
		"districtHistorical":"清_山西",
		"districtModern":"中國-山西省-長治市-屯留縣",
		"note":null,
		"lang":"中文",
		"shortAuthorityID":"PL4192",
		"names":"",
		"pinyin":[]
	},
	{
		"authorityID":"PL000000004193",
		"name":"余吾",
		"dynasty":"東漢",
		"long":"112.8382",
		"lat":"36.3883",
		"districtHistorical":"東漢_并州刺史部",
		"districtModern":"中國-山西省-長治市-屯留縣",
		"note":null,
		"lang":"中文",
		"shortAuthorityID":"PL4193",
		"names":"",
		"pinyin":[]
	},
	{
		"authorityID":"PL000000004194",
		"name":"余吾",
		"dynasty":"西漢",
		"long":"112.8382",
		"lat":"36.3883",
		"districtHistorical":"西漢_并州刺史部",
		"districtModern":"中國-山西省-長治市-屯留縣",
		"note":null,
		"lang":"中文",
		"shortAuthorityID":"PL4194",
		"names":"",
		"pinyin":[]
	},
	{
		"authorityID":"PL000000004195",
		"name":"余吾城",
		"dynasty":"北魏",
		"long":"112.8338",
		"lat":"36.3843",
		"districtHistorical":"北朝 魏_并州",
		"districtModern":"中國-山西省-長治市-屯留縣",
		"note":null,
		"lang":"中文",
		"shortAuthorityID":"PL4195",
		"names":"",
		"pinyin":[]
	},
	{
		"authorityID":"PL000000004196",
		"name":"苗岳鎮",
		"dynasty":"清",
		"long":"112.7973",
		"lat":"36.335",
		"districtHistorical":"清_山西",
		"districtModern":"中國-山西省-長治市-屯留縣",
		"note":null,
		"lang":"中文",
		"shortAuthorityID":"PL4196",
		"names":"",
		"pinyin":[]
	},
	{
		"authorityID":"PL000000004197",
		"name":"霍壁",
		"dynasty":"唐",
		"long":"112.7737",
		"lat":"36.3344",
		"districtHistorical":"唐_河東道",
		"districtModern":"中國-山西省-長治市-屯留縣",
		"note":null,
		"lang":"中文",
		"shortAuthorityID":"PL4197",
		"names":"",
		"pinyin":[]
	},
	{
		"authorityID":"PL000000004198",
		"name":"屯留",
		"dynasty":"隋",
		"long":"112.7911",
		"lat":"36.3225",
		"districtHistorical":"隋_上黨郡",
		"districtModern":"中國-山西省-長治市-屯留縣",
		"note":null,
		"lang":"中文",
		"shortAuthorityID":"PL4198",
		"names":"",
		"pinyin":[]
	},
	{
		"authorityID":"PL000000004199",
		"name":"屯留",
		"dynasty":"清",
		"long":"112.8918",
		"lat":"36.3213",
		"districtHistorical":"清_山西",
		"districtModern":"中國-山西省-長治市-屯留縣",
		"note":null,
		"lang":"中文",
		"shortAuthorityID":"PL4199",
		"names":"",
		"pinyin":[]
	},
	{
		"authorityID":"PL000000004200",
		"name":"屯留",
		"dynasty":"明",
		"long":"112.8918",
		"lat":"36.3213",
		"districtHistorical":"明_山西",
		"districtModern":"中國-山西省-長治市-屯留縣",
		"note":null,
		"lang":"中文",
		"shortAuthorityID":"PL4200",
		"names":"",
		"pinyin":[]
	},
	{
		"authorityID":"PL000000004201",
		"name":"屯留",
		"dynasty":"元",
		"long":"112.8918",
		"lat":"36.3213",
		"districtHistorical":"元_中書省",
		"districtModern":"中國-山西省-長治市-屯留縣",
		"note":null,
		"lang":"中文",
		"shortAuthorityID":"PL4201",
		"names":"",
		"pinyin":[]
	},
	{
		"authorityID":"PL000000004202",
		"name":"屯留",
		"dynasty":"北宋",
		"long":"112.8918",
		"lat":"36.3213",
		"districtHistorical":"北宋_河東路",
		"districtModern":"中國-山西省-長治市-屯留縣",
		"note":null,
		"lang":"中文",
		"shortAuthorityID":"PL4202",
		"names":"",
		"pinyin":[]
	},
	{
		"authorityID":"PL000000004203",
		"name":"屯留",
		"dynasty":"唐",
		"long":"112.8918",
		"lat":"36.3213",
		"districtHistorical":"唐_河東道",
		"districtModern":"中國-山西省-長治市-屯留縣",
		"note":null,
		"lang":"中文",
		"shortAuthorityID":"PL4203",
		"names":"",
		"pinyin":[]
	},
	{
		"authorityID":"PL000000004204",
		"name":"霜澤寨",
		"dynasty":"清",
		"long":"112.6275",
		"lat":"36.3069",
		"districtHistorical":"清_山西",
		"districtModern":"中國-山西省-長治市-屯留縣",
		"note":null,
		"lang":"中文",
		"shortAuthorityID":"PL4204",
		"names":"",
		"pinyin":[]
	},
	{
		"authorityID":"PL000000004205",
		"name":"屯留",
		"dynasty":"西晉",
		"long":"112.9012",
		"lat":"36.2606",
		"districtHistorical":"西晉_并州",
		"districtModern":"中國-山西省-長治市-屯留縣",
		"note":null,
		"lang":"中文",
		"shortAuthorityID":"PL4205",
		"names":"",
		"pinyin":[]
	},
	{
		"authorityID":"PL000000004206",
		"name":"屯留",
		"dynasty":"曹魏",
		"long":"112.9012",
		"lat":"36.2606",
		"districtHistorical":"三國 魏_并州",
		"districtModern":"中國-山西省-長治市-屯留縣",
		"note":null,
		"lang":"中文",
		"shortAuthorityID":"PL4206",
		"names":"",
		"pinyin":[]
	},
	{
		"authorityID":"PL000000004207",
		"name":"屯留",
		"dynasty":"東漢",
		"long":"112.9016",
		"lat":"36.2524",
		"districtHistorical":"東漢_并州刺史部",
		"districtModern":"中國-山西省-長治市-屯留縣",
		"note":null,
		"lang":"中文",
		"shortAuthorityID":"PL4207",
		"names":"",
		"pinyin":[]
	},
	{
		"authorityID":"PL000000004208",
		"name":"屯留",
		"dynasty":"西漢",
		"long":"112.9016",
		"lat":"36.2524",
		"districtHistorical":"西漢_并州刺史部",
		"districtModern":"中國-山西省-長治市-屯留縣",
		"note":null,
		"lang":"中文",
		"shortAuthorityID":"PL4208",
		"names":"",
		"pinyin":[]
	},
	{
		"authorityID":"PL000000004209",
		"name":"屯留",
		"dynasty":"秦",
		"long":"112.9275",
		"lat":"36.2511",
		"districtHistorical":"秦_上黨郡",
		"districtModern":"中國-山西省-長治市-屯留縣",
		"note":null,
		"lang":"中文",
		"shortAuthorityID":"PL4209",
		"names":"",
		"pinyin":[]
	},
	{
		"authorityID":"PL000000004210",
		"name":"豐儀鎮",
		"dynasty":"清",
		"long":"112.7169",
		"lat":"36.2454",
		"districtHistorical":"清_山西",
		"districtModern":"中國-山西省-長治市-屯留縣",
		"note":null,
		"lang":"中文",
		"shortAuthorityID":"PL4210",
		"names":"",
		"pinyin":[]
	},
	{
		"authorityID":"PL000000004211",
		"name":"天龍洞",
		"dynasty":null,
		"long":"113.429849",
		"lat":"36.19994",
		"districtHistorical":null,
		"districtModern":"中國-山西省-長治市-平順縣",
		"note":"位於山西長治市平順縣內。（<a target=\"_blank\" href=\"http:\/\/mp.gscn.com.cn\/2011\/0708\/1928.html\">http:\/\/mp.gscn.com.cn\/2011\/0708\/1928.html<\/a>，2011.08.11）",
		"lang":"中文",
		"shortAuthorityID":"PL4211",
		"names":"",
		"pinyin":[]
	},
	{
		"authorityID":"PL000000004212",
		"name":"石城里",
		"dynasty":"清",
		"long":"113.6513",
		"lat":"36.3542",
		"districtHistorical":"清_山西",
		"districtModern":"中國-山西省-長治市-平順縣",
		"note":null,
		"lang":"中文",
		"shortAuthorityID":"PL4212",
		"names":"",
		"pinyin":[]
	},
	{
		"authorityID":"PL000000004213",
		"name":"虹梯關",
		"dynasty":"清",
		"long":"113.5596",
		"lat":"36.2349",
		"districtHistorical":"清_山西",
		"districtModern":"中國-山西省-長治市-平順縣",
		"note":null,
		"lang":"中文",
		"shortAuthorityID":"PL4213",
		"names":"",
		"pinyin":[]
	},
	{
		"authorityID":"PL000000004214",
		"name":"虹梯關",
		"dynasty":"明",
		"long":"113.5596",
		"lat":"36.2272",
		"districtHistorical":"明_山西",
		"districtModern":"中國-山西省-長治市-平順縣",
		"note":null,
		"lang":"中文",
		"shortAuthorityID":"PL4214",
		"names":"",
		"pinyin":[]
	},
	{
		"authorityID":"PL000000004215",
		"name":"平順",
		"dynasty":"清",
		"long":"113.4401",
		"lat":"36.2003",
		"districtHistorical":"清_山西",
		"districtModern":"中國-山西省-長治市-平順縣",
		"note":null,
		"lang":"中文",
		"shortAuthorityID":"PL4215",
		"names":"",
		"pinyin":[]
	},
	{
		"authorityID":"PL000000004216",
		"name":"平順",
		"dynasty":"明",
		"long":"113.4401",
		"lat":"36.2003",
		"districtHistorical":"明_山西",
		"districtModern":"中國-山西省-長治市-平順縣",
		"note":null,
		"lang":"中文",
		"shortAuthorityID":"PL4216",
		"names":"",
		"pinyin":[]
	},
	{
		"authorityID":"PL000000004217",
		"name":"越村",
		"dynasty":"明",
		"long":"113.5457",
		"lat":"36.0447",
		"districtHistorical":"明_山西",
		"districtModern":"中國-山西省-長治市-平順縣",
		"note":null,
		"lang":"中文",
		"shortAuthorityID":"PL4217",
		"names":"",
		"pinyin":[]
	},
	{
		"authorityID":"PL000000004218",
		"name":"玉峽關",
		"dynasty":"清",
		"long":"113.6259",
		"lat":"36.0381",
		"districtHistorical":"清_山西",
		"districtModern":"中國-山西省-長治市-平順縣",
		"note":null,
		"lang":"中文",
		"shortAuthorityID":"PL4218",
		"names":"",
		"pinyin":[]
	},
	{
		"authorityID":"PL000000004219",
		"name":"玉峽關",
		"dynasty":"明",
		"long":"113.6267",
		"lat":"36.0308",
		"districtHistorical":"明_山西",
		"districtModern":"中國-山西省-長治市-平順縣",
		"note":null,
		"lang":"中文",
		"shortAuthorityID":"PL4219",
		"names":"",
		"pinyin":[]
	},
	{
		"authorityID":"PL000000004220",
		"name":"羊腸阪",
		"dynasty":"西漢",
		"long":"113.513",
		"lat":"35.9993",
		"districtHistorical":"西漢_并州刺史部",
		"districtModern":"中國-山西省-長治市-平順縣",
		"note":null,
		"lang":"中文",
		"shortAuthorityID":"PL4220",
		"names":"",
		"pinyin":{
			"羊腸阪":"yáng cháng bǎn"
		}
	},
	{
		"authorityID":"PL000000004221",
		"name":"羊腸坂",
		"dynasty":"西晉",
		"long":"113.5813",
		"lat":"36.0152",
		"districtHistorical":"西晉_并州",
		"districtModern":"中國-山西省-長治市-平順縣",
		"note":"",
		"lang":"中文",
		"shortAuthorityID":"PL4221",
		"names":"",
		"pinyin":{
			"羊腸坂":"yáng cháng bǎn"
		}
	},
	{
		"authorityID":"PL000000004222",
		"name":"流泉精舍",
		"dynasty":"唐",
		"long":"113.387169",
		"lat":"36.502375",
		"districtHistorical":null,
		"districtModern":"中國-山西省-長治市-黎城縣",
		"note":"",
		"lang":"中文",
		"shortAuthorityID":"PL4222",
		"names":"",
		"pinyin":[]
	},
	{
		"authorityID":"PL000000004223",
		"name":"法會寺",
		"dynasty":"唐",
		"long":"113.336117",
		"lat":"36.46241",
		"districtHistorical":null,
		"districtModern":"中國-山西省-長治市-黎城縣",
		"note":"（唐寺考：95；<a target=\"_blank\" href=\" http:\/\/chgis.hmdc.harvard.edu\/search_details_1.php?ptid=relig_781\"> http:\/\/chgis.hmdc.harvard.edu\/search_details_1.php?ptid=relig_781<\/a>，2009.06.23）",
		"lang":"中文",
		"shortAuthorityID":"PL4223",
		"names":"",
		"pinyin":[]
	},
	{
		"authorityID":"PL000000004224",
		"name":"大雲寺",
		"dynasty":null,
		"long":"113.387169",
		"lat":"36.502375",
		"districtHistorical":null,
		"districtModern":"中國-山西省-長治市-黎城縣",
		"note":"在黎城縣北五十里龍耳山下。（淵四．大清一統志．卷一百三：30）",
		"lang":"中文",
		"shortAuthorityID":"PL4224",
		"names":"",
		"pinyin":[]
	},
	{
		"authorityID":"PL000000004225",
		"name":"刈陵",
		"dynasty":"北魏",
		"long":"113.3577",
		"lat":"36.523",
		"districtHistorical":"北朝 魏_并州",
		"districtModern":"中國-山西省-長治市-黎城縣",
		"note":null,
		"lang":"中文",
		"shortAuthorityID":"PL4225",
		"names":"",
		"pinyin":{
			"刈陵":"yì líng"
		}
	},
	{
		"authorityID":"PL000000004226",
		"name":"黎城",
		"dynasty":"唐",
		"long":"113.351",
		"lat":"36.5228",
		"districtHistorical":"唐_河東道",
		"districtModern":"中國-山西省-長治市-黎城縣",
		"note":null,
		"lang":"中文",
		"shortAuthorityID":"PL4226",
		"names":"",
		"pinyin":{
			"黎城":"lí chéng"
		}
	},
	{
		"authorityID":"PL000000004227",
		"name":"黎城",
		"dynasty":"隋",
		"long":"113.3531",
		"lat":"36.5187",
		"districtHistorical":"隋_上黨郡",
		"districtModern":"中國-山西省-長治市-黎城縣",
		"note":null,
		"lang":"中文",
		"shortAuthorityID":"PL4227",
		"names":"",
		"pinyin":{
			"黎城":"lí chéng"
		}
	},
	{
		"authorityID":"PL000000004228",
		"name":"黎城",
		"dynasty":"清",
		"long":"113.3894",
		"lat":"36.5037",
		"districtHistorical":"清_山西",
		"districtModern":"中國-山西省-長治市-黎城縣",
		"note":null,
		"lang":"中文",
		"shortAuthorityID":"PL4228",
		"names":"",
		"pinyin":{
			"黎城":"lí chéng"
		}
	},
	{
		"authorityID":"PL000000004229",
		"name":"黎城",
		"dynasty":"明",
		"long":"113.3894",
		"lat":"36.5037",
		"districtHistorical":"明_山西",
		"districtModern":"中國-山西省-長治市-黎城縣",
		"note":null,
		"lang":"中文",
		"shortAuthorityID":"PL4229",
		"names":"",
		"pinyin":{
			"黎城":"lí chéng"
		}
	},
	{
		"authorityID":"PL000000004230",
		"name":"黎城",
		"dynasty":"元",
		"long":"113.3894",
		"lat":"36.5037",
		"districtHistorical":"元_中書省",
		"districtModern":"中國-山西省-長治市-黎城縣",
		"note":null,
		"lang":"中文",
		"shortAuthorityID":"PL4230",
		"names":"",
		"pinyin":{
			"黎城":"lí chéng"
		}
	},
	{
		"authorityID":"PL000000004231",
		"name":"黎城",
		"dynasty":"北宋",
		"long":"113.3894",
		"lat":"36.5037",
		"districtHistorical":"北宋_河東路",
		"districtModern":"中國-山西省-長治市-黎城縣",
		"note":null,
		"lang":"中文",
		"shortAuthorityID":"PL4231",
		"names":"",
		"pinyin":{
			"黎城":"lí chéng"
		}
	},
	{
		"authorityID":"PL000000004232",
		"name":"壺口關",
		"dynasty":"西晉",
		"long":"113.3894",
		"lat":"36.5037",
		"districtHistorical":"西晉_并州",
		"districtModern":"中國-山西省-長治市-黎城縣",
		"note":null,
		"lang":"中文",
		"shortAuthorityID":"PL4232",
		"names":"",
		"pinyin":[]
	},
	{
		"authorityID":"PL000000004233",
		"name":"崇賢堡",
		"dynasty":"清",
		"long":"113.2967",
		"lat":"36.1247",
		"districtHistorical":"清_山西",
		"districtModern":"中國-山西省-長治市-壺關縣",
		"note":null,
		"lang":"中文",
		"shortAuthorityID":"PL4233",
		"names":"",
		"pinyin":[]
	},
	{
		"authorityID":"PL000000004234",
		"name":"壺關",
		"dynasty":"清",
		"long":"113.2089",
		"lat":"36.1128",
		"districtHistorical":"清_山西",
		"districtModern":"中國-山西省-長治市-壺關縣",
		"note":null,
		"lang":"中文",
		"shortAuthorityID":"PL4234",
		"names":"",
		"pinyin":[]
	},
	{
		"authorityID":"PL000000004235",
		"name":"壺關",
		"dynasty":"明",
		"long":"113.2089",
		"lat":"36.1128",
		"districtHistorical":"明_山西",
		"districtModern":"中國-山西省-長治市-壺關縣",
		"note":null,
		"lang":"中文",
		"shortAuthorityID":"PL4235",
		"names":"",
		"pinyin":[]
	},
	{
		"authorityID":"PL000000004236",
		"name":"壺關",
		"dynasty":"元",
		"long":"113.2089",
		"lat":"36.1128",
		"districtHistorical":"元_中書省",
		"districtModern":"中國-山西省-長治市-壺關縣",
		"note":null,
		"lang":"中文",
		"shortAuthorityID":"PL4236",
		"names":"",
		"pinyin":[]
	},
	{
		"authorityID":"PL000000004237",
		"name":"壺關",
		"dynasty":"北宋",
		"long":"113.2089",
		"lat":"36.1128",
		"districtHistorical":"北宋_河東路",
		"districtModern":"中國-山西省-長治市-壺關縣",
		"note":null,
		"lang":"中文",
		"shortAuthorityID":"PL4237",
		"names":"",
		"pinyin":[]
	},
	{
		"authorityID":"PL000000004238",
		"name":"壺關",
		"dynasty":"唐",
		"long":"113.2002",
		"lat":"36.1097",
		"districtHistorical":"唐_河東道",
		"districtModern":"中國-山西省-長治市-壺關縣",
		"note":null,
		"lang":"中文",
		"shortAuthorityID":"PL4238",
		"names":"",
		"pinyin":[]
	},
	{
		"authorityID":"PL000000004239",
		"name":"壺關",
		"dynasty":"北魏",
		"long":"113.2806",
		"lat":"36.0054",
		"districtHistorical":"北朝 魏_并州",
		"districtModern":"中國-山西省-長治市-壺關縣",
		"note":null,
		"lang":"中文",
		"shortAuthorityID":"PL4239",
		"names":"",
		"pinyin":[]
	},
	{
		"authorityID":"PL000000004240",
		"name":"馮坡鎮",
		"dynasty":"清",
		"long":"113.1625",
		"lat":"35.9946",
		"districtHistorical":"清_山西",
		"districtModern":"中國-山西省-長治市-壺關縣",
		"note":null,
		"lang":"中文",
		"shortAuthorityID":"PL4240",
		"names":"",
		"pinyin":[]
	},
	{
		"authorityID":"PL000000004241",
		"name":"崞口",
		"dynasty":"唐",
		"long":"113.6187",
		"lat":"35.9492",
		"districtHistorical":"唐_河東道",
		"districtModern":"中國-山西省-長治市-壺關縣",
		"note":null,
		"lang":"中文",
		"shortAuthorityID":"PL4241",
		"names":"",
		"pinyin":{
			"崞口":"guō kǒu"
		}
	},
	{
		"authorityID":"PL000000004242",
		"name":"越屋嶺",
		"dynasty":"明",
		"long":"113.2132",
		"lat":"35.8986",
		"districtHistorical":"明_山西",
		"districtModern":"中國-山西省-長治市-壺關縣",
		"note":null,
		"lang":"中文",
		"shortAuthorityID":"PL4242",
		"names":"",
		"pinyin":[]
	},
	{
		"authorityID":"PL000000004243",
		"name":"壽聖寺",
		"dynasty":"唐",
		"long":"112.809402",
		"lat":"36.036907",
		"districtHistorical":null,
		"districtModern":"中國-山西省-長治市-長子縣",
		"note":"在長子縣有二，一在縣西南二十五里。另一在縣西三十里，皆唐建。（唐寺考：95；<a target=\"_blank\" href=\" http:\/\/chgis.hmdc.harvard.edu\/search_details_1.php?ptid=relig_428\"> http:\/\/chgis.hmdc.harvard.edu\/search_details_1.php?ptid=relig_428<\/a>，2009.06.23；淵四．大清一統志．卷一百三：30；四部續．嘉慶一統志．潞安府二：2）",
		"lang":"中文",
		"shortAuthorityID":"PL4243",
		"names":"",
		"pinyin":{
			"壽聖寺":"shòu shèng sì"
		}
	},
	{
		"authorityID":"PL000000004244",
		"name":"壽聖寺",
		"dynasty":"唐",
		"long":"112.726718",
		"lat":"36.101541",
		"districtHistorical":null,
		"districtModern":"中國-山西省-長治市-長子縣",
		"note":"在長子縣有二，一在縣西三十里。另一在縣西南二十五里，皆唐建。（唐寺考：95；<a target=\"_blank\" href=\" http:\/\/chgis.hmdc.harvard.edu\/search_details_1.php?ptid=relig_428\"> http:\/\/chgis.hmdc.harvard.edu\/search_details_1.php?ptid=relig_428<\/a>，2009.06.23；淵四．大清一統志．卷一百三：30；四部續．嘉慶一統志．潞安府二：2）",
		"lang":"中文",
		"shortAuthorityID":"PL4244",
		"names":"",
		"pinyin":{
			"壽聖寺":"shòu shèng sì"
		}
	},
	{
		"authorityID":"PL000000004245",
		"name":"能仁寺",
		"dynasty":null,
		"long":"112.872292",
		"lat":"36.12066",
		"districtHistorical":null,
		"districtModern":"中國-山西省-長治市-長子縣",
		"note":"在縣大西門外，宋建隆二年，取靈空山先師龍池水於此禱之得雨，因建先師堂。端拱二年，賜額靈空聖夀院，後改承天寺，又改今名。明洪武十五年，置僧㑹司併福昌古塔二寺入焉（淵四．山西通志．卷一百六十九：6）",
		"lang":"中文",
		"shortAuthorityID":"PL4245",
		"names":"[中文] 承天寺,靈空聖夀院",
		"pinyin":[]
	},
	{
		"authorityID":"PL000000004246",
		"name":"鮑店鎮",
		"dynasty":"清",
		"long":"112.848",
		"lat":"36.2481",
		"districtHistorical":"清_山西",
		"districtModern":"中國-山西省-長治市-長子縣",
		"note":null,
		"lang":"中文",
		"shortAuthorityID":"PL4246",
		"names":"",
		"pinyin":[]
	},
	{
		"authorityID":"PL000000004247",
		"name":"長子",
		"dynasty":"清",
		"long":"112.8831",
		"lat":"36.1193",
		"districtHistorical":"清_山西",
		"districtModern":"中國-山西省-長治市-長子縣",
		"note":null,
		"lang":"中文",
		"shortAuthorityID":"PL4247",
		"names":"",
		"pinyin":[]
	},
	{
		"authorityID":"PL000000004248",
		"name":"長子",
		"dynasty":"明",
		"long":"112.8831",
		"lat":"36.1193",
		"districtHistorical":"明_山西",
		"districtModern":"中國-山西省-長治市-長子縣",
		"note":null,
		"lang":"中文",
		"shortAuthorityID":"PL4248",
		"names":"",
		"pinyin":[]
	},
	{
		"authorityID":"PL000000004249",
		"name":"長子",
		"dynasty":"元",
		"long":"112.8831",
		"lat":"36.1193",
		"districtHistorical":"元_中書省",
		"districtModern":"中國-山西省-長治市-長子縣",
		"note":null,
		"lang":"中文",
		"shortAuthorityID":"PL4249",
		"names":"",
		"pinyin":[]
	},
	{
		"authorityID":"PL000000004250",
		"name":"長子",
		"dynasty":"北宋",
		"long":"112.8831",
		"lat":"36.1193",
		"districtHistorical":"北宋_河東路",
		"districtModern":"中國-山西省-長治市-長子縣",
		"note":null,
		"lang":"中文",
		"shortAuthorityID":"PL4250",
		"names":"",
		"pinyin":[]
	},
	{
		"authorityID":"PL000000004251",
		"name":"長子",
		"dynasty":"唐",
		"long":"112.8831",
		"lat":"36.1193",
		"districtHistorical":"唐_河東道",
		"districtModern":"中國-山西省-長治市-長子縣",
		"note":null,
		"lang":"中文",
		"shortAuthorityID":"PL4251",
		"names":"",
		"pinyin":[]
	},
	{
		"authorityID":"PL000000004252",
		"name":"長子",
		"dynasty":"隋",
		"long":"112.8831",
		"lat":"36.1193",
		"districtHistorical":"隋_上黨郡",
		"districtModern":"中國-山西省-長治市-長子縣",
		"note":null,
		"lang":"中文",
		"shortAuthorityID":"PL4252",
		"names":"",
		"pinyin":[]
	},
	{
		"authorityID":"PL000000004253",
		"name":"上黨郡",
		"dynasty":"東漢",
		"long":"112.8407",
		"lat":"36.1107",
		"districtHistorical":"東漢_并州刺史部",
		"districtModern":"中國-山西省-長治市-長子縣",
		"note":null,
		"lang":"中文",
		"shortAuthorityID":"PL4253",
		"names":"",
		"pinyin":[]
	},
	{
		"authorityID":"PL000000004254",
		"name":"長子",
		"dynasty":"東漢",
		"long":"112.8407",
		"lat":"36.1107",
		"districtHistorical":"東漢_并州刺史部",
		"districtModern":"中國-山西省-長治市-長子縣",
		"note":null,
		"lang":"中文",
		"shortAuthorityID":"PL4254",
		"names":"",
		"pinyin":[]
	},
	{
		"authorityID":"PL000000004255",
		"name":"上黨郡",
		"dynasty":"西漢",
		"long":"112.8407",
		"lat":"36.1107",
		"districtHistorical":"西漢_并州刺史部",
		"districtModern":"中國-山西省-長治市-長子縣",
		"note":null,
		"lang":"中文",
		"shortAuthorityID":"PL4255",
		"names":"",
		"pinyin":[]
	},
	{
		"authorityID":"PL000000004256",
		"name":"長子",
		"dynasty":"西漢",
		"long":"112.8407",
		"lat":"36.1107",
		"districtHistorical":"西漢_并州刺史部",
		"districtModern":"中國-山西省-長治市-長子縣",
		"note":null,
		"lang":"中文",
		"shortAuthorityID":"PL4256",
		"names":"",
		"pinyin":[]
	},
	{
		"authorityID":"PL000000004257",
		"name":"長子",
		"dynasty":"西晉",
		"long":"112.8538",
		"lat":"36.1089",
		"districtHistorical":"西晉_并州",
		"districtModern":"中國-山西省-長治市-長子縣",
		"note":null,
		"lang":"中文",
		"shortAuthorityID":"PL4257",
		"names":"",
		"pinyin":[]
	},
	{
		"authorityID":"PL000000004258",
		"name":"長子",
		"dynasty":"曹魏",
		"long":"112.8538",
		"lat":"36.1089",
		"districtHistorical":"三國 魏_并州",
		"districtModern":"中國-山西省-長治市-長子縣",
		"note":null,
		"lang":"中文",
		"shortAuthorityID":"PL4258",
		"names":"",
		"pinyin":[]
	},
	{
		"authorityID":"PL000000004259",
		"name":"上黨郡",
		"dynasty":"秦",
		"long":"112.8294",
		"lat":"36.0845",
		"districtHistorical":"秦_上黨郡",
		"districtModern":"中國-山西省-長治市-長子縣",
		"note":null,
		"lang":"中文",
		"shortAuthorityID":"PL4259",
		"names":"",
		"pinyin":[]
	},
	{
		"authorityID":"PL000000004260",
		"name":"長子",
		"dynasty":"秦",
		"long":"112.8294",
		"lat":"36.0845",
		"districtHistorical":"秦_上黨郡",
		"districtModern":"中國-山西省-長治市-長子縣",
		"note":null,
		"lang":"中文",
		"shortAuthorityID":"PL4260",
		"names":"",
		"pinyin":[]
	},
	{
		"authorityID":"PL000000004261",
		"name":"應城",
		"dynasty":"北魏",
		"long":"112.9655",
		"lat":"36.0005",
		"districtHistorical":"北朝 魏_并州",
		"districtModern":"中國-山西省-長治市-長子縣",
		"note":null,
		"lang":"中文",
		"shortAuthorityID":"PL4261",
		"names":"",
		"pinyin":[]
	},
	{
		"authorityID":"PL000000004262",
		"name":"上店鎮",
		"dynasty":"清",
		"long":"112.4592",
		"lat":"37.1197",
		"districtHistorical":"清_山西",
		"districtModern":"中國-山西省-長治市-武鄉縣",
		"note":null,
		"lang":"中文",
		"shortAuthorityID":"PL4262",
		"names":"",
		"pinyin":[]
	},
	{
		"authorityID":"PL000000004263",
		"name":"隆舟峪",
		"dynasty":"明",
		"long":"112.49",
		"lat":"37.1066",
		"districtHistorical":"明_山西",
		"districtModern":"中國-山西省-長治市-武鄉縣",
		"note":null,
		"lang":"中文",
		"shortAuthorityID":"PL4263",
		"names":"",
		"pinyin":{
			"隆舟峪":"lóng zhōu yù"
		}
	},
	{
		"authorityID":"PL000000004264",
		"name":"石會關",
		"dynasty":"唐",
		"long":"112.5218",
		"lat":"37.0954",
		"districtHistorical":"唐_河東道",
		"districtModern":"中國-山西省-長治市-武鄉縣",
		"note":null,
		"lang":"中文",
		"shortAuthorityID":"PL4264",
		"names":"",
		"pinyin":[]
	},
	{
		"authorityID":"PL000000004265",
		"name":"南關",
		"dynasty":"清",
		"long":"112.5237",
		"lat":"37.0951",
		"districtHistorical":"清_山西",
		"districtModern":"中國-山西省-長治市-武鄉縣",
		"note":null,
		"lang":"中文",
		"shortAuthorityID":"PL4265",
		"names":"",
		"pinyin":[]
	},
	{
		"authorityID":"PL000000004266",
		"name":"南關鎮",
		"dynasty":"北宋",
		"long":"112.5264",
		"lat":"37.0866",
		"districtHistorical":"北宋_河東路",
		"districtModern":"中國-山西省-長治市-武鄉縣",
		"note":null,
		"lang":"中文",
		"shortAuthorityID":"PL4266",
		"names":"",
		"pinyin":[]
	},
	{
		"authorityID":"PL000000004267",
		"name":"墨蹬村",
		"dynasty":"元",
		"long":"113.3019",
		"lat":"36.9717",
		"districtHistorical":"元_中書省",
		"districtModern":"中國-山西省-長治市-武鄉縣",
		"note":null,
		"lang":"中文",
		"shortAuthorityID":"PL4267",
		"names":"",
		"pinyin":[]
	},
	{
		"authorityID":"PL000000004268",
		"name":"涅縣",
		"dynasty":"東漢",
		"long":"112.6651",
		"lat":"36.9545",
		"districtHistorical":"東漢_并州刺史部",
		"districtModern":"中國-山西省-長治市-武鄉縣",
		"note":null,
		"lang":"中文",
		"shortAuthorityID":"PL4268",
		"names":"",
		"pinyin":[]
	},
	{
		"authorityID":"PL000000004269",
		"name":"涅縣",
		"dynasty":"西漢",
		"long":"112.6651",
		"lat":"36.9545",
		"districtHistorical":"西漢_并州刺史部",
		"districtModern":"中國-山西省-長治市-武鄉縣",
		"note":null,
		"lang":"中文",
		"shortAuthorityID":"PL4269",
		"names":"",
		"pinyin":[]
	},
	{
		"authorityID":"PL000000004270",
		"name":"涅縣",
		"dynasty":"西晉",
		"long":"112.6728",
		"lat":"36.947",
		"districtHistorical":"西晉_并州",
		"districtModern":"中國-山西省-長治市-武鄉縣",
		"note":null,
		"lang":"中文",
		"shortAuthorityID":"PL4270",
		"names":"",
		"pinyin":[]
	},
	{
		"authorityID":"PL000000004271",
		"name":"涅縣",
		"dynasty":"曹魏",
		"long":"112.6728",
		"lat":"36.947",
		"districtHistorical":"三國 魏_并州",
		"districtModern":"中國-山西省-長治市-武鄉縣",
		"note":null,
		"lang":"中文",
		"shortAuthorityID":"PL4271",
		"names":"",
		"pinyin":[]
	},
	{
		"authorityID":"PL000000004272",
		"name":"涅縣",
		"dynasty":"北魏",
		"long":"112.67",
		"lat":"36.9443",
		"districtHistorical":"北朝 魏_并州",
		"districtModern":"中國-山西省-長治市-武鄉縣",
		"note":null,
		"lang":"中文",
		"shortAuthorityID":"PL4272",
		"names":"",
		"pinyin":[]
	},
	{
		"authorityID":"PL000000004273",
		"name":"墨蹬鎮",
		"dynasty":"清",
		"long":"113.3025",
		"lat":"36.9441",
		"districtHistorical":"清_山西",
		"districtModern":"中國-山西省-長治市-武鄉縣",
		"note":null,
		"lang":"中文",
		"shortAuthorityID":"PL4273",
		"names":"",
		"pinyin":[]
	},
	{
		"authorityID":"PL000000004274",
		"name":"武鄉",
		"dynasty":"明",
		"long":"112.9091",
		"lat":"36.84",
		"districtHistorical":"明_山西",
		"districtModern":"中國-山西省-長治市-武鄉縣",
		"note":null,
		"lang":"中文",
		"shortAuthorityID":"PL4274",
		"names":"",
		"pinyin":[]
	},
	{
		"authorityID":"PL000000004275",
		"name":"武鄉",
		"dynasty":"元",
		"long":"112.9091",
		"lat":"36.84",
		"districtHistorical":"元_中書省",
		"districtModern":"中國-山西省-長治市-武鄉縣",
		"note":null,
		"lang":"中文",
		"shortAuthorityID":"PL4275",
		"names":"",
		"pinyin":[]
	},
	{
		"authorityID":"PL000000004276",
		"name":"鄉郡",
		"dynasty":"北魏",
		"long":"112.9181",
		"lat":"36.8337",
		"districtHistorical":"北朝 魏_并州",
		"districtModern":"中國-山西省-長治市-武鄉縣",
		"note":null,
		"lang":"中文",
		"shortAuthorityID":"PL4276",
		"names":"",
		"pinyin":[]
	},
	{
		"authorityID":"PL000000004277",
		"name":"鄉縣",
		"dynasty":"北魏",
		"long":"112.9181",
		"lat":"36.8337",
		"districtHistorical":"北朝 魏_并州",
		"districtModern":"中國-山西省-長治市-武鄉縣",
		"note":null,
		"lang":"中文",
		"shortAuthorityID":"PL4277",
		"names":"",
		"pinyin":[]
	},
	{
		"authorityID":"PL000000004278",
		"name":"武鄉",
		"dynasty":"清",
		"long":"112.9186",
		"lat":"36.8299",
		"districtHistorical":"清_山西",
		"districtModern":"中國-山西省-長治市-武鄉縣",
		"note":null,
		"lang":"中文",
		"shortAuthorityID":"PL4278",
		"names":"",
		"pinyin":[]
	},
	{
		"authorityID":"PL000000004279",
		"name":"鄉縣",
		"dynasty":"隋",
		"long":"112.9348",
		"lat":"36.8286",
		"districtHistorical":"隋_上黨郡",
		"districtModern":"中國-山西省-長治市-武鄉縣",
		"note":null,
		"lang":"中文",
		"shortAuthorityID":"PL4279",
		"names":"",
		"pinyin":[]
	},
	{
		"authorityID":"PL000000004280",
		"name":"鄉縣",
		"dynasty":"唐",
		"long":"112.9185",
		"lat":"36.8285",
		"districtHistorical":"唐_河東道",
		"districtModern":"中國-山西省-長治市-武鄉縣",
		"note":null,
		"lang":"中文",
		"shortAuthorityID":"PL4280",
		"names":"",
		"pinyin":[]
	},
	{
		"authorityID":"PL000000004281",
		"name":"武鄉",
		"dynasty":"北宋",
		"long":"112.9263",
		"lat":"36.8283",
		"districtHistorical":"北宋_河東路",
		"districtModern":"中國-山西省-長治市-武鄉縣",
		"note":null,
		"lang":"中文",
		"shortAuthorityID":"PL4281",
		"names":"",
		"pinyin":[]
	},
	{
		"authorityID":"PL000000004282",
		"name":"甲水縣",
		"dynasty":"隋",
		"long":"112.8282",
		"lat":"36.8104",
		"districtHistorical":"隋_上黨郡",
		"districtModern":"中國-山西省-長治市-武鄉縣",
		"note":null,
		"lang":"中文",
		"shortAuthorityID":"PL4282",
		"names":"",
		"pinyin":[]
	},
	{
		"authorityID":"PL000000004283",
		"name":"盤龍鎮",
		"dynasty":"清",
		"long":"113.121",
		"lat":"36.7978",
		"districtHistorical":"清_山西",
		"districtModern":"中國-山西省-長治市-武鄉縣",
		"note":null,
		"lang":"中文",
		"shortAuthorityID":"PL4283",
		"names":"",
		"pinyin":[]
	},
	{
		"authorityID":"PL000000004284",
		"name":"韓壁寨",
		"dynasty":"清",
		"long":"113.1715",
		"lat":"36.7515",
		"districtHistorical":"清_山西",
		"districtModern":"中國-山西省-長治市-武鄉縣",
		"note":null,
		"lang":"中文",
		"shortAuthorityID":"PL4284",
		"names":"",
		"pinyin":[]
	},
	{
		"authorityID":"PL000000004285",
		"name":"土河寨",
		"dynasty":"清",
		"long":"113.203",
		"lat":"36.7274",
		"districtHistorical":"清_山西",
		"districtModern":"中國-山西省-長治市-武鄉縣",
		"note":null,
		"lang":"中文",
		"shortAuthorityID":"PL4285",
		"names":"",
		"pinyin":[]
	},
	{
		"authorityID":"PL000000004286",
		"name":"永慶寺",
		"dynasty":null,
		"long":"112.692529",
		"lat":"36.766438",
		"districtHistorical":null,
		"districtModern":"中國-山西省-長治市-沁縣",
		"note":"汨名大悲庵，明萬曆三十六年改永慶寺。（明清序：245）",
		"lang":"中文",
		"shortAuthorityID":"PL4286",
		"names":"[中文] 大悲庵",
		"pinyin":[]
	},
	{
		"authorityID":"PL000000004287",
		"name":"鼓腰嶺",
		"dynasty":"唐",
		"long":"112.5556",
		"lat":"36.966",
		"districtHistorical":"唐_河東道",
		"districtModern":"中國-山西省-長治市-沁縣",
		"note":null,
		"lang":"中文",
		"shortAuthorityID":"PL4287",
		"names":"",
		"pinyin":{
			"鼓腰嶺":"gǔ yāo lǐng"
		}
	},
	{
		"authorityID":"PL000000004288",
		"name":"權店鎮",
		"dynasty":"清",
		"long":"112.5915",
		"lat":"36.9542",
		"districtHistorical":"清_山西",
		"districtModern":"中國-山西省-長治市-沁縣",
		"note":null,
		"lang":"中文",
		"shortAuthorityID":"PL4288",
		"names":"",
		"pinyin":[]
	},
	{
		"authorityID":"PL000000004289",
		"name":"西湯鎮",
		"dynasty":"清",
		"long":"112.616",
		"lat":"36.9304",
		"districtHistorical":"清_山西",
		"districtModern":"中國-山西省-長治市-沁縣",
		"note":null,
		"lang":"中文",
		"shortAuthorityID":"PL4289",
		"names":"",
		"pinyin":[]
	},
	{
		"authorityID":"PL000000004290",
		"name":"西湯鎮",
		"dynasty":"北宋",
		"long":"112.6202",
		"lat":"36.9212",
		"districtHistorical":"北宋_河東路",
		"districtModern":"中國-山西省-長治市-沁縣",
		"note":null,
		"lang":"中文",
		"shortAuthorityID":"PL4290",
		"names":"",
		"pinyin":[]
	},
	{
		"authorityID":"PL000000004291",
		"name":"王可寨",
		"dynasty":"清",
		"long":"112.5845",
		"lat":"36.8541",
		"districtHistorical":"清_山西",
		"districtModern":"中國-山西省-長治市-沁縣",
		"note":null,
		"lang":"中文",
		"shortAuthorityID":"PL4291",
		"names":"",
		"pinyin":[]
	},
	{
		"authorityID":"PL000000004292",
		"name":"沁州",
		"dynasty":"清",
		"long":"112.7084",
		"lat":"36.7568",
		"districtHistorical":"清_山西",
		"districtModern":"中國-山西省-長治市-沁縣",
		"note":null,
		"lang":"中文",
		"shortAuthorityID":"PL4292",
		"names":"",
		"pinyin":{
			"沁州":"qìn zhōu"
		}
	},
	{
		"authorityID":"PL000000004293",
		"name":"沁州",
		"dynasty":"明",
		"long":"112.7084",
		"lat":"36.7568",
		"districtHistorical":"明_山西",
		"districtModern":"中國-山西省-長治市-沁縣",
		"note":null,
		"lang":"中文",
		"shortAuthorityID":"PL4293",
		"names":"",
		"pinyin":{
			"沁州":"qìn zhōu"
		}
	},
	{
		"authorityID":"PL000000004294",
		"name":"銅鞮",
		"dynasty":"元",
		"long":"112.7084",
		"lat":"36.7568",
		"districtHistorical":"元_中書省",
		"districtModern":"中國-山西省-長治市-沁縣",
		"note":null,
		"lang":"中文",
		"shortAuthorityID":"PL4294",
		"names":"",
		"pinyin":{
			"銅鞮":"tóng dī"
		}
	},
	{
		"authorityID":"PL000000004295",
		"name":"威勝軍",
		"dynasty":"北宋",
		"long":"112.7084",
		"lat":"36.7568",
		"districtHistorical":"北宋_河東路",
		"districtModern":"中國-山西省-長治市-沁縣",
		"note":null,
		"lang":"中文",
		"shortAuthorityID":"PL4295",
		"names":"",
		"pinyin":{
			"威勝軍":"wēi shèng jūn"
		}
	},
	{
		"authorityID":"PL000000004296",
		"name":"銅鞮",
		"dynasty":"北宋",
		"long":"112.7084",
		"lat":"36.7568",
		"districtHistorical":"北宋_河東路",
		"districtModern":"中國-山西省-長治市-沁縣",
		"note":null,
		"lang":"中文",
		"shortAuthorityID":"PL4296",
		"names":"",
		"pinyin":{
			"銅鞮":"tóng dī"
		}
	},
	{
		"authorityID":"PL000000004297",
		"name":"郭村鎮",
		"dynasty":"清",
		"long":"112.5756",
		"lat":"36.7468",
		"districtHistorical":"清_山西",
		"districtModern":"中國-山西省-長治市-沁縣",
		"note":null,
		"lang":"中文",
		"shortAuthorityID":"PL4297",
		"names":"",
		"pinyin":[]
	},
	{
		"authorityID":"PL000000004298",
		"name":"道興寨",
		"dynasty":"清",
		"long":"112.6335",
		"lat":"36.6991",
		"districtHistorical":"清_山西",
		"districtModern":"中國-山西省-長治市-沁縣",
		"note":null,
		"lang":"中文",
		"shortAuthorityID":"PL4298",
		"names":"",
		"pinyin":[]
	},
	{
		"authorityID":"PL000000004299",
		"name":"烏蘇城",
		"dynasty":"北魏",
		"long":"112.5946",
		"lat":"36.6736",
		"districtHistorical":"北朝 魏_并州",
		"districtModern":"中國-山西省-長治市-沁縣",
		"note":null,
		"lang":"中文",
		"shortAuthorityID":"PL4299",
		"names":"",
		"pinyin":[]
	},
	{
		"authorityID":"PL000000004300",
		"name":"新店寨",
		"dynasty":"清",
		"long":"112.7452",
		"lat":"36.6414",
		"districtHistorical":"清_山西",
		"districtModern":"中國-山西省-長治市-沁縣",
		"note":null,
		"lang":"中文",
		"shortAuthorityID":"PL4300",
		"names":"",
		"pinyin":[]
	},
	{
		"authorityID":"PL000000004301",
		"name":"銅鞮",
		"dynasty":"隋",
		"long":"112.6214",
		"lat":"36.6073",
		"districtHistorical":"隋_上黨郡",
		"districtModern":"中國-山西省-長治市-沁縣",
		"note":null,
		"lang":"中文",
		"shortAuthorityID":"PL4301",
		"names":"",
		"pinyin":{
			"銅鞮":"tóng dī"
		}
	},
	{
		"authorityID":"PL000000004302",
		"name":"銅鞮",
		"dynasty":"西晉",
		"long":"112.6939",
		"lat":"36.6058",
		"districtHistorical":"西晉_并州",
		"districtModern":"中國-山西省-長治市-沁縣",
		"note":null,
		"lang":"中文",
		"shortAuthorityID":"PL4302",
		"names":"",
		"pinyin":{
			"銅鞮":"tóng dī"
		}
	},
	{
		"authorityID":"PL000000004303",
		"name":"銅鞮",
		"dynasty":"曹魏",
		"long":"112.6939",
		"lat":"36.6058",
		"districtHistorical":"三國 魏_并州",
		"districtModern":"中國-山西省-長治市-沁縣",
		"note":null,
		"lang":"中文",
		"shortAuthorityID":"PL4303",
		"names":"",
		"pinyin":{
			"銅鞮":"tóng dī"
		}
	},
	{
		"authorityID":"PL000000004304",
		"name":"銅鞮",
		"dynasty":"東漢",
		"long":"112.6952",
		"lat":"36.6041",
		"districtHistorical":"東漢_并州刺史部",
		"districtModern":"中國-山西省-長治市-沁縣",
		"note":null,
		"lang":"中文",
		"shortAuthorityID":"PL4304",
		"names":"",
		"pinyin":{
			"銅鞮":"tóng dī"
		}
	},
	{
		"authorityID":"PL000000004305",
		"name":"銅鞮",
		"dynasty":"西漢",
		"long":"112.6952",
		"lat":"36.6041",
		"districtHistorical":"西漢_并州刺史部",
		"districtModern":"中國-山西省-長治市-沁縣",
		"note":null,
		"lang":"中文",
		"shortAuthorityID":"PL4305",
		"names":"",
		"pinyin":{
			"銅鞮":"tóng dī"
		}
	},
	{
		"authorityID":"PL000000004306",
		"name":"南仁寨",
		"dynasty":"清",
		"long":"112.5961",
		"lat":"36.604",
		"districtHistorical":"清_山西",
		"districtModern":"中國-山西省-長治市-沁縣",
		"note":null,
		"lang":"中文",
		"shortAuthorityID":"PL4306",
		"names":"",
		"pinyin":[]
	},
	{
		"authorityID":"PL000000004307",
		"name":"銅鞮",
		"dynasty":"北魏",
		"long":"112.6296",
		"lat":"36.6016",
		"districtHistorical":"北朝 魏_并州",
		"districtModern":"中國-山西省-長治市-沁縣",
		"note":null,
		"lang":"中文",
		"shortAuthorityID":"PL4307",
		"names":"",
		"pinyin":{
			"銅鞮":"tóng dī"
		}
	},
	{
		"authorityID":"PL000000004308",
		"name":"銅鞮",
		"dynasty":"唐",
		"long":"112.6211",
		"lat":"36.5996",
		"districtHistorical":"唐_河東道",
		"districtModern":"中國-山西省-長治市-沁縣",
		"note":"漢縣。隋屬韓州。武德元年，屬沁州。三年，分置甲水縣。五年，移治水堡。 六年，移於今所，屬韓州。省甲水縣。韓州廢，屬潞州。（<a target=\"_blank\" href=\"http:\/\/zh.wikisource.org\/wiki\/%E8%88%8A%E5%94%90%E6%9B%B8\/%E5%8D%B739\">http:\/\/zh.wikisource.org\/wiki\/%E8%88%8A%E5%94%90%E6%9B%B8\/%E5%8D%B739<\/a>，2012.01.11）",
		"lang":"中文",
		"shortAuthorityID":"PL4308",
		"names":"",
		"pinyin":{
			"銅鞮":"tóng dī"
		}
	},
	{
		"authorityID":"PL000000004309",
		"name":"銅鞮",
		"dynasty":"秦",
		"long":"112.6894",
		"lat":"36.5993",
		"districtHistorical":"秦_上黨郡",
		"districtModern":"中國-山西省-長治市-沁縣",
		"note":null,
		"lang":"中文",
		"shortAuthorityID":"PL4309",
		"names":"",
		"pinyin":{
			"銅鞮":"tóng dī"
		}
	},
	{
		"authorityID":"PL000000004310",
		"name":"上虒亭",
		"dynasty":"西漢",
		"long":"112.7551",
		"lat":"36.5885",
		"districtHistorical":"西漢_并州刺史部",
		"districtModern":"中國-山西省-長治市-沁縣",
		"note":null,
		"lang":"中文",
		"shortAuthorityID":"PL4310",
		"names":"",
		"pinyin":[]
	},
	{
		"authorityID":"PL000000004311",
		"name":"南泉寨",
		"dynasty":"清",
		"long":"112.5438",
		"lat":"36.547",
		"districtHistorical":"清_山西",
		"districtModern":"中國-山西省-長治市-沁縣",
		"note":null,
		"lang":"中文",
		"shortAuthorityID":"PL4311",
		"names":"",
		"pinyin":[]
	},
	{
		"authorityID":"PL000000004312",
		"name":"沁州",
		"dynasty":"元",
		"long":"112.7084",
		"lat":"36.7568",
		"districtHistorical":"元_中書省",
		"districtModern":"中國-山西省-長治市-沁縣",
		"note":null,
		"lang":"中文",
		"shortAuthorityID":"PL4312",
		"names":"",
		"pinyin":{
			"沁州":"qìn zhōu"
		}
	},
	{
		"authorityID":"PL000000004313",
		"name":"雲室山",
		"dynasty":null,
		"long":"112.330312",
		"lat":"36.499833",
		"districtHistorical":null,
		"districtModern":"中國-山西省-長治市-沁源縣",
		"note":"位於沁部（沁州），釋道宣於貞觀中曾隱於此，人睹天童給侍左右。（T50n2061_p0791a09；宋僧索引：691）",
		"lang":"中文",
		"shortAuthorityID":"PL4313",
		"names":"",
		"pinyin":{
			"雲室山":"yún shì shān"
		}
	},
	{
		"authorityID":"PL000000004314",
		"name":"南泉寺",
		"dynasty":"唐",
		"long":"112.704898",
		"lat":"36.702272",
		"districtHistorical":null,
		"districtModern":"中國-山西省-長治市-沁縣",
		"note":"在州南十五里，一名圓通寺，唐貞觀中建。（唐寺考：98；<a target=\"_blank\" href=\" http:\/\/chgis.hmdc.harvard.edu\/search_details_1.php?ptid=relig_183\"> http:\/\/chgis.hmdc.harvard.edu\/search_details_1.php?ptid=relig_183<\/a>，2009.06.23；淵四．大清一統志．卷一百二十：15；四部續．嘉慶一統志．沁州直隸州：12）",
		"lang":"中文",
		"shortAuthorityID":"PL4314",
		"names":"[中文] 圓通寺",
		"pinyin":{
			"南泉寺":"nán quán sì",
			"圓通寺":"yuán tōng sì"
		}
	},
	{
		"authorityID":"PL000000004315",
		"name":"天寧寺",
		"dynasty":"後周",
		"long":"112.693774",
		"lat":"36.754334",
		"districtHistorical":null,
		"districtModern":"中國-山西省-長治市-沁縣",
		"note":"在州城内，福壽街。後周建。嘉慶一統志作天安寺。（唐寺考：98；<a target=\"_blank\" href=\" http:\/\/chgis.hmdc.harvard.edu\/search_details_1.php?ptid=relig_318\"> http:\/\/chgis.hmdc.harvard.edu\/search_details_1.php?ptid=relig_318<\/a>，2009.06.23；淵四．大清一統志．卷一百二十：15；四部續．嘉慶一統志．沁州直隸州：12）",
		"lang":"中文",
		"shortAuthorityID":"PL4315",
		"names":"[中文] 天安寺",
		"pinyin":{
			"天寧寺":"tiān níng sì",
			"天安寺":"tiān ān sì"
		}
	},
	{
		"authorityID":"PL000000004316",
		"name":"聖壽寺",
		"dynasty":"唐",
		"long":"112.061504",
		"lat":"36.615131",
		"districtHistorical":null,
		"districtModern":"中國-山西省-長治市-沁源縣",
		"note":"在沁源縣西北六十里，靈空山。五代唐懿宗第三子，遭黄巢亂，為僧於此建，宋端拱中賜額。唐寺考、嘉慶一統志誤植為聖佛寺。（唐寺考：98；淵四．大清一統志．卷一百二十：15；四部續．嘉慶一統志．沁州直隸州：12）",
		"lang":"中文",
		"shortAuthorityID":"PL4316",
		"names":"[中文] 聖佛寺",
		"pinyin":{
			"聖壽寺":"shèng shòu sì",
			"聖佛寺":"shèng fó sì"
		}
	},
	{
		"authorityID":"PL000000004317",
		"name":"度索原",
		"dynasty":"唐",
		"long":"112.0339",
		"lat":"36.8675",
		"districtHistorical":"唐_河東道",
		"districtModern":"中國-山西省-長治市-沁源縣",
		"note":null,
		"lang":"中文",
		"shortAuthorityID":"PL4317",
		"names":"",
		"pinyin":[]
	},
	{
		"authorityID":"PL000000004318",
		"name":"綿上",
		"dynasty":"唐",
		"long":"112.264",
		"lat":"36.7804",
		"districtHistorical":"唐_河東道",
		"districtModern":"中國-山西省-長治市-沁源縣",
		"note":null,
		"lang":"中文",
		"shortAuthorityID":"PL4318",
		"names":"",
		"pinyin":[]
	},
	{
		"authorityID":"PL000000004319",
		"name":"綿上",
		"dynasty":"隋",
		"long":"112.251",
		"lat":"36.7743",
		"districtHistorical":"隋_西河郡",
		"districtModern":"中國-山西省-長治市-沁源縣",
		"note":null,
		"lang":"中文",
		"shortAuthorityID":"PL4319",
		"names":"",
		"pinyin":[]
	},
	{
		"authorityID":"PL000000004320",
		"name":"綿上",
		"dynasty":"北宋",
		"long":"112.2537",
		"lat":"36.7712",
		"districtHistorical":"北宋_河東路",
		"districtModern":"中國-山西省-長治市-沁源縣",
		"note":null,
		"lang":"中文",
		"shortAuthorityID":"PL4320",
		"names":"",
		"pinyin":[]
	},
	{
		"authorityID":"PL000000004321",
		"name":"綿上",
		"dynasty":"明",
		"long":"112.2435",
		"lat":"36.771",
		"districtHistorical":"明_山西",
		"districtModern":"中國-山西省-長治市-沁源縣",
		"note":null,
		"lang":"中文",
		"shortAuthorityID":"PL4321",
		"names":"",
		"pinyin":[]
	},
	{
		"authorityID":"PL000000004322",
		"name":"綿上關",
		"dynasty":"清",
		"long":"112.2548",
		"lat":"36.7649",
		"districtHistorical":"清_山西",
		"districtModern":"中國-山西省-長治市-沁源縣",
		"note":null,
		"lang":"中文",
		"shortAuthorityID":"PL4322",
		"names":"",
		"pinyin":[]
	},
	{
		"authorityID":"PL000000004323",
		"name":"綿上",
		"dynasty":"西晉",
		"long":"112.2644",
		"lat":"36.7563",
		"districtHistorical":"西晉_并州",
		"districtModern":"中國-山西省-長治市-沁源縣",
		"note":null,
		"lang":"中文",
		"shortAuthorityID":"PL4323",
		"names":"",
		"pinyin":[]
	},
	{
		"authorityID":"PL000000004324",
		"name":"綿上聚",
		"dynasty":"東漢",
		"long":"112.2439",
		"lat":"36.7425",
		"districtHistorical":"東漢_并州刺史部",
		"districtModern":"中國-山西省-長治市-沁源縣",
		"note":null,
		"lang":"中文",
		"shortAuthorityID":"PL4324",
		"names":"",
		"pinyin":[]
	},
	{
		"authorityID":"PL000000004325",
		"name":"郭道鎮",
		"dynasty":"清",
		"long":"112.3096",
		"lat":"36.6651",
		"districtHistorical":"清_山西",
		"districtModern":"中國-山西省-長治市-沁源縣",
		"note":null,
		"lang":"中文",
		"shortAuthorityID":"PL4325",
		"names":"",
		"pinyin":[]
	},
	{
		"authorityID":"PL000000004326",
		"name":"侯壁寨",
		"dynasty":"清",
		"long":"112.3955",
		"lat":"36.643",
		"districtHistorical":"清_山西",
		"districtModern":"中國-山西省-長治市-沁源縣",
		"note":null,
		"lang":"中文",
		"shortAuthorityID":"PL4326",
		"names":"",
		"pinyin":[]
	},
	{
		"authorityID":"PL000000004327",
		"name":"韓洪鎮",
		"dynasty":"清",
		"long":"112.2077",
		"lat":"36.6336",
		"districtHistorical":"清_山西",
		"districtModern":"中國-山西省-長治市-沁源縣",
		"note":null,
		"lang":"中文",
		"shortAuthorityID":"PL4327",
		"names":"",
		"pinyin":[]
	},
	{
		"authorityID":"PL000000004328",
		"name":"官軍鎮",
		"dynasty":"清",
		"long":"112.3756",
		"lat":"36.581",
		"districtHistorical":"清_山西",
		"districtModern":"中國-山西省-長治市-沁源縣",
		"note":null,
		"lang":"中文",
		"shortAuthorityID":"PL4328",
		"names":"",
		"pinyin":[]
	},
	{
		"authorityID":"PL000000004329",
		"name":"柏子鎮",
		"dynasty":"清",
		"long":"112.1457",
		"lat":"36.5403",
		"districtHistorical":"清_山西",
		"districtModern":"中國-山西省-長治市-沁源縣",
		"note":null,
		"lang":"中文",
		"shortAuthorityID":"PL4329",
		"names":"",
		"pinyin":[]
	},
	{
		"authorityID":"PL000000004330",
		"name":"沁源",
		"dynasty":"清",
		"long":"112.3389",
		"lat":"36.4965",
		"districtHistorical":"清_山西",
		"districtModern":"中國-山西省-長治市-沁源縣",
		"note":null,
		"lang":"中文",
		"shortAuthorityID":"PL4330",
		"names":"",
		"pinyin":{
			"沁源":"qìn yuán"
		}
	},
	{
		"authorityID":"PL000000004331",
		"name":"沁源",
		"dynasty":"明",
		"long":"112.3389",
		"lat":"36.4965",
		"districtHistorical":"明_山西",
		"districtModern":"中國-山西省-長治市-沁源縣",
		"note":null,
		"lang":"中文",
		"shortAuthorityID":"PL4331",
		"names":"",
		"pinyin":{
			"沁源":"qìn yuán"
		}
	},
	{
		"authorityID":"PL000000004332",
		"name":"沁源",
		"dynasty":"元",
		"long":"112.3389",
		"lat":"36.4965",
		"districtHistorical":"元_中書省",
		"districtModern":"中國-山西省-長治市-沁源縣",
		"note":null,
		"lang":"中文",
		"shortAuthorityID":"PL4332",
		"names":"",
		"pinyin":{
			"沁源":"qìn yuán"
		}
	},
	{
		"authorityID":"PL000000004333",
		"name":"沁源",
		"dynasty":"北宋",
		"long":"112.3389",
		"lat":"36.4965",
		"districtHistorical":"北宋_河東路",
		"districtModern":"中國-山西省-長治市-沁源縣",
		"note":null,
		"lang":"中文",
		"shortAuthorityID":"PL4333",
		"names":"",
		"pinyin":{
			"沁源":"qìn yuán"
		}
	},
	{
		"authorityID":"PL000000004334",
		"name":"沁州",
		"dynasty":"五代十國",
		"long":"112.3389",
		"lat":"36.4965",
		"districtHistorical":"五代十國_晉",
		"districtModern":"中國-山西省-長治市-沁源縣",
		"note":null,
		"lang":"中文",
		"shortAuthorityID":"PL4334",
		"names":"",
		"pinyin":{
			"沁州":"qìn zhōu"
		}
	},