[
	{
		"authorityID":"PL000000007001",
		"name":"南坡店",
		"dynasty":"元",
		"long":"116.0696",
		"lat":"42.3353",
		"districtHistorical":"元_中書省",
		"districtModern":"中國-內蒙古自治區-錫林郭勒盟-正藍旗",
		"note":null,
		"lang":"中文",
		"shortAuthorityID":"PL7001",
		"names":"",
		"pinyin":[]
	},
	{
		"authorityID":"PL000000007002",
		"name":"桓州",
		"dynasty":"金",
		"long":"115.9987",
		"lat":"42.2755",
		"districtHistorical":"金",
		"districtModern":"中國-內蒙古自治區-錫林郭勒盟-正藍旗",
		"note":null,
		"lang":"中文",
		"shortAuthorityID":"PL7002",
		"names":"",
		"pinyin":{
			"桓州":"huán zhōu"
		}
	},
	{
		"authorityID":"PL000000007003",
		"name":"桓州",
		"dynasty":"元",
		"long":"115.9534",
		"lat":"42.2588",
		"districtHistorical":"元_中書省",
		"districtModern":"中國-內蒙古自治區-錫林郭勒盟-正藍旗",
		"note":null,
		"lang":"中文",
		"shortAuthorityID":"PL7003",
		"names":"",
		"pinyin":{
			"桓州":"huán zhōu"
		}
	},
	{
		"authorityID":"PL000000007004",
		"name":"李陵臺驛",
		"dynasty":"元",
		"long":"115.944",
		"lat":"42.0406",
		"districtHistorical":"元_中書省",
		"districtModern":"中國-內蒙古自治區-錫林郭勒盟-正藍旗",
		"note":null,
		"lang":"中文",
		"shortAuthorityID":"PL7004",
		"names":"",
		"pinyin":{
			"李陵臺驛":"lǐ líng tái yì"
		}
	},
	{
		"authorityID":"PL000000007005",
		"name":"御馬廠",
		"dynasty":"清",
		"long":"115.9158",
		"lat":"41.9828",
		"districtHistorical":"清_直隸",
		"districtModern":"中國-內蒙古自治區-錫林郭勒盟-正藍旗",
		"note":null,
		"lang":"中文",
		"shortAuthorityID":"PL7005",
		"names":"",
		"pinyin":[]
	},
	{
		"authorityID":"PL000000007006",
		"name":"遼西鮮卑",
		"dynasty":"鮮卑",
		"long":"116.143",
		"lat":"42.4949",
		"districtHistorical":"鮮卑",
		"districtModern":"中國-內蒙古自治區-錫林郭勒盟-正藍旗",
		"note":null,
		"lang":"中文",
		"shortAuthorityID":"PL7006",
		"names":"",
		"pinyin":[]
	},
	{
		"authorityID":"PL000000007007",
		"name":"匯宗寺",
		"dynasty":null,
		"long":"116.47305",
		"lat":"42.206748",
		"districtHistorical":null,
		"districtModern":"中國-內蒙古自治區-錫林郭勒盟-多倫縣",
		"note":"始建於康熙三十年（1691）是清王朝敕建的皇家寺院，位於內蒙古自治區錫林郭勒東南部的多倫縣城。聖祖於巡察蒙古時，集喀爾喀七部、四十八旗於此地，遂應各旗之請，建立此寺。1705年冊封章嘉呼圖克圖為大國師，住持匯宗寺，當時是口外最大的喇嘛廟。（<a target=\"_blank\" href=\"http:\/\/baike.baidu.com\/view\/77450.htm\">http:\/\/baike.baidu.com\/view\/77450.htm<\/a>，2009.12.11）",
		"lang":"中文",
		"shortAuthorityID":"PL7007",
		"names":"[中文] 彙宗寺",
		"pinyin":[]
	},
	{
		"authorityID":"PL000000007008",
		"name":"善因寺",
		"dynasty":null,
		"long":"116.463204",
		"lat":"42.201049",
		"districtHistorical":null,
		"districtModern":"中國-內蒙古自治區-錫林郭勒盟-多倫縣",
		"note":"位多倫縣城北三里，在匯宗寺西南。 清雍正下令在多倫建廟。寺廟建成後，將此寺賜送給章嘉國師，並親手御書寺額，用滿、漢、蒙、藏四體文鐫刻，1945年，善因寺毀於戰火，唯大殿倖免。「文革」期間大殿被拆除，今天只留下山門和鐘鼓樓。（佛光：5443；<a target=\"_blank\" href=\"http:\/\/www.hudong.com\/wiki\/%E5%96%84%E5%9B%A0%E5%AF%BA\">http:\/\/www.hudong.com\/wiki\/%E5%96%84%E5%9B%A0%E5%AF%BA<\/a>，2009.12.11）",
		"lang":"中文",
		"shortAuthorityID":"PL7008",
		"names":"[中文] 錫拉蘇莫,沙拉蘇默,西廟,青寺",
		"pinyin":{
			"西廟":"xī miào"
		}
	},
	{
		"authorityID":"PL000000007009",
		"name":"東涼亭",
		"dynasty":"元",
		"long":"116.4856",
		"lat":"42.2714",
		"districtHistorical":"元_中書省",
		"districtModern":"中國-內蒙古自治區-錫林郭勒盟-多倫縣",
		"note":null,
		"lang":"中文",
		"shortAuthorityID":"PL7009",
		"names":"",
		"pinyin":[]
	},
	{
		"authorityID":"PL000000007010",
		"name":"多倫諾爾廳",
		"dynasty":"清",
		"long":"116.4812",
		"lat":"42.1835",
		"districtHistorical":"清_直隸",
		"districtModern":"中國-內蒙古自治區-錫林郭勒盟-多倫縣",
		"note":"清初為察哈爾牧場，地名多倫諾爾，以多倫泊在其北得名。康熙三十年（1691），康熙帝大會喀爾喀蒙古諸部於此。雍正十年（1732），因商民貿易日眾置廳。治今內蒙古自治區多倫縣。屬直隸口北道。為口北三廳之一。1913年改置多倫縣。（<a target=\"_blank\" href=\"http:\/\/zh.wikipedia.org\/wiki\/%E5%A4%9A%E4%BC%A6%E8%AF%BA%E5%B0%94%E7%9B%B4%E9%9A%B6%E5%8E%85\">http:\/\/zh.wikipedia.org\/多倫諾爾廳<\/a>，2012.04.18）",
		"lang":"中文",
		"shortAuthorityID":"PL7010",
		"names":"",
		"pinyin":[]
	},
	{
		"authorityID":"PL000000007011",
		"name":"巴彥土庫木廟",
		"dynasty":"清",
		"long":"105.6401",
		"lat":"40.7712",
		"districtHistorical":"清_內蒙古",
		"districtModern":"中國-內蒙古自治區-阿拉善盟-阿拉善左旗",
		"note":null,
		"lang":"中文",
		"shortAuthorityID":"PL7011",
		"names":"",
		"pinyin":[]
	},
	{
		"authorityID":"PL000000007012",
		"name":"蘇治井",
		"dynasty":"清",
		"long":"105.6703",
		"lat":"40.6247",
		"districtHistorical":"清_內蒙古",
		"districtModern":"中國-內蒙古自治區-阿拉善盟-阿拉善左旗",
		"note":null,
		"lang":"中文",
		"shortAuthorityID":"PL7012",
		"names":"",
		"pinyin":[]
	},
	{
		"authorityID":"PL000000007013",
		"name":"布爾噶蘇臺泉",
		"dynasty":"清",
		"long":"105.6818",
		"lat":"40.4283",
		"districtHistorical":"清_內蒙古",
		"districtModern":"中國-內蒙古自治區-阿拉善盟-阿拉善左旗",
		"note":null,
		"lang":"中文",
		"shortAuthorityID":"PL7013",
		"names":"",
		"pinyin":[]
	},
	{
		"authorityID":"PL000000007014",
		"name":"磴口",
		"dynasty":"清",
		"long":"106.7065",
		"lat":"39.9425",
		"districtHistorical":"清_內蒙古",
		"districtModern":"中國-內蒙古自治區-阿拉善盟-阿拉善左旗",
		"note":null,
		"lang":"中文",
		"shortAuthorityID":"PL7014",
		"names":"",
		"pinyin":[]
	},
	{
		"authorityID":"PL000000007015",
		"name":"察漢諾爾",
		"dynasty":"清",
		"long":"106.2195",
		"lat":"39.8795",
		"districtHistorical":"清_內蒙古",
		"districtModern":"中國-內蒙古自治區-阿拉善盟-阿拉善左旗",
		"note":null,
		"lang":"中文",
		"shortAuthorityID":"PL7015",
		"names":"",
		"pinyin":[]
	},
	{
		"authorityID":"PL000000007016",
		"name":"烏蘭木頭",
		"dynasty":"清",
		"long":"106.7276",
		"lat":"39.7051",
		"districtHistorical":"清_內蒙古",
		"districtModern":"中國-內蒙古自治區-阿拉善盟-阿拉善左旗",
		"note":null,
		"lang":"中文",
		"shortAuthorityID":"PL7016",
		"names":"",
		"pinyin":[]
	},
	{
		"authorityID":"PL000000007017",
		"name":"察漢庫爾",
		"dynasty":"清",
		"long":"106.6261",
		"lat":"39.5998",
		"districtHistorical":"清_內蒙古",
		"districtModern":"中國-內蒙古自治區-阿拉善盟-阿拉善左旗",
		"note":null,
		"lang":"中文",
		"shortAuthorityID":"PL7017",
		"names":"",
		"pinyin":[]
	},
	{
		"authorityID":"PL000000007018",
		"name":"右廂朝順軍司",
		"dynasty":"西夏",
		"long":"106.675",
		"lat":"39.3852",
		"districtHistorical":"西夏",
		"districtModern":"中國-內蒙古自治區-阿拉善盟-阿拉善左旗",
		"note":null,
		"lang":"中文",
		"shortAuthorityID":"PL7018",
		"names":"",
		"pinyin":[]
	},
	{
		"authorityID":"PL000000007019",
		"name":"察哈爾井",
		"dynasty":"清",
		"long":"105.7323",
		"lat":"39.2728",
		"districtHistorical":"清_內蒙古",
		"districtModern":"中國-內蒙古自治區-阿拉善盟-阿拉善左旗",
		"note":null,
		"lang":"中文",
		"shortAuthorityID":"PL7019",
		"names":"",
		"pinyin":[]
	},
	{
		"authorityID":"PL000000007020",
		"name":"公呼都克",
		"dynasty":"清",
		"long":"105.6246",
		"lat":"39.035",
		"districtHistorical":"清_內蒙古",
		"districtModern":"中國-內蒙古自治區-阿拉善盟-阿拉善左旗",
		"note":null,
		"lang":"中文",
		"shortAuthorityID":"PL7020",
		"names":"",
		"pinyin":[]
	},
	{
		"authorityID":"PL000000007021",
		"name":"阿拉善厄魯特旗",
		"dynasty":"清",
		"long":"105.7212",
		"lat":"38.865",
		"districtHistorical":"清_內蒙古",
		"districtModern":"中國-內蒙古自治區-阿拉善盟-阿拉善左旗",
		"note":null,
		"lang":"中文",
		"shortAuthorityID":"PL7021",
		"names":"",
		"pinyin":[]
	},
	{
		"authorityID":"PL000000007022",
		"name":"廣宗寺",
		"dynasty":"清",
		"long":"105.8208",
		"lat":"38.631",
		"districtHistorical":"清_內蒙古",
		"districtModern":"中國-內蒙古自治區-阿拉善盟-阿拉善左旗",
		"note":null,
		"lang":"中文",
		"shortAuthorityID":"PL7022",
		"names":"",
		"pinyin":[]
	},
	{
		"authorityID":"PL000000007023",
		"name":"長流口",
		"dynasty":"明",
		"long":"105.7271",
		"lat":"38.4342",
		"districtHistorical":"韃靼瓦剌",
		"districtModern":"中國-內蒙古自治區-阿拉善盟-阿拉善左旗",
		"note":null,
		"lang":"中文",
		"shortAuthorityID":"PL7023",
		"names":"",
		"pinyin":[]
	},
	{
		"authorityID":"PL000000007024",
		"name":"三關",
		"dynasty":"清",
		"long":"105.8002",
		"lat":"38.3447",
		"districtHistorical":"清_甘肅",
		"districtModern":"中國-內蒙古自治區-阿拉善盟-阿拉善左旗",
		"note":null,
		"lang":"中文",
		"shortAuthorityID":"PL7024",
		"names":"",
		"pinyin":[]
	},
	{
		"authorityID":"PL000000007025",
		"name":"桑金達賴井",
		"dynasty":"清",
		"long":"105.2531",
		"lat":"38.1582",
		"districtHistorical":"清_內蒙古",
		"districtModern":"中國-內蒙古自治區-阿拉善盟-阿拉善左旗",
		"note":null,
		"lang":"中文",
		"shortAuthorityID":"PL7025",
		"names":"",
		"pinyin":[]
	},
	{
		"authorityID":"PL000000007026",
		"name":"雙山口",
		"dynasty":"清",
		"long":"105.8205",
		"lat":"37.9744",
		"districtHistorical":"清_甘肅",
		"districtModern":"中國-內蒙古自治區-阿拉善盟-阿拉善左旗",
		"note":null,
		"lang":"中文",
		"shortAuthorityID":"PL7026",
		"names":"",
		"pinyin":{
			"雙山口":"shuāng shān kǒu"
		}
	},
	{
		"authorityID":"PL000000007027",
		"name":"大壩堡",
		"dynasty":"明",
		"long":"105.8112",
		"lat":"37.9697",
		"districtHistorical":"明_陝西",
		"districtModern":"中國-內蒙古自治區-阿拉善盟-阿拉善左旗",
		"note":null,
		"lang":"中文",
		"shortAuthorityID":"PL7027",
		"names":"",
		"pinyin":[]
	},
	{
		"authorityID":"PL000000007028",
		"name":"亂井",
		"dynasty":"明",
		"long":"105.2268",
		"lat":"37.9105",
		"districtHistorical":"韃靼瓦剌",
		"districtModern":"中國-內蒙古自治區-阿拉善盟-阿拉善左旗",
		"note":null,
		"lang":"中文",
		"shortAuthorityID":"PL7028",
		"names":"",
		"pinyin":[]
	},
	{
		"authorityID":"PL000000007029",
		"name":"紅井",
		"dynasty":"清",
		"long":"105.276",
		"lat":"37.8713",
		"districtHistorical":"清_內蒙古",
		"districtModern":"中國-內蒙古自治區-阿拉善盟-阿拉善左旗",
		"note":null,
		"lang":"中文",
		"shortAuthorityID":"PL7029",
		"names":"",
		"pinyin":[]
	},
	{
		"authorityID":"PL000000007030",
		"name":"紅水河堡",
		"dynasty":"清",
		"long":"103.9091",
		"lat":"37.592",
		"districtHistorical":"清_甘肅",
		"districtModern":"中國-內蒙古自治區-阿拉善盟-阿拉善左旗",
		"note":null,
		"lang":"中文",
		"shortAuthorityID":"PL7030",
		"names":"",
		"pinyin":[]
	},
	{
		"authorityID":"PL000000007031",
		"name":"敖爾布格嘎順",
		"dynasty":"清",
		"long":"104.9801",
		"lat":"41.5924",
		"districtHistorical":"清_內蒙古",
		"districtModern":"中國-內蒙古自治區-阿拉善盟-阿拉善左旗",
		"note":null,
		"lang":"中文",
		"shortAuthorityID":"PL7031",
		"names":"",
		"pinyin":[]
	},
	{
		"authorityID":"PL000000007032",
		"name":"英根努水",
		"dynasty":"清",
		"long":"104.83",
		"lat":"41.6203",
		"districtHistorical":"清_烏里雅蘇台",
		"districtModern":"中國-內蒙古自治區-阿拉善盟-阿拉善左旗",
		"note":null,
		"lang":"中文",
		"shortAuthorityID":"PL7032",
		"names":"",
		"pinyin":[]
	},
	{
		"authorityID":"PL000000007033",
		"name":"白馬強鎮軍司",
		"dynasty":"西夏",
		"long":"105.2986",
		"lat":"39.8731",
		"districtHistorical":"西夏",
		"districtModern":"中國-內蒙古自治區-阿拉善盟-阿拉善左旗",
		"note":null,
		"lang":"中文",
		"shortAuthorityID":"PL7033",
		"names":"",
		"pinyin":[]
	},
	{
		"authorityID":"PL000000007034",
		"name":"攤糧城",
		"dynasty":"西夏",
		"long":"105.7739",
		"lat":"39.0495",
		"districtHistorical":"西夏",
		"districtModern":"中國-內蒙古自治區-阿拉善盟-阿拉善左旗",
		"note":null,
		"lang":"中文",
		"shortAuthorityID":"PL7034",
		"names":"",
		"pinyin":[]
	},
	{
		"authorityID":"PL000000007035",
		"name":"西部鮮卑",
		"dynasty":"鮮卑",
		"long":"105.3378",
		"lat":"39.3118",
		"districtHistorical":"鮮卑",
		"districtModern":"中國-內蒙古自治區-阿拉善盟-阿拉善左旗",
		"note":null,
		"lang":"中文",
		"shortAuthorityID":"PL7035",
		"names":"",
		"pinyin":[]
	},
	{
		"authorityID":"PL000000007036",
		"name":"河西鮮卑",
		"dynasty":"鮮卑",
		"long":"103.864",
		"lat":"41.6919",
		"districtHistorical":"鮮卑",
		"districtModern":"中國-內蒙古自治區-阿拉善盟-阿拉善左旗",
		"note":null,
		"lang":"中文",
		"shortAuthorityID":"PL7036",
		"names":"",
		"pinyin":[]
	},
	{
		"authorityID":"PL000000007037",
		"name":"翁馬湖墩",
		"dynasty":"明",
		"long":"101.2666",
		"lat":"38.8796",
		"districtHistorical":"韃靼瓦剌",
		"districtModern":"中國-內蒙古自治區-阿拉善盟-阿拉善右旗",
		"note":null,
		"lang":"中文",
		"shortAuthorityID":"PL7037",
		"names":"",
		"pinyin":[]
	},
	{
		"authorityID":"PL000000007038",
		"name":"白馬強鎮軍司",
		"dynasty":"西夏",
		"long":"103.7199",
		"lat":"39.7063",
		"districtHistorical":"西夏",
		"districtModern":"中國-內蒙古自治區-阿拉善盟-阿拉善右旗",
		"note":null,
		"lang":"中文",
		"shortAuthorityID":"PL7038",
		"names":"",
		"pinyin":[]
	},
	{
		"authorityID":"PL000000007039",
		"name":"居延澤",
		"dynasty":null,
		"long":"101.241981",
		"lat":"42.308844",
		"districtHistorical":null,
		"districtModern":"中國-內蒙古自治區-阿拉善盟-額濟納旗",
		"note":"居延海位於內蒙古自治區額濟納旗北部，漢代稱「居延澤」，後也稱「西海」，唐代以來一直稱「居延海」。（<a target=\"_blank\" href=\"http:\/\/zh.wikipedia.org\/zh-tw\/%E5%B1%85%E5%BB%B6%E6%B5%B7\">居延海<\/a>，2010.03.09）",
		"lang":"中文",
		"shortAuthorityID":"PL7039",
		"names":"[中文] 居延海,西海",
		"pinyin":{
			"西海":"xī hǎi"
		}
	},
	{
		"authorityID":"PL000000007040",
		"name":"西喇烏蘇",
		"dynasty":"清",
		"long":"98.2026",
		"lat":"42.2171",
		"districtHistorical":"清_內蒙古",
		"districtModern":"中國-內蒙古自治區-阿拉善盟-額濟納旗",
		"note":null,
		"lang":"中文",
		"shortAuthorityID":"PL7040",
		"names":"",
		"pinyin":[]
	},
	{
		"authorityID":"PL000000007041",
		"name":"索隴呼都克",
		"dynasty":"清",
		"long":"99.9424",
		"lat":"41.9528",
		"districtHistorical":"清_內蒙古",
		"districtModern":"中國-內蒙古自治區-阿拉善盟-額濟納旗",
		"note":null,
		"lang":"中文",
		"shortAuthorityID":"PL7041",
		"names":"",
		"pinyin":[]
	},
	{
		"authorityID":"PL000000007042",
		"name":"遮虜障",
		"dynasty":"西漢",
		"long":"101.122",
		"lat":"41.948",
		"districtHistorical":"西漢_涼州刺史部",
		"districtModern":"中國-內蒙古自治區-阿拉善盟-額濟納旗",
		"note":null,
		"lang":"中文",
		"shortAuthorityID":"PL7042",
		"names":"",
		"pinyin":[]
	},
	{
		"authorityID":"PL000000007043",
		"name":"西海郡",
		"dynasty":"前秦",
		"long":"101.1974",
		"lat":"41.8845",
		"districtHistorical":"前秦",
		"districtModern":"中國-內蒙古自治區-阿拉善盟-額濟納旗",
		"note":null,
		"lang":"中文",
		"shortAuthorityID":"PL7043",
		"names":"",
		"pinyin":{
			"西海郡":"xī hǎi jùn"
		}
	},
	{
		"authorityID":"PL000000007044",
		"name":"居延",
		"dynasty":"東漢",
		"long":"101.1532",
		"lat":"41.8684",
		"districtHistorical":"東漢_涼州刺史部",
		"districtModern":"中國-內蒙古自治區-阿拉善盟-額濟納旗",
		"note":null,
		"lang":"中文",
		"shortAuthorityID":"PL7044",
		"names":"",
		"pinyin":[]
	},
	{
		"authorityID":"PL000000007045",
		"name":"張掖居延屬國",
		"dynasty":"東漢",
		"long":"101.1532",
		"lat":"41.8684",
		"districtHistorical":"東漢_涼州刺史部",
		"districtModern":"中國-內蒙古自治區-阿拉善盟-額濟納旗",
		"note":null,
		"lang":"中文",
		"shortAuthorityID":"PL7045",
		"names":"",
		"pinyin":[]
	},
	{
		"authorityID":"PL000000007046",
		"name":"居延",
		"dynasty":"西漢",
		"long":"101.1532",
		"lat":"41.8684",
		"districtHistorical":"西漢_涼州刺史部",
		"districtModern":"中國-內蒙古自治區-阿拉善盟-額濟納旗",
		"note":null,
		"lang":"中文",
		"shortAuthorityID":"PL7046",
		"names":"",
		"pinyin":[]
	},
	{
		"authorityID":"PL000000007047",
		"name":"西海故鄉",
		"dynasty":"北魏",
		"long":"101.1873",
		"lat":"41.8652",
		"districtHistorical":"北朝魏_沃野鎮",
		"districtModern":"中國-內蒙古自治區-阿拉善盟-額濟納旗",
		"note":"東漢建安年間，改張掖居延屬國為西海郡，治所在居延（今內蒙古額濟納旗東南）。轄境約當今居延海附近一帶。北魏廢。（<a target=\"_blank\" href=\"http:\/\/baike.baidu.com\/view\/1834568.htm\">http:\/\/baike.baidu.com\/view\/1834568.htm<\/a>，2012.09.14）",
		"lang":"中文",
		"shortAuthorityID":"PL7047",
		"names":"[中文] 西海郡",
		"pinyin":[]
	},
	{
		"authorityID":"PL000000007048",
		"name":"西海郡",
		"dynasty":"西晉",
		"long":"101.1772",
		"lat":"41.8426",
		"districtHistorical":"西晉_涼州",
		"districtModern":"中國-內蒙古自治區-阿拉善盟-額濟納旗",
		"note":null,
		"lang":"中文",
		"shortAuthorityID":"PL7048",
		"names":"",
		"pinyin":{
			"西海郡":"xī hǎi jùn"
		}
	},
	{
		"authorityID":"PL000000007049",
		"name":"居延",
		"dynasty":"西晉",
		"long":"101.1772",
		"lat":"41.8426",
		"districtHistorical":"西晉_涼州",
		"districtModern":"中國-內蒙古自治區-阿拉善盟-額濟納旗",
		"note":"漢置，為都尉治，在今甘肅酒泉邊外蒙古額濟納旗。（中地：458）",
		"lang":"中文",
		"shortAuthorityID":"PL7049",
		"names":"[中文] 延水",
		"pinyin":{
			"延水":"yán shuǐ"
		}
	},
	{
		"authorityID":"PL000000007050",
		"name":"西海郡",
		"dynasty":"曹魏",
		"long":"101.1772",
		"lat":"41.8426",
		"districtHistorical":"三國魏_涼州",
		"districtModern":"中國-內蒙古自治區-阿拉善盟-額濟納旗",
		"note":null,
		"lang":"中文",
		"shortAuthorityID":"PL7050",
		"names":"",
		"pinyin":{
			"西海郡":"xī hǎi jùn"
		}
	},
	{
		"authorityID":"PL000000007051",
		"name":"居延",
		"dynasty":"曹魏",
		"long":"101.1772",
		"lat":"41.8426",
		"districtHistorical":"三國魏_涼州",
		"districtModern":"中國-內蒙古自治區-阿拉善盟-額濟納旗",
		"note":null,
		"lang":"中文",
		"shortAuthorityID":"PL7051",
		"names":"",
		"pinyin":[]
	},
	{
		"authorityID":"PL000000007052",
		"name":"亦集乃路",
		"dynasty":"元",
		"long":"101.1374",
		"lat":"41.7964",
		"districtHistorical":"元_甘肅行省",
		"districtModern":"中國-內蒙古自治區-阿拉善盟-額濟納旗",
		"note":null,
		"lang":"中文",
		"shortAuthorityID":"PL7052",
		"names":"",
		"pinyin":[]
	},
	{
		"authorityID":"PL000000007053",
		"name":"亦集乃",
		"dynasty":"明",
		"long":"101.2248",
		"lat":"41.7911",
		"districtHistorical":"韃靼瓦剌",
		"districtModern":"中國-內蒙古自治區-阿拉善盟-額濟納旗",
		"note":null,
		"lang":"中文",
		"shortAuthorityID":"PL7053",
		"names":"",
		"pinyin":[]
	},
	{
		"authorityID":"PL000000007054",
		"name":"甲渠塞",
		"dynasty":"西漢",
		"long":"100.9745",
		"lat":"41.7504",
		"districtHistorical":"西漢_涼州刺史部",
		"districtModern":"中國-內蒙古自治區-阿拉善盟-額濟納旗",
		"note":null,
		"lang":"中文",
		"shortAuthorityID":"PL7054",
		"names":"",
		"pinyin":[]
	},
	{
		"authorityID":"PL000000007055",
		"name":"同城守捉",
		"dynasty":"唐",
		"long":"101.1185",
		"lat":"41.7398",
		"districtHistorical":"唐_隴右道",
		"districtModern":"中國-內蒙古自治區-阿拉善盟-額濟納旗",
		"note":null,
		"lang":"中文",
		"shortAuthorityID":"PL7055",
		"names":"",
		"pinyin":[]
	},
	{
		"authorityID":"PL000000007056",
		"name":"黑水鎮燕軍司",
		"dynasty":"西夏",
		"long":"101.1346",
		"lat":"41.7331",
		"districtHistorical":"西夏",
		"districtModern":"中國-內蒙古自治區-阿拉善盟-額濟納旗",
		"note":null,
		"lang":"中文",
		"shortAuthorityID":"PL7056",
		"names":"",
		"pinyin":[]
	},
	{
		"authorityID":"PL000000007057",
		"name":"大同城鎮",
		"dynasty":"隋",
		"long":"101.0698",
		"lat":"41.722",
		"districtHistorical":"隋_張掖郡",
		"districtModern":"中國-內蒙古自治區-阿拉善盟-額濟納旗",
		"note":null,
		"lang":"中文",
		"shortAuthorityID":"PL7057",
		"names":"",
		"pinyin":[]
	},
	{
		"authorityID":"PL000000007058",
		"name":"西灣",
		"dynasty":"清",
		"long":"100.2509",
		"lat":"40.9736",
		"districtHistorical":"清_內蒙古",
		"districtModern":"中國-內蒙古自治區-阿拉善盟-額濟納旗",
		"note":null,
		"lang":"中文",
		"shortAuthorityID":"PL7058",
		"names":"",
		"pinyin":{
			"西灣":"xī wān"
		}
	},
	{
		"authorityID":"PL000000007059",
		"name":"邵馬營",
		"dynasty":"清",
		"long":"100.1281",
		"lat":"40.8777",
		"districtHistorical":"清_內蒙古",
		"districtModern":"中國-內蒙古自治區-阿拉善盟-額濟納旗",
		"note":null,
		"lang":"中文",
		"shortAuthorityID":"PL7059",
		"names":"",
		"pinyin":[]
	},
	{
		"authorityID":"PL000000007060",
		"name":"城堡(3)",
		"dynasty":"西夏",
		"long":"100.9611",
		"lat":"40.8766",
		"districtHistorical":"西夏",
		"districtModern":"中國-內蒙古自治區-阿拉善盟-額濟納旗",
		"note":null,
		"lang":"中文",
		"shortAuthorityID":"PL7060",
		"names":"",
		"pinyin":[]
	},
	{
		"authorityID":"PL000000007061",
		"name":"額濟納土爾扈特旗",
		"dynasty":"清",
		"long":"98.8712",
		"lat":"41.6543",
		"districtHistorical":"清_內蒙古",
		"districtModern":"中國-內蒙古自治區-阿拉善盟-額濟納旗",
		"note":null,
		"lang":"中文",
		"shortAuthorityID":"PL7061",
		"names":"",
		"pinyin":[]
	},
	{
		"authorityID":"PL000000007062",
		"name":"黑水鎮燕軍司",
		"dynasty":"西夏",
		"long":"101.0041",
		"lat":"41.4924",
		"districtHistorical":"西夏",
		"districtModern":"中國-內蒙古自治區-阿拉善盟-額濟納旗",
		"note":null,
		"lang":"中文",
		"shortAuthorityID":"PL7062",
		"names":"",
		"pinyin":[]
	},
	{
		"authorityID":"PL000000007063",
		"name":"威遠守捉",
		"dynasty":"唐",
		"long":"99.1544",
		"lat":"41.2986",
		"districtHistorical":"唐_隴右道",
		"districtModern":"中國-內蒙古自治區-阿拉善盟-額濟納旗",
		"note":null,
		"lang":"中文",
		"shortAuthorityID":"PL7063",
		"names":"",
		"pinyin":[]
	},
	{
		"authorityID":"PL000000007064",
		"name":"張掖居延",
		"dynasty":"東漢",
		"long":"100.5742",
		"lat":"41.157",
		"districtHistorical":"東漢_涼州刺史部",
		"districtModern":"中國-內蒙古自治區-阿拉善盟-額濟納旗",
		"note":null,
		"lang":"中文",
		"shortAuthorityID":"PL7064",
		"names":"",
		"pinyin":[]
	},
	{
		"authorityID":"PL000000007065",
		"name":"張掖屬國",
		"dynasty":"東漢",
		"long":"99.8588",
		"lat":"40.1162",
		"districtHistorical":"東漢_涼州刺史部",
		"districtModern":"中國-內蒙古自治區-阿拉善盟-額濟納旗",
		"note":null,
		"lang":"中文",
		"shortAuthorityID":"PL7065",
		"names":"",
		"pinyin":[]
	},
	{
		"authorityID":"PL000000007066",
		"name":"都尉",
		"dynasty":"西漢",
		"long":"101.1532",
		"lat":"41.8684",
		"districtHistorical":"西漢_涼州刺史部",
		"districtModern":"中國-內蒙古自治區-阿拉善盟-額濟納旗",
		"note":null,
		"lang":"中文",
		"shortAuthorityID":"PL7066",
		"names":"",
		"pinyin":[]
	},
	{
		"authorityID":"PL000000007067",
		"name":"東部都尉",
		"dynasty":"西漢",
		"long":"99.473",
		"lat":"39.8939",
		"districtHistorical":"西漢_涼州刺史部",
		"districtModern":"中國-內蒙古自治區-阿拉善盟-額濟納旗",
		"note":null,
		"lang":"中文",
		"shortAuthorityID":"PL7067",
		"names":"",
		"pinyin":[]
	},
	{
		"authorityID":"PL000000007068",
		"mergeTo":"PL000000048189",
		"names":"[] ,",
		"pinyin":[]
	},
	{
		"authorityID":"PL000000007069",
		"name":"奉天省",
		"dynasty":"清",
		"long":"123.4301",
		"lat":"41.7869",
		"districtHistorical":"清_奉天省",
		"districtModern":"中國-遼寧省",
		"note":"禹貢青、冀二州之域。……光緒三十三年三月，……改為行省。北至洮南；南至旅順口；西至山海關；東至安圖。……共領府八，直隸廳五，廳三，州六，縣三十三。（清史稿．卷五十五．地理二：1925；<a target=\"_blank\" href=\"http:\/\/zh.wikipedia.org\/zh-tw\/%E5%A5%89%E5%A4%A9%E7%9C%81\">http:\/\/zh.wikipedia.org\/zh-tw\/%E5%A5%89%E5%A4%A9%E7%9C%81<\/a>，2009.11.25）",
		"lang":"中文",
		"shortAuthorityID":"PL7069",
		"names":"[中文] 遼",
		"pinyin":{
			"遼":"liáo"
		}
	},
	{
		"authorityID":"PL000000007070",
		"mergeTo":"PL000000007612",
		"names":"[] ,,",
		"pinyin":[]
	},
	{
		"authorityID":"PL000000007071",
		"name":"鴨綠江",
		"dynasty":"唐",
		"long":"124.316667",
		"lat":"39.866667",
		"districtHistorical":null,
		"districtModern":"中國-遼寧省;中國-吉林省",
		"note":"原為中國內河，位於吉林省、遼寧省東部，現是中國與朝鮮的界河，最下游為朝鮮內河。發源於長白山南麓，流經長白、臨江市、寬甸、丹東等地，沿中朝邊界向西南流，彙集渾江、虛川江、禿魯江等支流，在遼寧丹東的東港市附近向南注入黃海。（<a target=\"_blank\" href=\"http:\/\/baike.baidu.com\/view\/5247.htm\">http:\/\/baike.baidu.com\/view\/5247.htm<\/a>，2012.10.18）",
		"lang":"中文",
		"shortAuthorityID":"PL7071",
		"names":"[中文] 浿水,馬訾水",
		"pinyin":{
			"鴨綠江":"yā lǜ jiāng"
		}
	},
	{
		"authorityID":"PL000000007072",
		"name":"興善",
		"dynasty":null,
		"long":"123.452028",
		"lat":"41.793648",
		"districtHistorical":null,
		"districtModern":"中國-遼寧省-瀋陽市-瀋河區",
		"note":"（明清序：294）",
		"lang":"中文",
		"shortAuthorityID":"PL7072",
		"names":"",
		"pinyin":[]
	},
	{
		"authorityID":"PL000000007073",
		"name":"雷音寺",
		"dynasty":null,
		"long":"123.452028",
		"lat":"41.793648",
		"districtHistorical":null,
		"districtModern":"中國-遼寧省-瀋陽市-瀋河區",
		"note":"（明清序：222）",
		"lang":"中文",
		"shortAuthorityID":"PL7073",
		"names":"",
		"pinyin":[]
	},
	{
		"authorityID":"PL000000007074",
		"name":"奉天府",
		"dynasty":"清",
		"long":"123.4301",
		"lat":"41.7869",
		"districtHistorical":"清_盛京（奉天）",
		"districtModern":"中國-遼寧省-瀋陽市-瀋河區",
		"note":"元貞二年置瀋陽路，治所在瀋州（金遼寧瀋陽市），明初廢。1625年，清太祖努爾哈赤建立的後金遷都於此，更名盛京。清．順治十四年（1657）盛京城設立奉天府，從此，瀋陽又有奉天之稱。（歷地魏：568；<a target=\"_blank\" href=\"http:\/\/baike.baidu.com\/view\/4450.htm\">http:\/\/baike.baidu.com\/view\/4450.htm<\/a>、<a target=\"_blank\" href=\"http:\/\/baike.baidu.com\/view\/68626.htm\">http:\/\/baike.baidu.com\/view\/68626.htm<\/a>，2011.08.10）",
		"lang":"中文",
		"shortAuthorityID":"PL7074",
		"names":"[中文] 瀋陽",
		"pinyin":{
			"奉天府":"fèng tiān fǔ"
		}
	},
	{
		"authorityID":"PL000000007075",
		"name":"承德",
		"dynasty":"清",
		"long":"123.4301",
		"lat":"41.7869",
		"districtHistorical":"清_盛京（奉天）",
		"districtModern":"中國-遼寧省-瀋陽市-瀋河區",
		"note":null,
		"lang":"中文",
		"shortAuthorityID":"PL7075",
		"names":"",
		"pinyin":[]
	},
	{
		"authorityID":"PL000000007076",
		"name":"盛京",
		"dynasty":"清",
		"long":"123.4301",
		"lat":"41.7869",
		"districtHistorical":"清_盛京（奉天）",
		"districtModern":"中國-遼寧省-瀋陽市-瀋河區",
		"note":null,
		"lang":"中文",
		"shortAuthorityID":"PL7076",
		"names":"",
		"pinyin":[]
	},
	{
		"authorityID":"PL000000007077",
		"name":"瀋州",
		"dynasty":"元",
		"long":"123.4301",
		"lat":"41.7869",
		"districtHistorical":"元_遼陽行省",
		"districtModern":"中國-遼寧省-瀋陽市-瀋河區",
		"note":null,
		"lang":"中文",
		"shortAuthorityID":"PL7077",
		"names":"",
		"pinyin":[]
	},
	{
		"authorityID":"PL000000007078",
		"name":"瀋陽千戶所",
		"dynasty":"元",
		"long":"123.4301",
		"lat":"41.7869",
		"districtHistorical":"元_遼陽行省",
		"districtModern":"中國-遼寧省-瀋陽市-瀋河區",
		"note":null,
		"lang":"中文",
		"shortAuthorityID":"PL7078",
		"names":"",
		"pinyin":[]
	},
	{
		"authorityID":"PL000000007079",
		"name":"瀋陽路",
		"dynasty":"元",
		"long":"123.4301",
		"lat":"41.7869",
		"districtHistorical":"元_遼陽行省",
		"districtModern":"中國-遼寧省-瀋陽市-瀋河區",
		"note":null,
		"lang":"中文",
		"shortAuthorityID":"PL7079",
		"names":"",
		"pinyin":[]
	},
	{
		"authorityID":"PL000000007080",
		"name":"瀋州",
		"dynasty":"金",
		"long":"123.4301",
		"lat":"41.7869",
		"districtHistorical":"金",
		"districtModern":"中國-遼寧省-瀋陽市-瀋河區",
		"note":null,
		"lang":"中文",
		"shortAuthorityID":"PL7080",
		"names":"",
		"pinyin":[]
	},
	{
		"authorityID":"PL000000007081",
		"name":"樂郊",
		"dynasty":"遼",
		"long":"123.4301",
		"lat":"41.7869",
		"districtHistorical":"遼_東京道",
		"districtModern":"中國-遼寧省-瀋陽市-瀋河區",
		"note":null,
		"lang":"中文",
		"shortAuthorityID":"PL7081",
		"names":"",
		"pinyin":[]
	},
	{
		"authorityID":"PL000000007082",
		"name":"瀋州",
		"dynasty":"遼",
		"long":"123.4301",
		"lat":"41.7869",
		"districtHistorical":"遼_東京道",
		"districtModern":"中國-遼寧省-瀋陽市-瀋河區",
		"note":null,
		"lang":"中文",
		"shortAuthorityID":"PL7082",
		"names":"",
		"pinyin":[]
	},
	{
		"authorityID":"PL000000007083",
		"name":"瀋陽中衛",
		"dynasty":"明",
		"long":"123.4301",
		"lat":"41.7869",
		"districtHistorical":"明_山東",
		"districtModern":"中國-遼寧省-瀋陽市-瀋河區",
		"note":"1386年，明朝改稱瀋陽路為瀋陽中衛。（<a target=\"_blank\" href=\"http:\/\/zh.wikipedia.org\/wiki\/%E7%80%8B%E9%99%BD\">http:\/\/zh.wikipedia.org\/wiki\/瀋陽<\/a>，2011.10.25）",
		"lang":"中文",
		"shortAuthorityID":"PL7083",
		"names":"",
		"pinyin":[]
	},
	{
		"authorityID":"PL000000007084",
		"name":"奉集堡",
		"dynasty":"清",
		"long":"123.5976",
		"lat":"41.5806",
		"districtHistorical":"清_盛京（奉天）",
		"districtModern":"中國-遼寧省-瀋陽市-蘇家屯區",
		"note":null,
		"lang":"中文",
		"shortAuthorityID":"PL7084",
		"names":"",
		"pinyin":[]
	},
	{
		"authorityID":"PL000000007085",
		"name":"奉集堡",
		"dynasty":"明",
		"long":"123.5956",
		"lat":"41.582",
		"districtHistorical":"明_山東",
		"districtModern":"中國-遼寧省-瀋陽市-蘇家屯區",
		"note":null,
		"lang":"中文",
		"shortAuthorityID":"PL7085",
		"names":"",
		"pinyin":[]
	},
	{
		"authorityID":"PL000000007086",
		"name":"武靖營",
		"dynasty":"清",
		"long":"123.2884",
		"lat":"41.5803",
		"districtHistorical":"清_盛京（奉天）",
		"districtModern":"中國-遼寧省-瀋陽市-蘇家屯區",
		"note":null,
		"lang":"中文",
		"shortAuthorityID":"PL7086",
		"names":"",
		"pinyin":[]
	},
	{
		"authorityID":"PL000000007087",
		"name":"武靖營",
		"dynasty":"明",
		"long":"123.2917",
		"lat":"41.6076",
		"districtHistorical":"明_山東",
		"districtModern":"中國-遼寧省-瀋陽市-蘇家屯區",
		"note":null,
		"lang":"中文",
		"shortAuthorityID":"PL7087",
		"names":"",
		"pinyin":[]
	},
	{
		"authorityID":"PL000000007088",
		"name":"虎皮驛",
		"dynasty":"明",
		"long":"123.3823",
		"lat":"41.5255",
		"districtHistorical":"明_山東",
		"districtModern":"中國-遼寧省-瀋陽市-蘇家屯區",
		"note":null,
		"lang":"中文",
		"shortAuthorityID":"PL7088",
		"names":"",
		"pinyin":[]
	},
	{
		"authorityID":"PL000000007089",
		"name":"十里河站",
		"dynasty":"清",
		"long":"123.3851",
		"lat":"41.5204",
		"districtHistorical":"清_盛京（奉天）",
		"districtModern":"中國-遼寧省-瀋陽市-蘇家屯區",
		"note":null,
		"lang":"中文",
		"shortAuthorityID":"PL7089",
		"names":"",
		"pinyin":[]
	},
	{
		"authorityID":"PL000000007090",
		"name":"玄菟郡",
		"dynasty":"西晉",
		"long":"123.6362",
		"lat":"41.8074",
		"districtHistorical":"西晉_平州",
		"districtModern":"中國-遼寧省-瀋陽市-東陵區",
		"note":null,
		"lang":"中文",
		"shortAuthorityID":"PL7090",
		"names":"",
		"pinyin":[]
	},
	{
		"authorityID":"PL000000007091",
		"name":"高句驪",
		"dynasty":"西晉",
		"long":"123.6362",
		"lat":"41.8074",
		"districtHistorical":"西晉_平州",
		"districtModern":"中國-遼寧省-瀋陽市-東陵區",
		"note":null,
		"lang":"中文",
		"shortAuthorityID":"PL7091",
		"names":"",
		"pinyin":[]
	},
	{
		"authorityID":"PL000000007092",
		"name":"玄菟郡",
		"dynasty":"曹魏",
		"long":"123.6362",
		"lat":"41.8074",
		"districtHistorical":"三國 魏_幽州",
		"districtModern":"中國-遼寧省-瀋陽市-東陵區",
		"note":null,
		"lang":"中文",
		"shortAuthorityID":"PL7092",
		"names":"",
		"pinyin":[]
	},
	{
		"authorityID":"PL000000007093",
		"name":"高句驪",
		"dynasty":"曹魏",
		"long":"123.6362",
		"lat":"41.8074",
		"districtHistorical":"三國 魏_幽州",
		"districtModern":"中國-遼寧省-瀋陽市-東陵區",
		"note":null,
		"lang":"中文",
		"shortAuthorityID":"PL7093",
		"names":"",
		"pinyin":[]
	},
	{
		"authorityID":"PL000000007094",
		"name":"候城",
		"dynasty":"東漢",
		"long":"123.5678",
		"lat":"41.7399",
		"districtHistorical":"東漢_幽州刺史部",
		"districtModern":"中國-遼寧省-瀋陽市-東陵區",
		"note":null,
		"lang":"中文",
		"shortAuthorityID":"PL7094",
		"names":"",
		"pinyin":{
			"候城":"hòu chéng"
		}
	},
	{
		"authorityID":"PL000000007095",
		"name":"候城",
		"dynasty":"西漢",
		"long":"123.5678",
		"lat":"41.7399",
		"districtHistorical":"西漢_幽州刺史部",
		"districtModern":"中國-遼寧省-瀋陽市-東陵區",
		"note":null,
		"lang":"中文",
		"shortAuthorityID":"PL7095",
		"names":"",
		"pinyin":{
			"候城":"hòu chéng"
		}
	},
	{
		"authorityID":"PL000000007096",
		"name":"中部都尉",
		"dynasty":"西漢",
		"long":"123.5678",
		"lat":"41.7399",
		"districtHistorical":"西漢_幽州刺史部",
		"districtModern":"中國-遼寧省-瀋陽市-東陵區",
		"note":null,
		"lang":"中文",
		"shortAuthorityID":"PL7096",
		"names":"",
		"pinyin":[]
	},
	{
		"authorityID":"PL000000007097",
		"name":"玄菟郡",
		"dynasty":"東漢",
		"long":"123.6386",
		"lat":"41.8097",
		"districtHistorical":"東漢_幽州刺史部",
		"districtModern":"中國-遼寧省-瀋陽市-東陵區",
		"note":null,
		"lang":"中文",
		"shortAuthorityID":"PL7097",
		"names":"",
		"pinyin":[]
	},
	{
		"authorityID":"PL000000007098",
		"name":"高句驪",
		"dynasty":"東漢",
		"long":"123.6386",
		"lat":"41.8097",
		"districtHistorical":"東漢_幽州刺史部",
		"districtModern":"中國-遼寧省-瀋陽市-東陵區",
		"note":null,
		"lang":"中文",
		"shortAuthorityID":"PL7098",
		"names":"",
		"pinyin":[]
	},
	{
		"authorityID":"PL000000007099",
		"name":"玄菟郡",
		"dynasty":"前秦",
		"long":"123.6671",
		"lat":"41.8059",
		"districtHistorical":"前秦",
		"districtModern":"中國-遼寧省-瀋陽市-東陵區",
		"note":null,
		"lang":"中文",
		"shortAuthorityID":"PL7099",
		"names":"",
		"pinyin":[]
	},
	{
		"authorityID":"PL000000007100",
		"name":"白塔鋪",
		"dynasty":"清",
		"long":"123.4431",
		"lat":"41.6872",
		"districtHistorical":"清_盛京（奉天）",
		"districtModern":"中國-遼寧省-瀋陽市-東陵區",
		"note":null,
		"lang":"中文",
		"shortAuthorityID":"PL7100",
		"names":"",
		"pinyin":[]
	},
	{
		"authorityID":"PL000000007101",
		"name":"白塔鋪",
		"dynasty":"明",
		"long":"123.4296",
		"lat":"41.6877",
		"districtHistorical":"明_山東",
		"districtModern":"中國-遼寧省-瀋陽市-東陵區",
		"note":null,
		"lang":"中文",
		"shortAuthorityID":"PL7101",
		"names":"",
		"pinyin":[]
	},
	{
		"authorityID":"PL000000007102",
		"name":"蒲河所",
		"dynasty":"明",
		"long":"123.6025",
		"lat":"41.9553",
		"districtHistorical":"明_山東",
		"districtModern":"中國-遼寧省-瀋陽市-瀋北新區",
		"note":null,
		"lang":"中文",
		"shortAuthorityID":"PL7102",
		"names":"",
		"pinyin":[]
	},
	{
		"authorityID":"PL000000007103",
		"name":"蒲河城",
		"dynasty":"清",
		"long":"123.6053",
		"lat":"41.952",
		"districtHistorical":"清_盛京（奉天）",
		"districtModern":"中國-遼寧省-瀋陽市-瀋北新區",
		"note":null,
		"lang":"中文",
		"shortAuthorityID":"PL7103",
		"names":"",
		"pinyin":[]
	},
	{
		"authorityID":"PL000000007104",
		"name":"新城堡",
		"dynasty":"明",
		"long":"123.5022",
		"lat":"42.043",
		"districtHistorical":"明_山東",
		"districtModern":"中國-遼寧省-瀋陽市-瀋北新區",
		"note":null,
		"lang":"中文",
		"shortAuthorityID":"PL7104",
		"names":"",
		"pinyin":[]
	},
	{
		"authorityID":"PL000000007105",
		"name":"丁字泊堡",
		"dynasty":"明",
		"long":"123.5246",
		"lat":"42.1616",
		"districtHistorical":"明_山東",
		"districtModern":"中國-遼寧省-瀋陽市-瀋北新區",
		"note":null,
		"lang":"中文",
		"shortAuthorityID":"PL7105",
		"names":"",
		"pinyin":[]
	},
	{
		"authorityID":"PL000000007106",
		"name":"丁字泊堡",
		"dynasty":"清",
		"long":"123.5167",
		"lat":"42.1792",
		"districtHistorical":"清_盛京（奉天）",
		"districtModern":"中國-遼寧省-瀋陽市-瀋北新區",
		"note":null,
		"lang":"中文",
		"shortAuthorityID":"PL7106",
		"names":"",
		"pinyin":[]
	},
	{
		"authorityID":"PL000000007107",
		"name":"十方寺堡",
		"dynasty":"清",
		"long":"123.344",
		"lat":"42.1396",
		"districtHistorical":"清_盛京（奉天）",
		"districtModern":"中國-遼寧省-瀋陽市-瀋北新區",
		"note":null,
		"lang":"中文",
		"shortAuthorityID":"PL7107",
		"names":"",
		"pinyin":[]
	},
	{
		"authorityID":"PL000000007108",
		"name":"老邊站",
		"dynasty":"清",
		"long":"123.1877",
		"lat":"41.972",
		"districtHistorical":"清_盛京（奉天）",
		"districtModern":"中國-遼寧省-瀋陽市-於洪區",
		"note":null,
		"lang":"中文",
		"shortAuthorityID":"PL7108",
		"names":"",
		"pinyin":[]
	},
	{
		"authorityID":"PL000000007109",
		"name":"長勇堡",
		"dynasty":"明",
		"long":"123.0855",
		"lat":"41.696",
		"districtHistorical":"明_山東",
		"districtModern":"中國-遼寧省-瀋陽市-於洪區",
		"note":null,
		"lang":"中文",
		"shortAuthorityID":"PL7109",
		"names":"",
		"pinyin":[]
	},
	{
		"authorityID":"PL000000007110",
		"name":"沙嶺墩",
		"dynasty":"明",
		"long":"123.2141",
		"lat":"41.7905",
		"districtHistorical":"明_山東",
		"districtModern":"中國-遼寧省-瀋陽市-於洪區",
		"note":null,
		"lang":"中文",
		"shortAuthorityID":"PL7110",
		"names":"",
		"pinyin":[]
	},
	{
		"authorityID":"PL000000007111",
		"name":"章義站",
		"dynasty":"清",
		"long":"123.0924",
		"lat":"41.6549",
		"districtHistorical":"清_盛京（奉天）",
		"districtModern":"中國-遼寧省-瀋陽市-於洪區",
		"note":null,
		"lang":"中文",
		"shortAuthorityID":"PL7111",
		"names":"",
		"pinyin":[]
	},
	{
		"authorityID":"PL000000007112",
		"name":"章義站",
		"dynasty":"明",
		"long":"123.0921",
		"lat":"41.6631",
		"districtHistorical":"明_山東",
		"districtModern":"中國-遼寧省-瀋陽市-於洪區",
		"note":null,
		"lang":"中文",
		"shortAuthorityID":"PL7112",
		"names":"",
		"pinyin":[]
	},
	{
		"authorityID":"PL000000007113",
		"name":"上榆林堡",
		"dynasty":"明",
		"long":"123.2705",
		"lat":"42.0186",
		"districtHistorical":"明_山東",
		"districtModern":"中國-遼寧省-瀋陽市-於洪區",
		"note":null,
		"lang":"中文",
		"shortAuthorityID":"PL7113",
		"names":"",
		"pinyin":[]
	},
	{
		"authorityID":"PL000000007114",
		"name":"平虜堡",
		"dynasty":"明",
		"long":"123.355",
		"lat":"41.94",
		"districtHistorical":"明_山東",
		"districtModern":"中國-遼寧省-瀋陽市-於洪區",
		"note":null,
		"lang":"中文",
		"shortAuthorityID":"PL7114",
		"names":"",
		"pinyin":[]
	},
	{
		"authorityID":"PL000000007115",
		"name":"靜遠堡",
		"dynasty":"明",
		"long":"123.1941",
		"lat":"41.8974",
		"districtHistorical":"明_山東",
		"districtModern":"中國-遼寧省-瀋陽市-於洪區",
		"note":null,
		"lang":"中文",
		"shortAuthorityID":"PL7115",
		"names":"",
		"pinyin":[]
	},
	{
		"authorityID":"PL000000007116",
		"name":"淨煙堡",
		"dynasty":"清",
		"long":"123.1945",
		"lat":"41.8951",
		"districtHistorical":"清_盛京（奉天）",
		"districtModern":"中國-遼寧省-瀋陽市-於洪區",
		"note":null,
		"lang":"中文",
		"shortAuthorityID":"PL7116",
		"names":"",
		"pinyin":[]
	},
	{
		"authorityID":"PL000000007117",
		"name":"平洛堡",
		"dynasty":"清",
		"long":"123.3694",
		"lat":"41.9393",
		"districtHistorical":"清_盛京（奉天）",
		"districtModern":"中國-遼寧省-瀋陽市-於洪區",
		"note":null,
		"lang":"中文",
		"shortAuthorityID":"PL7117",
		"names":"",
		"pinyin":[]
	},
	{
		"authorityID":"PL000000007118",
		"name":"大石橋",
		"dynasty":"清",
		"long":"123.3193",
		"lat":"41.8495",
		"districtHistorical":"清_盛京（奉天）",
		"districtModern":"中國-遼寧省-瀋陽市-於洪區",
		"note":null,
		"lang":"中文",
		"shortAuthorityID":"PL7118",
		"names":"",
		"pinyin":[]
	},
	{
		"authorityID":"PL000000007119",
		"name":"沙嶺堡",
		"dynasty":"清",
		"long":"123.2247",
		"lat":"41.7877",
		"districtHistorical":"清_盛京（奉天）",
		"districtModern":"中國-遼寧省-瀋陽市-於洪區",
		"note":null,
		"lang":"中文",
		"shortAuthorityID":"PL7119",
		"names":"",
		"pinyin":[]
	},
	{
		"authorityID":"PL000000007120",
		"name":"長灘屯",
		"dynasty":"清",
		"long":"123.061",
		"lat":"41.5616",
		"districtHistorical":"清_盛京（奉天）",
		"districtModern":"中國-遼寧省-瀋陽市-遼中縣",
		"note":null,
		"lang":"中文",
		"shortAuthorityID":"PL7120",
		"names":"",
		"pinyin":[]
	},
	{
		"authorityID":"PL000000007121",
		"name":"懷遠守捉",
		"dynasty":"唐",
		"long":"122.6899",
		"lat":"41.5333",
		"districtHistorical":"唐_河北道",
		"districtModern":"中國-遼寧省-瀋陽市-遼中縣",
		"note":null,
		"lang":"中文",
		"shortAuthorityID":"PL7121",
		"names":"",
		"pinyin":[]
	},
	{
		"authorityID":"PL000000007122",
		"name":"長勝堡",
		"dynasty":"明",
		"long":"122.9001",
		"lat":"41.523",
		"districtHistorical":"明_山東",
		"districtModern":"中國-遼寧省-瀋陽市-遼中縣",
		"note":null,
		"lang":"中文",
		"shortAuthorityID":"PL7122",
		"names":"",
		"pinyin":[]
	},
	{
		"authorityID":"PL000000007123",
		"name":"遼陽",
		"dynasty":"東漢",
		"long":"122.8946",
		"lat":"41.5121",
		"districtHistorical":"東漢_幽州刺史部",
		"districtModern":"中國-遼寧省-瀋陽市-遼中縣",
		"note":null,
		"lang":"中文",
		"shortAuthorityID":"PL7123",
		"names":"",
		"pinyin":{
			"遼陽":"liáo yáng"
		}
	},
	{
		"authorityID":"PL000000007124",
		"name":"遼陽",
		"dynasty":"西漢",
		"long":"122.8946",
		"lat":"41.5121",
		"districtHistorical":"西漢_幽州刺史部",
		"districtModern":"中國-遼寧省-瀋陽市-遼中縣",
		"note":null,
		"lang":"中文",
		"shortAuthorityID":"PL7124",
		"names":"",
		"pinyin":{
			"遼陽":"liáo yáng"
		}
	},
	{
		"authorityID":"PL000000007125",
		"name":"刺榆坨堡",
		"dynasty":"清",
		"long":"122.9129",
		"lat":"41.5097",
		"districtHistorical":"清_盛京（奉天）",
		"districtModern":"中國-遼寧省-瀋陽市-遼中縣",
		"note":null,
		"lang":"中文",
		"shortAuthorityID":"PL7125",
		"names":"",
		"pinyin":[]
	},
	{
		"authorityID":"PL000000007126",
		"name":"懷遠鎮",
		"dynasty":"隋",
		"long":"122.6899",
		"lat":"41.5012",
		"districtHistorical":"隋_燕郡",
		"districtModern":"中國-遼寧省-瀋陽市-遼中縣",
		"note":null,
		"lang":"中文",
		"shortAuthorityID":"PL7126",
		"names":"",
		"pinyin":[]
	},
	{
		"authorityID":"PL000000007127",
		"name":"遼陽",
		"dynasty":"曹魏",
		"long":"122.8642",
		"lat":"41.4855",
		"districtHistorical":"三國 魏_幽州",
		"districtModern":"中國-遼寧省-瀋陽市-遼中縣",
		"note":null,
		"lang":"中文",
		"shortAuthorityID":"PL7127",
		"names":"",
		"pinyin":{
			"遼陽":"liáo yáng"
		}
	},
	{
		"authorityID":"PL000000007128",
		"name":"榮州",
		"dynasty":"遼",
		"long":"123.2305",
		"lat":"42.9127",
		"districtHistorical":"遼_上京道",
		"districtModern":"中國-遼寧省-瀋陽市-康平縣",
		"note":null,
		"lang":"中文",
		"shortAuthorityID":"PL7128",
		"names":"",
		"pinyin":{
			"榮州":"róng zhōu"
		}
	},
	{
		"authorityID":"PL000000007129",
		"name":"康家屯",
		"dynasty":"清",
		"long":"123.3518",
		"lat":"42.7439",
		"districtHistorical":"清_內蒙古",
		"districtModern":"中國-遼寧省-瀋陽市-康平縣",
		"note":null,
		"lang":"中文",
		"shortAuthorityID":"PL7129",
		"names":"",
		"pinyin":[]
	},
	{
		"authorityID":"PL000000007130",
		"name":"祺州",
		"dynasty":"遼",
		"long":"123.5189",
		"lat":"42.7125",
		"districtHistorical":"遼_東京道",
		"districtModern":"中國-遼寧省-瀋陽市-康平縣",
		"note":null,
		"lang":"中文",
		"shortAuthorityID":"PL7130",
		"names":"",
		"pinyin":{
			"祺州":"qí zhōu"
		}
	},
	{
		"authorityID":"PL000000007131",
		"name":"慶雲",
		"dynasty":"遼",
		"long":"123.5189",
		"lat":"42.7125",
		"districtHistorical":"遼_東京道",
		"districtModern":"中國-遼寧省-瀋陽市-康平縣",
		"note":null,
		"lang":"中文",
		"shortAuthorityID":"PL7131",
		"names":"",
		"pinyin":[]
	},
	{
		"authorityID":"PL000000007132",
		"name":"慶雲站",
		"dynasty":"元",
		"long":"123.5251",
		"lat":"42.6978",
		"districtHistorical":"元_遼陽行省",
		"districtModern":"中國-遼寧省-瀋陽市-康平縣",
		"note":null,
		"lang":"中文",
		"shortAuthorityID":"PL7132",
		"names":"",
		"pinyin":[]
	},
	{
		"authorityID":"PL000000007133",
		"name":"慶雲站",
		"dynasty":"明",
		"long":"123.5251",
		"lat":"42.6802",
		"districtHistorical":"韃靼瓦剌",
		"districtModern":"中國-遼寧省-瀋陽市-康平縣",
		"note":null,
		"lang":"中文",
		"shortAuthorityID":"PL7133",
		"names":"",
		"pinyin":[]
	},
	{
		"authorityID":"PL000000007134",
		"name":"榮州",
		"dynasty":"遼",
		"long":"123.378",
		"lat":"42.8231",
		"districtHistorical":"遼_東京道",
		"districtModern":"中國-遼寧省-瀋陽市-康平縣",
		"note":null,
		"lang":"中文",
		"shortAuthorityID":"PL7134",
		"names":"",
		"pinyin":{
			"榮州":"róng zhōu"
		}
	},
	{
		"authorityID":"PL000000007135",
		"name":"寧昌",
		"dynasty":"元",
		"long":"123.0361",
		"lat":"42.522",
		"districtHistorical":"元_遼陽行省",
		"districtModern":"中國-遼寧省-瀋陽市-法庫縣",
		"note":null,
		"lang":"中文",
		"shortAuthorityID":"PL7135",
		"names":"",
		"pinyin":[]
	},
	{
		"authorityID":"PL000000007136",
		"name":"寧昌路",
		"dynasty":"元",
		"long":"123.0361",
		"lat":"42.522",
		"districtHistorical":"元_遼陽行省",
		"districtModern":"中國-遼寧省-瀋陽市-法庫縣",
		"note":null,
		"lang":"中文",
		"shortAuthorityID":"PL7136",
		"names":"",
		"pinyin":[]
	},
	{
		"authorityID":"PL000000007137",
		"name":"發庫門",
		"dynasty":"清",
		"long":"123.4169",
		"lat":"42.5015",
		"districtHistorical":"清_盛京（奉天）",
		"districtModern":"中國-遼寧省-瀋陽市-法庫縣",
		"note":null,
		"lang":"中文",
		"shortAuthorityID":"PL7137",
		"names":"",
		"pinyin":[]
	},
	{
		"authorityID":"PL000000007138",
		"name":"遼州",
		"dynasty":"五代十國",
		"long":"123.1998",
		"lat":"42.3662",
		"districtHistorical":"五代十國_遼",
		"districtModern":"中國-遼寧省-瀋陽市-法庫縣",
		"note":null,
		"lang":"中文",
		"shortAuthorityID":"PL7138",
		"names":"",
		"pinyin":{
			"遼州":"liáo zhōu"
		}
	},
	{
		"authorityID":"PL000000007139",
		"name":"嚴千戶屯",
		"dynasty":"清",
		"long":"123.2022",
		"lat":"42.2661",
		"districtHistorical":"清_盛京（奉天）",
		"districtModern":"中國-遼寧省-瀋陽市-法庫縣",
		"note":null,
		"lang":"中文",
		"shortAuthorityID":"PL7139",
		"names":"",
		"pinyin":[]
	},
	{
		"authorityID":"PL000000007140",
		"name":"彰武臺門",
		"dynasty":"清",
		"long":"122.7516",
		"lat":"42.2818",
		"districtHistorical":"清_盛京（奉天）",
		"districtModern":"中國-遼寧省-瀋陽市-新民市",
		"note":null,
		"lang":"中文",
		"shortAuthorityID":"PL7140",
		"names":"",
		"pinyin":{
			"彰武臺門":"zhāng wǔ tái mén"
		}
	},
	{
		"authorityID":"PL000000007141",
		"name":"遼州",
		"dynasty":"遼",
		"long":"123.0484",
		"lat":"42.1704",
		"districtHistorical":"遼_東京道",
		"districtModern":"中國-遼寧省-瀋陽市-新民市",
		"note":null,
		"lang":"中文",
		"shortAuthorityID":"PL7141",
		"names":"",
		"pinyin":{
			"遼州":"liáo zhōu"
		}
	},
	{
		"authorityID":"PL000000007142",
		"name":"遼濱",
		"dynasty":"遼",
		"long":"123.0484",
		"lat":"42.1704",
		"districtHistorical":"遼_東京道",
		"districtModern":"中國-遼寧省-瀋陽市-新民市",
		"note":"位新民市東北的遼濱村，地處遼河與秀水河的交匯之處。在東晉時期，已為軍事重鎮。（淵四．遼史拾遺．卷十三：21；<a target=\"_blank\" href=\"http:\/\/baike.baidu.com\/view\/476446.htm\">http:\/\/baike.baidu.com\/view\/476446.htm<\/a>，2011.07.21）",
		"lang":"中文",
		"shortAuthorityID":"PL7142",
		"names":"",
		"pinyin":{
			"遼濱":"liáo bīn"
		}
	},
	{
		"authorityID":"PL000000007143",
		"name":"通定鎮",
		"dynasty":"隋",
		"long":"123.0332",
		"lat":"42.166",
		"districtHistorical":"隋_遼東郡",
		"districtModern":"中國-遼寧省-瀋陽市-新民市",
		"note":null,
		"lang":"中文",
		"shortAuthorityID":"PL7143",
		"names":"",
		"pinyin":[]
	},
	{
		"authorityID":"PL000000007144",
		"name":"遼東郡",
		"dynasty":"隋",
		"long":"123.0332",
		"lat":"42.166",
		"districtHistorical":"隋_遼東郡",
		"districtModern":"中國-遼寧省-瀋陽市-新民市",
		"note":null,
		"lang":"中文",
		"shortAuthorityID":"PL7144",
		"names":"",
		"pinyin":{
			"遼東郡":"liáo dōng jùn"
		}
	},
	{
		"authorityID":"PL000000007145",
		"name":"遼濱塔堡",
		"dynasty":"清",
		"long":"123.0676",
		"lat":"42.1367",
		"districtHistorical":"清_盛京（奉天）",
		"districtModern":"中國-遼寧省-瀋陽市-新民市",
		"note":null,
		"lang":"中文",
		"shortAuthorityID":"PL7145",
		"names":"",
		"pinyin":[]
	},
	{
		"authorityID":"PL000000007146",
		"name":"遼濱塔",
		"dynasty":"明",
		"long":"123.0613",
		"lat":"42.1367",
		"districtHistorical":"韃靼瓦剌",
		"districtModern":"中國-遼寧省-瀋陽市-新民市",
		"note":null,
		"lang":"中文",
		"shortAuthorityID":"PL7146",
		"names":"",
		"pinyin":[]
	},
	{
		"authorityID":"PL000000007147",
		"name":"十方寺堡",
		"dynasty":"明",
		"long":"123.3335",
		"lat":"42.1344",
		"districtHistorical":"明_山東",
		"districtModern":"中國-遼寧省-瀋陽市-新民市",
		"note":null,
		"lang":"中文",
		"shortAuthorityID":"PL7147",
		"names":"",
		"pinyin":[]
	},
	{
		"authorityID":"PL000000007148",
		"name":"巨流河",
		"dynasty":"明",
		"long":"122.9662",
		"lat":"42.0603",
		"districtHistorical":"韃靼瓦剌",
		"districtModern":"中國-遼寧省-瀋陽市-新民市",
		"note":null,
		"lang":"中文",
		"shortAuthorityID":"PL7148",
		"names":"",
		"pinyin":[]
	},
	{
		"authorityID":"PL000000007149",
		"name":"巨流河站",
		"dynasty":"清",
		"long":"122.9692",
		"lat":"42.0548",
		"districtHistorical":"清_盛京（奉天）",
		"districtModern":"中國-遼寧省-瀋陽市-新民市",
		"note":null,
		"lang":"中文",
		"shortAuthorityID":"PL7149",
		"names":"",
		"pinyin":[]
	},
	{
		"authorityID":"PL000000007150",
		"name":"孤家子",
		"dynasty":"清",
		"long":"123.0346",
		"lat":"42.0358",
		"districtHistorical":"清_盛京（奉天）",
		"districtModern":"中國-遼寧省-瀋陽市-新民市",
		"note":null,
		"lang":"中文",
		"shortAuthorityID":"PL7150",
		"names":"",
		"pinyin":[]
	},
	{
		"authorityID":"PL000000007151",
		"name":"新民廳",
		"dynasty":"清",
		"long":"122.8331",
		"lat":"41.9907",
		"districtHistorical":"清_盛京（奉天）",
		"districtModern":"中國-遼寧省-瀋陽市-新民市",
		"note":null,
		"lang":"中文",
		"shortAuthorityID":"PL7151",
		"names":"",
		"pinyin":{
			"新民廳":"xīn mín tīng"
		}
	},
	{
		"authorityID":"PL000000007152",
		"name":"開城",
		"dynasty":"清",
		"long":"122.888",
		"lat":"41.9743",
		"districtHistorical":"清_盛京（奉天）",
		"districtModern":"中國-遼寧省-瀋陽市-新民市",
		"note":null,
		"lang":"中文",
		"shortAuthorityID":"PL7152",
		"names":"",
		"pinyin":[]
	},
	{
		"authorityID":"PL000000007153",
		"name":"平安堡",
		"dynasty":"清",
		"long":"122.9084",
		"lat":"41.879",
		"districtHistorical":"清_盛京（奉天）",
		"districtModern":"中國-遼寧省-瀋陽市-新民市",
		"note":null,
		"lang":"中文",
		"shortAuthorityID":"PL7153",
		"names":"",
		"pinyin":[]
	},
	{
		"authorityID":"PL000000007154",
		"name":"白旗堡",
		"dynasty":"清",
		"long":"122.5997",
		"lat":"41.8753",
		"districtHistorical":"清_盛京（奉天）",
		"districtModern":"中國-遼寧省-瀋陽市-新民市",
		"note":null,
		"lang":"中文",
		"shortAuthorityID":"PL7154",
		"names":"",
		"pinyin":[]
	},
	{
		"authorityID":"PL000000007155",
		"name":"望平",
		"dynasty":"東漢",
		"long":"122.9107",
		"lat":"41.8221",
		"districtHistorical":"東漢_幽州刺史部",
		"districtModern":"中國-遼寧省-瀋陽市-新民市",
		"note":null,
		"lang":"中文",
		"shortAuthorityID":"PL7155",
		"names":"",
		"pinyin":[]
	},
	{
		"authorityID":"PL000000007156",
		"name":"望平",
		"dynasty":"西漢",
		"long":"122.9107",
		"lat":"41.8221",
		"districtHistorical":"西漢_幽州刺史部",
		"districtModern":"中國-遼寧省-瀋陽市-新民市",
		"note":null,
		"lang":"中文",
		"shortAuthorityID":"PL7156",
		"names":"",
		"pinyin":[]
	},
	{
		"authorityID":"PL000000007157",
		"name":"望平",
		"dynasty":"西晉",
		"long":"122.9058",
		"lat":"41.8191",
		"districtHistorical":"西晉_平州",
		"districtModern":"中國-遼寧省-瀋陽市-新民市",
		"note":null,
		"lang":"中文",
		"shortAuthorityID":"PL7157",
		"names":"",
		"pinyin":[]
	},
	{
		"authorityID":"PL000000007158",
		"name":"望平",
		"dynasty":"曹魏",
		"long":"122.9058",
		"lat":"41.8191",
		"districtHistorical":"三國 魏_幽州",
		"districtModern":"中國-遼寧省-瀋陽市-新民市",
		"note":null,
		"lang":"中文",
		"shortAuthorityID":"PL7158",
		"names":"",
		"pinyin":[]
	},
	{
		"authorityID":"PL000000007159",
		"name":"青泥洼",
		"dynasty":"清",
		"long":"121.6081",
		"lat":"38.9297",
		"districtHistorical":"清_盛京（奉天）",
		"districtModern":"中國-遼寧省-大連市-西崗區",
		"note":null,
		"lang":"中文",
		"shortAuthorityID":"PL7159",
		"names":"",
		"pinyin":[]
	},
	{
		"authorityID":"PL000000007160",
		"name":"青泥窪",
		"dynasty":"明",
		"long":"121.6001",
		"lat":"38.9109",
		"districtHistorical":"明_山東",
		"districtModern":"中國-遼寧省-大連市-沙河口區",
		"note":null,
		"lang":"中文",
		"shortAuthorityID":"PL7160",
		"names":"",
		"pinyin":[]
	},
	{
		"authorityID":"PL000000007161",
		"name":"木場驛",
		"dynasty":"明",
		"long":"121.4354",
		"lat":"38.9802",
		"districtHistorical":"明_山東",
		"districtModern":"中國-遼寧省-大連市-甘井子區",
		"note":null,
		"lang":"中文",
		"shortAuthorityID":"PL7161",
		"names":"",
		"pinyin":[]
	},
	{
		"authorityID":"PL000000007162",
		"name":"木場堡",
		"dynasty":"清",
		"long":"121.4425",
		"lat":"38.9826",
		"districtHistorical":"清_盛京（奉天）",
		"districtModern":"中國-遼寧省-大連市-甘井子區",
		"note":null,
		"lang":"中文",
		"shortAuthorityID":"PL7162",
		"names":"",
		"pinyin":[]
	},
	{
		"authorityID":"PL000000007163",
		"name":"哈思罕千戶所",
		"dynasty":"元",
		"long":"121.5052",
		"lat":"38.9926",
		"districtHistorical":"元_遼陽行省",
		"districtModern":"中國-遼寧省-大連市-甘井子區",
		"note":null,
		"lang":"中文",
		"shortAuthorityID":"PL7163",
		"names":"",
		"pinyin":[]
	},
	{
		"authorityID":"PL000000007164",
		"name":"海西遼東哈思罕萬戶府",
		"dynasty":"元",
		"long":"121.5052",
		"lat":"38.9926",
		"districtHistorical":"元_遼陽行省",
		"districtModern":"中國-遼寧省-大連市-甘井子區",
		"note":null,
		"lang":"中文",
		"shortAuthorityID":"PL7164",
		"names":"",
		"pinyin":[]
	},
	{
		"authorityID":"PL000000007165",
		"name":"青泥浦",
		"dynasty":"唐",
		"long":"121.5158",
		"lat":"38.8879",
		"districtHistorical":"唐_河北道",
		"districtModern":"中國-遼寧省-大連市-甘井子區",
		"note":null,
		"lang":"中文",
		"shortAuthorityID":"PL7165",
		"names":"",
		"pinyin":[]
	},
	{
		"authorityID":"PL000000007166",
		"name":"沓氏",
		"dynasty":"東漢",
		"long":"121.7098",
		"lat":"39.0233",
		"districtHistorical":"東漢_幽州刺史部",
		"districtModern":"中國-遼寧省-大連市-甘井子區",
		"note":null,
		"lang":"中文",
		"shortAuthorityID":"PL7166",
		"names":"",
		"pinyin":[]
	},
	{
		"authorityID":"PL000000007167",
		"name":"沓氏",
		"dynasty":"海南島",
		"long":"121.7098",
		"lat":"39.0233",
		"districtHistorical":"海南島",
		"districtModern":"中國-遼寧省-大連市-甘井子區",
		"note":null,
		"lang":"中文",
		"shortAuthorityID":"PL7167",
		"names":"",
		"pinyin":[]
	},
	{
		"authorityID":"PL000000007168",
		"name":"蘇州關",
		"dynasty":"遼",
		"long":"121.6502",
		"lat":"39.0311",
		"districtHistorical":"遼_東京道",
		"districtModern":"中國-遼寧省-大連市-甘井子區",
		"note":null,
		"lang":"中文",
		"shortAuthorityID":"PL7168",
		"names":"",
		"pinyin":[]
	},
	{
		"authorityID":"PL000000007169",
		"name":"南關島",
		"dynasty":"明",
		"long":"121.6643",
		"lat":"39.0408",
		"districtHistorical":"明_山東",
		"districtModern":"中國-遼寧省-大連市-甘井子區",
		"note":null,
		"lang":"中文",
		"shortAuthorityID":"PL7169",
		"names":"",
		"pinyin":[]
	},
	{
		"authorityID":"PL000000007170",
		"name":"南關嶺",
		"dynasty":"清",
		"long":"121.6845",
		"lat":"39.0489",
		"districtHistorical":"清_盛京（奉天）",
		"districtModern":"中國-遼寧省-大連市-甘井子區",
		"note":null,
		"lang":"中文",
		"shortAuthorityID":"PL7170",
		"names":"",
		"pinyin":[]
	},
	{
		"authorityID":"PL000000007171",
		"name":"東沓",
		"dynasty":"曹魏",
		"long":"121.7071",
		"lat":"39.0457",
		"districtHistorical":"三國 魏_幽州",
		"districtModern":"中國-遼寧省-大連市-甘井子區",
		"note":"",
		"lang":"中文",
		"shortAuthorityID":"PL7171",
		"names":"",
		"pinyin":[]
	},
	{
		"authorityID":"PL000000007172",
		"name":"旅順口",
		"dynasty":"清",
		"long":"121.2654",
		"lat":"38.8075",
		"districtHistorical":"清_盛京（奉天）",
		"districtModern":"中國-遼寧省-大連市-旅順口區",
		"note":null,
		"lang":"中文",
		"shortAuthorityID":"PL7172",
		"names":"",
		"pinyin":{
			"旅順口":"lǚ shùn kǒu"
		}
	},
	{
		"authorityID":"PL000000007173",
		"name":"旅順口",
		"dynasty":"元",
		"long":"121.2654",
		"lat":"38.8075",
		"districtHistorical":"元_遼陽行省",
		"districtModern":"中國-遼寧省-大連市-旅順口區",
		"note":null,
		"lang":"中文",
		"shortAuthorityID":"PL7173",
		"names":"",
		"pinyin":{
			"旅順口":"lǚ shùn kǒu"
		}
	},
	{
		"authorityID":"PL000000007174",
		"name":"金州中左所",
		"dynasty":"明",
		"long":"121.2654",
		"lat":"38.8075",
		"districtHistorical":"明_山東",
		"districtModern":"中國-遼寧省-大連市-旅順口區",
		"note":null,
		"lang":"中文",
		"shortAuthorityID":"PL7174",
		"names":"",
		"pinyin":[]
	},
	{
		"authorityID":"PL000000007175",
		"name":"沓渚",
		"dynasty":"曹魏",
		"long":"121.1771",
		"lat":"38.7251",
		"districtHistorical":"三國 魏_幽州",
		"districtModern":"中國-遼寧省-大連市-旅順口區",
		"note":null,
		"lang":"中文",
		"shortAuthorityID":"PL7175",
		"names":"",
		"pinyin":[]
	},
	{
		"authorityID":"PL000000007176",
		"name":"都里鎮",
		"dynasty":"唐",
		"long":"121.1826",
		"lat":"38.7685",
		"districtHistorical":"唐_河北道",
		"districtModern":"中國-遼寧省-大連市-旅順口區",
		"note":null,
		"lang":"中文",
		"shortAuthorityID":"PL7176",
		"names":"",
		"pinyin":[]
	},
	{
		"authorityID":"PL000000007177",
		"name":"水師營",
		"dynasty":"清",
		"long":"121.2383",
		"lat":"38.8595",
		"districtHistorical":"清_盛京（奉天）",
		"districtModern":"中國-遼寧省-大連市-旅順口區",
		"note":null,
		"lang":"中文",
		"shortAuthorityID":"PL7177",
		"names":"",
		"pinyin":[]
	},
	{
		"authorityID":"PL000000007178",
		"name":"寧海",
		"dynasty":"清",
		"long":"121.7109",
		"lat":"39.0977",
		"districtHistorical":"清_盛京（奉天）",
		"districtModern":"中國-遼寧省-大連市-金州區",
		"note":null,
		"lang":"中文",
		"shortAuthorityID":"PL7178",
		"names":"",
		"pinyin":[]
	},
	{
		"authorityID":"PL000000007179",
		"name":"金復州萬戶府",
		"dynasty":"元",
		"long":"121.7109",
		"lat":"39.0977",
		"districtHistorical":"元_遼陽行省",
		"districtModern":"中國-遼寧省-大連市-金州區",
		"note":null,
		"lang":"中文",
		"shortAuthorityID":"PL7179",
		"names":"",
		"pinyin":[]
	},
	{
		"authorityID":"PL000000007180",
		"name":"來蘇",
		"dynasty":"遼",
		"long":"121.7109",
		"lat":"39.0977",
		"districtHistorical":"遼_東京道",
		"districtModern":"中國-遼寧省-大連市-金州區",
		"note":null,
		"lang":"中文",
		"shortAuthorityID":"PL7180",
		"names":"",
		"pinyin":[]
	},
	{
		"authorityID":"PL000000007181",
		"name":"蘇州",
		"dynasty":"遼",
		"long":"121.7109",
		"lat":"39.0977",
		"districtHistorical":"遼_東京道",
		"districtModern":"中國-遼寧省-大連市-金州區",
		"note":null,
		"lang":"中文",
		"shortAuthorityID":"PL7181",
		"names":"",
		"pinyin":{
			"蘇州":"sū zhōu"
		}
	},
	{
		"authorityID":"PL000000007182",
		"name":"金州衛",
		"dynasty":"明",
		"long":"121.7109",
		"lat":"39.0977",
		"districtHistorical":"7",
		"districtModern":"中國-遼寧省-大連市-金州區",
		"note":"",
		"lang":"中文",
		"shortAuthorityID":"PL7182",
		"names":"",
		"pinyin":[]
	},
	{
		"authorityID":"PL000000007183",
		"name":"卑沙城",
		"dynasty":"唐",
		"long":"121.8167",
		"lat":"39.0727",
		"districtHistorical":"唐_河北道",
		"districtModern":"中國-遼寧省-大連市-金州區",
		"note":null,
		"lang":"中文",
		"shortAuthorityID":"PL7183",
		"names":"",
		"pinyin":[]
	},
	{
		"authorityID":"PL000000007184",
		"name":"蘇州",
		"dynasty":"五代十國",
		"long":"121.7494",
		"lat":"39.1083",
		"districtHistorical":"五代十國_遼",
		"districtModern":"中國-遼寧省-大連市-金州區",
		"note":null,
		"lang":"中文",
		"shortAuthorityID":"PL7184",
		"names":"",
		"pinyin":{
			"蘇州":"sū zhōu"
		}
	},
	{
		"authorityID":"PL000000007185",
		"name":"順化城",
		"dynasty":"遼",
		"long":"121.9378",
		"lat":"39.3212",
		"districtHistorical":"遼_東京道",
		"districtModern":"中國-遼寧省-大連市-金州區",
		"note":null,
		"lang":"中文",
		"shortAuthorityID":"PL7185",
		"names":"",
		"pinyin":[]
	},
	{
		"authorityID":"PL000000007186",
		"name":"石河驛",
		"dynasty":"明",
		"long":"121.8717",
		"lat":"39.3363",
		"districtHistorical":"明_山東",
		"districtModern":"中國-遼寧省-大連市-金州區",
		"note":null,
		"lang":"中文",
		"shortAuthorityID":"PL7186",
		"names":"",
		"pinyin":[]
	},
	{
		"authorityID":"PL000000007187",
		"name":"離海堝",
		"dynasty":"明",
		"long":"122.1386",
		"lat":"39.1528",
		"districtHistorical":"明_山東",
		"districtModern":"中國-遼寧省-大連市-金州區",
		"note":null,
		"lang":"中文",
		"shortAuthorityID":"PL7187",
		"names":"",
		"pinyin":[]
	},
	{
		"authorityID":"PL000000007188",
		"name":"望海",
		"dynasty":"清",
		"long":"122.1356",
		"lat":"39.1536",
		"districtHistorical":"清_盛京（奉天）",
		"districtModern":"中國-遼寧省-大連市-金州區",
		"note":null,
		"lang":"中文",
		"shortAuthorityID":"PL7188",
		"names":"",
		"pinyin":{
			"望海":"wàng hǎi"
		}
	},
	{
		"authorityID":"PL000000007189",
		"name":"石河堡",
		"dynasty":"清",
		"long":"121.8807",
		"lat":"39.3406",
		"districtHistorical":"清_盛京（奉天）",
		"districtModern":"中國-遼寧省-大連市-金州區",
		"note":null,
		"lang":"中文",
		"shortAuthorityID":"PL7189",
		"names":"",
		"pinyin":[]
	},
	{
		"authorityID":"PL000000007190",
		"name":"王官寨",
		"dynasty":"清",
		"long":"121.8594",
		"lat":"39.0665",
		"districtHistorical":"清_盛京（奉天）",
		"districtModern":"中國-遼寧省-大連市-金州區",
		"note":null,
		"lang":"中文",
		"shortAuthorityID":"PL7190",
		"names":"",
		"pinyin":[]
	},
	{
		"authorityID":"PL000000007191",
		"name":"卑奢城",
		"dynasty":"高麗",
		"long":"121.8124",
		"lat":"39.0783",
		"districtHistorical":"高麗",
		"districtModern":"中國-遼寧省-大連市-金州區",
		"note":null,
		"lang":"中文",
		"shortAuthorityID":"PL7191",
		"names":"",
		"pinyin":[]
	},
	{
		"authorityID":"PL000000007192",
		"name":"石人汪",
		"dynasty":"唐",
		"long":"123.0179",
		"lat":"39.5251",
		"districtHistorical":"唐_河北道",
		"districtModern":"中國-遼寧省-大連市-長海縣",
		"note":null,
		"lang":"中文",
		"shortAuthorityID":"PL7192",
		"names":"",
		"pinyin":[]
	},
	{
		"authorityID":"PL000000007193",
		"name":"李官墳",
		"dynasty":"清",
		"long":"122.0222",
		"lat":"40.0458",
		"districtHistorical":"清_盛京（奉天）",
		"districtModern":"中國-遼寧省-大連市-瓦房店市",
		"note":null,
		"lang":"中文",
		"shortAuthorityID":"PL7193",
		"names":"",
		"pinyin":[]
	},
	{
		"authorityID":"PL000000007194",
		"name":"五十寨驛",
		"dynasty":"明",
		"long":"121.9017",
		"lat":"39.9611",
		"districtHistorical":"明_山東",
		"districtModern":"中國-遼寧省-大連市-瓦房店市",
		"note":null,
		"lang":"中文",
		"shortAuthorityID":"PL7194",
		"names":"",
		"pinyin":[]
	},
	{
		"authorityID":"PL000000007195",
		"name":"新安",
		"dynasty":"遼",
		"long":"121.8885",
		"lat":"39.9302",
		"districtHistorical":"遼_東京道",
		"districtModern":"中國-遼寧省-大連市-瓦房店市",
		"note":null,
		"lang":"中文",
		"shortAuthorityID":"PL7195",
		"names":"",
		"pinyin":{
			"新安":"xīn ān"
		}
	},
	{
		"authorityID":"PL000000007196",
		"name":"寧州",
		"dynasty":"遼",
		"long":"121.8885",
		"lat":"39.9302",
		"districtHistorical":"遼_東京道",
		"districtModern":"中國-遼寧省-大連市-瓦房店市",
		"note":null,
		"lang":"中文",
		"shortAuthorityID":"PL7196",
		"names":"",
		"pinyin":[]
	},
	{
		"authorityID":"PL000000007197",
		"name":"永寧監",
		"dynasty":"清",
		"long":"121.8946",
		"lat":"39.9208",
		"districtHistorical":"清_盛京（奉天）",
		"districtModern":"中國-遼寧省-大連市-瓦房店市",
		"note":null,
		"lang":"中文",
		"shortAuthorityID":"PL7197",
		"names":"",
		"pinyin":[]
	},
	{
		"authorityID":"PL000000007198",
		"name":"永寧監城",
		"dynasty":"明",
		"long":"121.8854",
		"lat":"39.9142",
		"districtHistorical":"明_山東",
		"districtModern":"中國-遼寧省-大連市-瓦房店市",
		"note":null,
		"lang":"中文",
		"shortAuthorityID":"PL7198",
		"names":"",
		"pinyin":[]
	},
	{
		"authorityID":"PL000000007199",
		"name":"得利贏城",
		"dynasty":"元",
		"long":"122.0884",
		"lat":"39.8563",
		"districtHistorical":"元_遼陽行省",
		"districtModern":"中國-遼寧省-大連市-瓦房店市",
		"note":null,
		"lang":"中文",
		"shortAuthorityID":"PL7199",
		"names":"",
		"pinyin":[]
	},
	{
		"authorityID":"PL000000007200",
		"name":"得利贏城",
		"dynasty":"清",
		"long":"122.0675",
		"lat":"39.7764",
		"districtHistorical":"清_盛京（奉天）",
		"districtModern":"中國-遼寧省-大連市-瓦房店市",
		"note":null,
		"lang":"中文",
		"shortAuthorityID":"PL7200",
		"names":"",
		"pinyin":[]
	},
	{
		"authorityID":"PL000000007201",
		"name":"永寧",
		"dynasty":"遼",
		"long":"121.6957",
		"lat":"39.7705",
		"districtHistorical":"遼_東京道",
		"districtModern":"中國-遼寧省-大連市-瓦房店市",
		"note":null,
		"lang":"中文",
		"shortAuthorityID":"PL7201",
		"names":"",
		"pinyin":[]
	},
	{
		"authorityID":"PL000000007202",
		"name":"復州",
		"dynasty":"遼",
		"long":"121.6957",
		"lat":"39.7705",
		"districtHistorical":"遼_東京道",
		"districtModern":"中國-遼寧省-大連市-瓦房店市",
		"note":null,
		"lang":"中文",
		"shortAuthorityID":"PL7202",
		"names":"",
		"pinyin":{
			"復州":"fù zhōu"
		}
	},
	{
		"authorityID":"PL000000007203",
		"name":"得利贏城",
		"dynasty":"明",
		"long":"122.0713",
		"lat":"39.7671",
		"districtHistorical":"明_山東",
		"districtModern":"中國-遼寧省-大連市-瓦房店市",
		"note":null,
		"lang":"中文",
		"shortAuthorityID":"PL7203",
		"names":"",
		"pinyin":[]
	},
	{
		"authorityID":"PL000000007204",
		"name":"復州",
		"dynasty":"金",
		"long":"121.6931",
		"lat":"39.7516",
		"districtHistorical":"金",
		"districtModern":"中國-遼寧省-大連市-瓦房店市",
		"note":null,
		"lang":"中文",
		"shortAuthorityID":"PL7204",
		"names":"",
		"pinyin":{
			"復州":"fù zhōu"
		}
	},
	{
		"authorityID":"PL000000007205",
		"name":"復州",
		"dynasty":"元",
		"long":"121.7297",
		"lat":"39.7371",
		"districtHistorical":"元_遼陽行省",
		"districtModern":"中國-遼寧省-大連市-瓦房店市",
		"note":null,
		"lang":"中文",
		"shortAuthorityID":"PL7205",
		"names":"",
		"pinyin":{
			"復州":"fù zhōu"
		}
	},
	{
		"authorityID":"PL000000007206",
		"name":"復州",
		"dynasty":"清",
		"long":"121.7326",
		"lat":"39.7357",
		"districtHistorical":"清_盛京（奉天）",
		"districtModern":"中國-遼寧省-大連市-瓦房店市",
		"note":null,
		"lang":"中文",
		"shortAuthorityID":"PL7206",
		"names":"",
		"pinyin":{
			"復州":"fù zhōu"
		}
	},
	{
		"authorityID":"PL000000007207",
		"name":"羊官堡",
		"dynasty":"明",
		"long":"121.5739",
		"lat":"39.6916",
		"districtHistorical":"明_山東",
		"districtModern":"中國-遼寧省-大連市-瓦房店市",
		"note":null,
		"lang":"中文",
		"shortAuthorityID":"PL7207",
		"names":"",
		"pinyin":[]
	},
	{
		"authorityID":"PL000000007208",
		"name":"揚官堡",
		"dynasty":"清",
		"long":"121.5809",
		"lat":"39.6869",
		"districtHistorical":"清_盛京（奉天）",
		"districtModern":"中國-遼寧省-大連市-瓦房店市",
		"note":null,
		"lang":"中文",
		"shortAuthorityID":"PL7208",
		"names":"",
		"pinyin":[]
	},
	{
		"authorityID":"PL000000007209",
		"name":"盤谷堡",
		"dynasty":"明",
		"long":"121.8093",
		"lat":"39.6777",
		"districtHistorical":"明_山東",
		"districtModern":"中國-遼寧省-大連市-瓦房店市",
		"note":null,
		"lang":"中文",
		"shortAuthorityID":"PL7209",
		"names":"",
		"pinyin":[]
	},
	{
		"authorityID":"PL000000007210",
		"name":"北豐",
		"dynasty":"西晉",
		"long":"122.0029",
		"lat":"39.6247",
		"districtHistorical":"西晉_平州",
		"districtModern":"中國-遼寧省-大連市-瓦房店市",
		"note":null,
		"lang":"中文",
		"shortAuthorityID":"PL7210",
		"names":"",
		"pinyin":[]
	},
	{
		"authorityID":"PL000000007211",
		"name":"北豐",
		"dynasty":"曹魏",
		"long":"122.0029",
		"lat":"39.6247",
		"districtHistorical":"三國 魏_幽州",
		"districtModern":"中國-遼寧省-大連市-瓦房店市",
		"note":null,
		"lang":"中文",
		"shortAuthorityID":"PL7211",
		"names":"",
		"pinyin":[]
	},
	{
		"authorityID":"PL000000007212",
		"name":"北信口",
		"dynasty":"明",
		"long":"121.5988",
		"lat":"39.6126",
		"districtHistorical":"明_山東",
		"districtModern":"中國-遼寧省-大連市-瓦房店市",
		"note":null,
		"lang":"中文",
		"shortAuthorityID":"PL7212",
		"names":"",
		"pinyin":[]
	},
	{
		"authorityID":"PL000000007213",
		"name":"麻河鋪",
		"dynasty":"清",
		"long":"121.8142",
		"lat":"39.5808",
		"districtHistorical":"清_盛京（奉天）",
		"districtModern":"中國-遼寧省-大連市-瓦房店市",
		"note":null,
		"lang":"中文",
		"shortAuthorityID":"PL7213",
		"names":"",
		"pinyin":[]
	},
	{
		"authorityID":"PL000000007214",
		"name":"欒古堡",
		"dynasty":"清",
		"long":"121.8855",
		"lat":"39.5101",
		"districtHistorical":"清_盛京（奉天）",
		"districtModern":"中國-遼寧省-大連市-瓦房店市",
		"note":null,
		"lang":"中文",
		"shortAuthorityID":"PL7214",
		"names":"",
		"pinyin":[]
	},
	{
		"authorityID":"PL000000007215",
		"name":"欒古關",
		"dynasty":"明",
		"long":"121.8758",
		"lat":"39.5044",
		"districtHistorical":"明_山東",
		"districtModern":"中國-遼寧省-大連市-瓦房店市",
		"note":null,
		"lang":"中文",
		"shortAuthorityID":"PL7215",
		"names":"",
		"pinyin":[]
	},
	{
		"authorityID":"PL000000007216",
		"name":"南信口",
		"dynasty":"明",
		"long":"121.4831",
		"lat":"39.4941",
		"districtHistorical":"明_山東",
		"districtModern":"中國-遼寧省-大連市-瓦房店市",
		"note":null,
		"lang":"中文",
		"shortAuthorityID":"PL7216",
		"names":"",
		"pinyin":[]
	},
	{
		"authorityID":"PL000000007217",
		"name":"復州衛",
		"dynasty":"明",
		"long":"121.7297",
		"lat":"39.7371",
		"districtHistorical":"明_山東",
		"districtModern":"中國-遼寧省-大連市-瓦房店市",
		"note":null,
		"lang":"中文",
		"shortAuthorityID":"PL7217",
		"names":"",
		"pinyin":{
			"復州衛":"fù zhōu wèi"
		}
	},
	{
		"authorityID":"PL000000007218",
		"name":"德勝",
		"dynasty":"遼",
		"long":"121.911",
		"lat":"39.4945",
		"districtHistorical":"遼_東京道",
		"districtModern":"中國-遼寧省-大連市-瓦房店市",
		"note":null,
		"lang":"中文",
		"shortAuthorityID":"PL7218",
		"names":"",
		"pinyin":{
			"德勝":"dé shèng"
		}
	},
	{
		"authorityID":"PL000000007219",
		"name":"積利州",
		"dynasty":"唐",
		"long":"122.0467",
		"lat":"39.8184",
		"districtHistorical":"唐_河北道",
		"districtModern":"中國-遼寧省-大連市-瓦房店市",
		"note":null,
		"lang":"中文",
		"shortAuthorityID":"PL7219",
		"names":"",
		"pinyin":{
			"積利州":"jī lì zhōu"
		}
	},
	{
		"authorityID":"PL000000007220",
		"name":"歸服堡",
		"dynasty":"明",
		"long":"122.4772",
		"lat":"39.4805",
		"districtHistorical":"明_山東",
		"districtModern":"中國-遼寧省-大連市-普蘭店市",
		"note":null,
		"lang":"中文",
		"shortAuthorityID":"PL7220",
		"names":"",
		"pinyin":[]
	},
	{
		"authorityID":"PL000000007221",
		"name":"紅嘴堡",
		"dynasty":"明",
		"long":"122.2955",
		"lat":"39.4231",
		"districtHistorical":"明_山東",
		"districtModern":"中國-遼寧省-大連市-普蘭店市",
		"note":null,
		"lang":"中文",
		"shortAuthorityID":"PL7221",
		"names":"",
		"pinyin":[]
	},
	{
		"authorityID":"PL000000007222",
		"name":"貔子窩",
		"dynasty":"清",
		"long":"122.3621",
		"lat":"39.3965",
		"districtHistorical":"清_盛京（奉天）",
		"districtModern":"中國-遼寧省-大連市-普蘭店市",
		"note":null,
		"lang":"中文",
		"shortAuthorityID":"PL7222",
		"names":"",
		"pinyin":[]
	},
	{
		"authorityID":"PL000000007223",
		"name":"長店鋪",
		"dynasty":"清",
		"long":"121.92",
		"lat":"39.3727",
		"districtHistorical":"清_盛京（奉天）",
		"districtModern":"中國-遼寧省-大連市-普蘭店市",
		"note":null,
		"lang":"中文",
		"shortAuthorityID":"PL7223",
		"names":"",
		"pinyin":[]
	},
	{
		"authorityID":"PL000000007224",
		"name":"平南",
		"dynasty":"遼",
		"long":"122.526",
		"lat":"39.5478",
		"districtHistorical":"遼_東京道",
		"districtModern":"中國-遼寧省-大連市-普蘭店市",
		"note":null,
		"lang":"中文",
		"shortAuthorityID":"PL7224",
		"names":"",
		"pinyin":[]
	},
	{
		"authorityID":"PL000000007225",
		"name":"鎮海府",
		"dynasty":"遼",
		"long":"122.4096",
		"lat":"39.7235",
		"districtHistorical":"遼_東京道",
		"districtModern":"中國-遼寧省-大連市-普蘭店市",
		"note":null,
		"lang":"中文",
		"shortAuthorityID":"PL7225",
		"names":"",
		"pinyin":[]
	},
	{
		"authorityID":"PL000000007226",
		"name":"石城",
		"dynasty":"唐",
		"long":"122.6847",
		"lat":"39.8357",
		"districtHistorical":"唐_河北道",
		"districtModern":"中國-遼寧省-大連市-莊河市",
		"note":null,
		"lang":"中文",
		"shortAuthorityID":"PL7226",
		"names":"",
		"pinyin":[]
	},
	{
		"authorityID":"PL000000007227",
		"name":"青堆子",
		"dynasty":"清",
		"long":"123.2866",
		"lat":"39.8196",
		"districtHistorical":"清_盛京（奉天）",
		"districtModern":"中國-遼寧省-大連市-莊河市",
		"note":null,
		"lang":"中文",
		"shortAuthorityID":"PL7227",
		"names":"",
		"pinyin":[]
	},
	{
		"authorityID":"PL000000007228",
		"name":"大莊河",
		"dynasty":"清",
		"long":"122.989",
		"lat":"39.6961",
		"districtHistorical":"清_盛京（奉天）",
		"districtModern":"中國-遼寧省-大連市-莊河市",
		"note":null,
		"lang":"中文",
		"shortAuthorityID":"PL7228",
		"names":"",
		"pinyin":[]
	},
	{
		"authorityID":"PL000000007229",
		"name":"黃骨島堡",
		"dynasty":"明",
		"long":"123.1443",
		"lat":"39.6828",
		"districtHistorical":"明_山東",
		"districtModern":"中國-遼寧省-大連市-莊河市",
		"note":null,
		"lang":"中文",
		"shortAuthorityID":"PL7229",
		"names":"",
		"pinyin":[]
	},
	{
		"authorityID":"PL000000007230",
		"name":"黃骨島堡",
		"dynasty":"清",
		"long":"123.1566",
		"lat":"39.6803",
		"districtHistorical":"清_盛京（奉天）",
		"districtModern":"中國-遼寧省-大連市-莊河市",
		"note":null,
		"lang":"中文",
		"shortAuthorityID":"PL7230",
		"names":"",
		"pinyin":[]
	},
	{
		"authorityID":"PL000000007231",
		"name":"蕭家島關",
		"dynasty":"明",
		"long":"122.6705",
		"lat":"39.5742",
		"districtHistorical":"明_山東",
		"districtModern":"中國-遼寧省-大連市-莊河市",
		"note":null,
		"lang":"中文",
		"shortAuthorityID":"PL7231",
		"names":"",
		"pinyin":[]
	},
	{
		"authorityID":"PL000000007232",
		"name":"會農",
		"dynasty":"遼",
		"long":"123.0771",
		"lat":"39.8874",
		"districtHistorical":"遼_東京道",
		"districtModern":"中國-遼寧省-大連市-莊河市",
		"note":null,
		"lang":"中文",
		"shortAuthorityID":"PL7232",
		"names":"",
		"pinyin":[]
	},
	{
		"authorityID":"PL000000007233",
		"name":"沙河堡",
		"dynasty":"清",
		"long":"123.0499",
		"lat":"41.178",
		"districtHistorical":"清_盛京（奉天）",
		"districtModern":"中國-遼寧省-鞍山市-立山區",
		"note":null,
		"lang":"中文",
		"shortAuthorityID":"PL7233",
		"names":"",
		"pinyin":[]
	},
	{
		"authorityID":"PL000000007234",
		"name":"千山",
		"dynasty":null,
		"long":"123.112288",
		"lat":"41.020551",
		"districtHistorical":null,
		"districtModern":"中國-遼寧省-鞍山市-千山區",
		"note":"有祖越、龍泉、香嚴、中會、大安五寺。（明清序：231；<a target=\"_blank\" href=\"http:\/\/baike.baidu.com\/view\/399360.htm\">http:\/\/baike.baidu.com\/view\/399360.htm<\/a>、<a target=\"_blank\" href=\"http:\/\/zh.wikipedia.org\/w\/index.php?title=%E5%8D%83%E5%B1%B1&variant=zh-tw\">http:\/\/zh.wikipedia.org\/w\/index.php?title=%E5%8D%83%E5%B1%B1&variant=zh-tw<\/a>，2009.07.16）",
		"lang":"中文",
		"shortAuthorityID":"PL7234",
		"names":"[中文] 積翠山,千頂山,千華山,千朵蓮花山",
		"pinyin":{
			"千山":"qiān shān",
			"積翠山":"jī cuì shān",
			"千頂山":"qiān dǐng shān"
		}
	},
	{
		"authorityID":"PL000000007235",
		"name":"龍泉寺",
		"dynasty":"唐",
		"long":"123.113627",
		"lat":"41.024287",
		"districtHistorical":null,
		"districtModern":"中國-遼寧省-鞍山市-千山區",
		"note":"在遼陽州南六十五里千山上。山巔有泉，多奇秀可觀。方丈前有大石如屏，松迸生石罅中，偃覆其上，名松石屏。崇德五年，令僧人住持，給衣糧。（明清序：206；<a target=\"_blank\" href=\"http:\/\/baike.baidu.com\/view\/495454.htm\">http:\/\/baike.baidu.com\/view\/495454.htm<\/a>，2009.06.08；<a target=\"_blank\" href=\" http:\/\/chgis.hmdc.harvard.edu\/search_details_1.php?ptid=relig_1211\"> http:\/\/chgis.hmdc.harvard.edu\/search_details_1.php?ptid=relig_1211<\/a>，2009.06.19；淵四．大清一統志．卷三十九：31；四部續．嘉慶一統志．奉天府二：26）",
		"lang":"中文",
		"shortAuthorityID":"PL7235",
		"names":"",
		"pinyin":{
			"龍泉寺":"lóng quán sì"
		}
	},
	{
		"authorityID":"PL000000007236",
		"name":"鞍山驛",
		"dynasty":"明",
		"long":"122.9388",
		"lat":"41.0773",
		"districtHistorical":"明_山東",
		"districtModern":"中國-遼寧省-鞍山市-千山區",
		"note":null,
		"lang":"中文",
		"shortAuthorityID":"PL7236",
		"names":"",
		"pinyin":{
			"鞍山驛":"ān shān yì"
		}
	},
	{
		"authorityID":"PL000000007237",
		"name":"鞍山驛",
		"dynasty":"清",
		"long":"122.9475",
		"lat":"41.0779",
		"districtHistorical":"清_盛京（奉天）",
		"districtModern":"中國-遼寧省-鞍山市-千山區",
		"note":null,
		"lang":"中文",
		"shortAuthorityID":"PL7237",
		"names":"",
		"pinyin":{
			"鞍山驛":"ān shān yì"
		}
	},
	{
		"authorityID":"PL000000007238",
		"name":"西興堡",
		"dynasty":"明",
		"long":"122.2882",
		"lat":"41.3945",
		"districtHistorical":"明_山東",
		"districtModern":"中國-遼寧省-鞍山市-台安縣",
		"note":null,
		"lang":"中文",
		"shortAuthorityID":"PL7238",
		"names":"",
		"pinyin":[]
	},
	{
		"authorityID":"PL000000007239",
		"name":"鎮武堡",
		"dynasty":"明",
		"long":"122.2571",
		"lat":"41.3851",
		"districtHistorical":"明_山東",
		"districtModern":"中國-遼寧省-鞍山市-台安縣",
		"note":null,
		"lang":"中文",
		"shortAuthorityID":"PL7239",
		"names":"",
		"pinyin":[]
	},
	{
		"authorityID":"PL000000007240",
		"name":"險瀆",
		"dynasty":"西晉",
		"long":"122.5237",
		"lat":"41.3518",
		"districtHistorical":"西晉_平州",
		"districtModern":"中國-遼寧省-鞍山市-台安縣",
		"note":null,
		"lang":"中文",
		"shortAuthorityID":"PL7240",
		"names":"",
		"pinyin":[]
	},
	{
		"authorityID":"PL000000007241",
		"name":"險瀆",
		"dynasty":"東漢",
		"long":"122.5378",
		"lat":"41.3482",
		"districtHistorical":"東漢_幽州刺史部",
		"districtModern":"中國-遼寧省-鞍山市-台安縣",
		"note":null,
		"lang":"中文",
		"shortAuthorityID":"PL7241",
		"names":"",
		"pinyin":[]
	},
	{
		"authorityID":"PL000000007242",
		"name":"險瀆",
		"dynasty":"西漢",
		"long":"122.5378",
		"lat":"41.3482",
		"districtHistorical":"西漢_幽州刺史部",
		"districtModern":"中國-遼寧省-鞍山市-台安縣",
		"note":null,
		"lang":"中文",
		"shortAuthorityID":"PL7242",
		"names":"",
		"pinyin":[]
	},
	{
		"authorityID":"PL000000007243",
		"name":"平洋橋堡",
		"dynasty":"明",
		"long":"122.2859",
		"lat":"41.2859",
		"districtHistorical":"明_山東",
		"districtModern":"中國-遼寧省-鞍山市-台安縣",
		"note":null,
		"lang":"中文",
		"shortAuthorityID":"PL7243",
		"names":"",
		"pinyin":[]
	},
	{
		"authorityID":"PL000000007244",
		"name":"傅家莊堡",
		"dynasty":"清",
		"long":"122.3517",
		"lat":"41.2787",
		"districtHistorical":"清_盛京（奉天）",
		"districtModern":"中國-遼寧省-鞍山市-台安縣",
		"note":null,
		"lang":"中文",
		"shortAuthorityID":"PL7244",
		"names":"",
		"pinyin":[]
	},
	{
		"authorityID":"PL000000007245",
		"name":"付家莊",
		"dynasty":"明",
		"long":"122.3582",
		"lat":"41.2708",
		"districtHistorical":"明_山東",
		"districtModern":"中國-遼寧省-鞍山市-台安縣",
		"note":null,
		"lang":"中文",
		"shortAuthorityID":"PL7245",
		"names":"",
		"pinyin":[]
	},
	{
		"authorityID":"PL000000007246",
		"name":"沙嶺堡",
		"dynasty":"清",
		"long":"122.3832",
		"lat":"41.1605",
		"districtHistorical":"清_盛京（奉天）",
		"districtModern":"中國-遼寧省-鞍山市-台安縣",
		"note":null,
		"lang":"中文",
		"shortAuthorityID":"PL7246",
		"names":"",
		"pinyin":[]
	},
	{
		"authorityID":"PL000000007247",
		"name":"平山臺",
		"dynasty":"明",
		"long":"122.4342",
		"lat":"41.1007",
		"districtHistorical":"明_山東",
		"districtModern":"中國-遼寧省-鞍山市-台安縣",
		"note":null,
		"lang":"中文",
		"shortAuthorityID":"PL7247",
		"names":"",
		"pinyin":[]
	},
	{
		"authorityID":"PL000000007248",
		"name":"藥山",
		"dynasty":"慣用名",
		"long":"123.405948",
		"lat":"40.645425",
		"districtHistorical":null,
		"districtModern":"中國-遼寧省-鞍山市-岫岩滿族自治縣",
		"note":"位於遼東半島腹地北部，屬於東北長白山系，以盛產野生中草藥著稱。且集佛、道兩教於一體，是遼東地區早期的宗教聖地。（<a target=\"_blank\" href=\"http:\/\/www.hudong.com\/wiki\/藥山\">http:\/\/www.hudong.com\/wiki\/藥山<\/a>、<a target=\"_blank\" href=\"http:\/\/baike.baidu.com\/view\/399361.html\">http:\/\/baike.baidu.com\/岫岩滿族自治縣<\/a>，2009.05.25）",
		"lang":"中文",
		"shortAuthorityID":"PL7248",
		"names":"",
		"pinyin":[]
	},
	{
		"authorityID":"PL000000007249",
		"name":"大片嶺墩",
		"dynasty":"明",
		"long":"123.0734",
		"lat":"40.4993",
		"districtHistorical":"明_山東",
		"districtModern":"中國-遼寧省-鞍山市-岫岩滿族自治縣",
		"note":null,
		"lang":"中文",
		"shortAuthorityID":"PL7249",
		"names":"",
		"pinyin":[]
	},
	{
		"authorityID":"PL000000007250",
		"name":"繡岩城",
		"dynasty":"明",
		"long":"123.3247",
		"lat":"40.2788",
		"districtHistorical":"明_山東",
		"districtModern":"中國-遼寧省-鞍山市-岫岩滿族自治縣",
		"note":null,
		"lang":"中文",
		"shortAuthorityID":"PL7250",
		"names":"",
		"pinyin":{
			"繡岩城":"xiù yán chéng"
		}
	},
	{
		"authorityID":"PL000000007251",
		"name":"岫岩廳",
		"dynasty":"清",
		"long":"123.2788",
		"lat":"40.2771",
		"districtHistorical":"清_盛京（奉天）",
		"districtModern":"中國-遼寧省-鞍山市-岫岩滿族自治縣",
		"note":null,
		"lang":"中文",
		"shortAuthorityID":"PL7251",
		"names":"",
		"pinyin":{
			"岫岩廳":"xiù yán tīng"
		}
	},
	{
		"authorityID":"PL000000007252",
		"name":"穆州",
		"dynasty":"遼",
		"long":"123.036",
		"lat":"40.0657",
		"districtHistorical":"遼_東京道",
		"districtModern":"中國-遼寧省-鞍山市-岫岩滿族自治縣",
		"note":null,
		"lang":"中文",
		"shortAuthorityID":"PL7252",
		"names":"",
		"pinyin":{
			"穆州":"mù zhōu"
		}
	},
	{
		"authorityID":"PL000000007253",
		"name":"遼隊",
		"dynasty":"東漢",
		"long":"122.6432",
		"lat":"41.1425",
		"districtHistorical":"東漢_幽州刺史部",
		"districtModern":"中國-遼寧省-鞍山市-海城市",
		"note":null,
		"lang":"中文",
		"shortAuthorityID":"PL7253",
		"names":"",
		"pinyin":[]
	},
	{
		"authorityID":"PL000000007254",
		"name":"遼隊",
		"dynasty":"西漢",
		"long":"122.6432",
		"lat":"41.1425",
		"districtHistorical":"西漢_幽州刺史部",
		"districtModern":"中國-遼寧省-鞍山市-海城市",
		"note":null,
		"lang":"中文",
		"shortAuthorityID":"PL7254",
		"names":"",
		"pinyin":[]
	},
	{
		"authorityID":"PL000000007255",
		"name":"遼隧",
		"dynasty":"曹魏",
		"long":"122.6466",
		"lat":"41.1305",
		"districtHistorical":"三國 魏_幽州",
		"districtModern":"中國-遼寧省-鞍山市-海城市",
		"note":null,
		"lang":"中文",
		"shortAuthorityID":"PL7255",
		"names":"",
		"pinyin":[]
	},
	{
		"authorityID":"PL000000007256",
		"name":"東勝堡",
		"dynasty":"明",
		"long":"122.6517",
		"lat":"41.0465",
		"districtHistorical":"韃靼瓦剌",
		"districtModern":"中國-遼寧省-鞍山市-海城市",
		"note":null,
		"lang":"中文",
		"shortAuthorityID":"PL7256",
		"names":"",
		"pinyin":[]
	},
	{
		"authorityID":"PL000000007257",
		"name":"東昌堡",
		"dynasty":"明",
		"long":"122.5326",
		"lat":"40.97",
		"districtHistorical":"明_山東",
		"districtModern":"中國-遼寧省-鞍山市-海城市",
		"note":null,
		"lang":"中文",
		"shortAuthorityID":"PL7257",
		"names":"",
		"pinyin":[]
	},
	{
		"authorityID":"PL000000007258",
		"name":"甘泉堡",
		"dynasty":"清",
		"long":"122.8698",
		"lat":"40.9642",
		"districtHistorical":"清_盛京（奉天）",
		"districtModern":"中國-遼寧省-鞍山市-海城市",
		"note":null,
		"lang":"中文",
		"shortAuthorityID":"PL7258",
		"names":"",
		"pinyin":[]
	},
	{
		"authorityID":"PL000000007259",
		"name":"古城屯",
		"dynasty":"明",
		"long":"122.6712",
		"lat":"40.9603",
		"districtHistorical":"明_山東",
		"districtModern":"中國-遼寧省-鞍山市-海城市",
		"note":null,
		"lang":"中文",
		"shortAuthorityID":"PL7259",
		"names":"",
		"pinyin":[]
	},
	{
		"authorityID":"PL000000007260",
		"name":"新昌",
		"dynasty":"西晉",
		"long":"122.8885",
		"lat":"40.9507",
		"districtHistorical":"西晉_平州",
		"districtModern":"中國-遼寧省-鞍山市-海城市",
		"note":null,
		"lang":"中文",
		"shortAuthorityID":"PL7260",
		"names":"",
		"pinyin":[]
	},
	{
		"authorityID":"PL000000007261",
		"name":"新昌",
		"dynasty":"曹魏",
		"long":"122.8885",
		"lat":"40.9507",
		"districtHistorical":"三國 魏_幽州",
		"districtModern":"中國-遼寧省-鞍山市-海城市",
		"note":null,
		"lang":"中文",
		"shortAuthorityID":"PL7261",
		"names":"",
		"pinyin":[]
	},
	{
		"authorityID":"PL000000007262",
		"name":"牛莊驛",
		"dynasty":"明",
		"long":"122.5266",
		"lat":"40.945",
		"districtHistorical":"明_山東",
		"districtModern":"中國-遼寧省-鞍山市-海城市",
		"note":null,
		"lang":"中文",
		"shortAuthorityID":"PL7262",
		"names":"",
		"pinyin":{
			"牛莊驛":"niú zhuāng yì"
		}
	},
	{
		"authorityID":"PL000000007263",
		"name":"牛庄城",
		"dynasty":"清",
		"long":"122.5246",
		"lat":"40.943",
		"districtHistorical":"清_盛京（奉天）",
		"districtModern":"中國-遼寧省-鞍山市-海城市",
		"note":null,
		"lang":"中文",
		"shortAuthorityID":"PL7263",
		"names":"",
		"pinyin":[]
	},
	{
		"authorityID":"PL000000007264",
		"name":"新昌",
		"dynasty":"東漢",
		"long":"122.8773",
		"lat":"40.94",
		"districtHistorical":"東漢_幽州刺史部",
		"districtModern":"中國-遼寧省-鞍山市-海城市",
		"note":null,
		"lang":"中文",
		"shortAuthorityID":"PL7264",
		"names":"",
		"pinyin":[]
	},
	{
		"authorityID":"PL000000007265",
		"name":"新昌",
		"dynasty":"西漢",
		"long":"122.8773",
		"lat":"40.94",
		"districtHistorical":"西漢_幽州刺史部",
		"districtModern":"中國-遼寧省-鞍山市-海城市",
		"note":null,
		"lang":"中文",
		"shortAuthorityID":"PL7265",
		"names":"",
		"pinyin":[]
	},
	{
		"authorityID":"PL000000007266",
		"name":"海城",
		"dynasty":"清",
		"long":"122.7604",
		"lat":"40.8483",
		"districtHistorical":"清_盛京（奉天）",
		"districtModern":"中國-遼寧省-鞍山市-海城市",
		"note":null,
		"lang":"中文",
		"shortAuthorityID":"PL7266",
		"names":"",
		"pinyin":{
			"海城":"hǎi chéng"
		}
	},
	{
		"authorityID":"PL000000007267",
		"name":"海州巡檢司",
		"dynasty":"元",
		"long":"122.7604",
		"lat":"40.8483",
		"districtHistorical":"元_遼陽行省",
		"districtModern":"中國-遼寧省-鞍山市-海城市",
		"note":null,
		"lang":"中文",
		"shortAuthorityID":"PL7267",
		"names":"",
		"pinyin":[]
	},
	{
		"authorityID":"PL000000007268",
		"name":"安市",
		"dynasty":"西晉",
		"long":"122.7923",
		"lat":"40.7903",
		"districtHistorical":"西晉_平州",
		"districtModern":"中國-遼寧省-鞍山市-海城市",
		"note":null,
		"lang":"中文",
		"shortAuthorityID":"PL7268",
		"names":"",
		"pinyin":{
			"安市":"ān shì"
		}
	},
	{
		"authorityID":"PL000000007269",
		"name":"安市",
		"dynasty":"曹魏",
		"long":"122.7923",
		"lat":"40.7903",
		"districtHistorical":"三國 魏_幽州",
		"districtModern":"中國-遼寧省-鞍山市-海城市",
		"note":null,
		"lang":"中文",
		"shortAuthorityID":"PL7269",
		"names":"",
		"pinyin":{
			"安市":"ān shì"
		}
	},
	{
		"authorityID":"PL000000007270",
		"name":"安市",
		"dynasty":"東漢",
		"long":"122.7905",
		"lat":"40.7783",
		"districtHistorical":"東漢_幽州刺史部",
		"districtModern":"中國-遼寧省-鞍山市-海城市",
		"note":null,
		"lang":"中文",
		"shortAuthorityID":"PL7270",
		"names":"",
		"pinyin":{
			"安市":"ān shì"
		}
	},
	{
		"authorityID":"PL000000007271",
		"name":"安市",
		"dynasty":"西漢",
		"long":"122.7905",
		"lat":"40.7783",
		"districtHistorical":"西漢_幽州刺史部",
		"districtModern":"中國-遼寧省-鞍山市-海城市",
		"note":null,
		"lang":"中文",
		"shortAuthorityID":"PL7271",
		"names":"",
		"pinyin":{
			"安市":"ān shì"
		}
	},
	{
		"authorityID":"PL000000007272",
		"name":"塔山鋪",
		"dynasty":"明",
		"long":"122.6173",
		"lat":"40.7718",
		"districtHistorical":"明_山東",
		"districtModern":"中國-遼寧省-鞍山市-海城市",
		"note":null,
		"lang":"中文",
		"shortAuthorityID":"PL7272",
		"names":"",
		"pinyin":[]
	},
	{
		"authorityID":"PL000000007273",
		"name":"塔山鋪",
		"dynasty":"清",
		"long":"122.6097",
		"lat":"40.7675",
		"districtHistorical":"清_盛京（奉天）",
		"districtModern":"中國-遼寧省-鞍山市-海城市",
		"note":null,
		"lang":"中文",
		"shortAuthorityID":"PL7273",
		"names":"",
		"pinyin":[]
	},
	{
		"authorityID":"PL000000007274",
		"name":"析木城",
		"dynasty":"明",
		"long":"122.9196",
		"lat":"40.6983",
		"districtHistorical":"明_山東",
		"districtModern":"中國-遼寧省-鞍山市-海城市",
		"note":null,
		"lang":"中文",
		"shortAuthorityID":"PL7274",
		"names":"",
		"pinyin":[]
	},
	{
		"authorityID":"PL000000007275",
		"name":"析木城",
		"dynasty":"清",
		"long":"122.914",
		"lat":"40.6917",
		"districtHistorical":"清_盛京（奉天）",
		"districtModern":"中國-遼寧省-鞍山市-海城市",
		"note":null,
		"lang":"中文",
		"shortAuthorityID":"PL7275",
		"names":"",
		"pinyin":[]
	},
	{
		"authorityID":"PL000000007276",
		"name":"海州衛",
		"dynasty":"明",
		"long":"122.7604",
		"lat":"40.8483",
		"districtHistorical":"明_山東",
		"districtModern":"中國-遼寧省-鞍山市-海城市",
		"note":null,
		"lang":"中文",
		"shortAuthorityID":"PL7276",
		"names":"",
		"pinyin":{
			"海州衛":"hǎi zhōu wèi"
		}
	},
	{
		"authorityID":"PL000000007277",
		"name":"曷蘇館部",
		"dynasty":"遼",
		"long":"122.979",
		"lat":"40.5113",
		"districtHistorical":"遼_東京道",
		"districtModern":"中國-遼寧省-鞍山市-海城市",
		"note":null,
		"lang":"中文",
		"shortAuthorityID":"PL7277",
		"names":"",
		"pinyin":[]
	},
	{
		"authorityID":"PL000000007278",
		"name":"安市州",
		"dynasty":"唐",
		"long":"122.7658",
		"lat":"40.8225",
		"districtHistorical":"唐_河北道",
		"districtModern":"中國-遼寧省-鞍山市-海城市",
		"note":null,
		"lang":"中文",
		"shortAuthorityID":"PL7278",
		"names":"",
		"pinyin":{
			"安市州":"ān shì zhōu"
		}
	},
	{
		"authorityID":"PL000000007279",
		"name":"蓋牟州",
		"dynasty":"唐",
		"long":"123.8961",
		"lat":"41.792",
		"districtHistorical":"唐_河北道",
		"districtModern":"中國-遼寧省-撫順市-東洲區",
		"note":"",
		"lang":"中文",
		"shortAuthorityID":"PL7279",
		"names":"",
		"pinyin":[]
	},
	{
		"authorityID":"PL000000007280",
		"name":"西蓋馬",
		"dynasty":"沒有給定朝代",
		"long":"123.7991",
		"lat":"41.8446",
		"districtHistorical":"",
		"districtModern":"中國-遼寧省-撫順市-望花區",
		"note":"",
		"lang":"中文",
		"shortAuthorityID":"PL7280",
		"names":"",
		"pinyin":[]
	},
	{
		"authorityID":"PL000000007281",
		"name":"撫順所",
		"dynasty":"明",
		"long":"123.9101",
		"lat":"41.8828",
		"districtHistorical":"明_山東",
		"districtModern":"中國-遼寧省-撫順市-順城區",
		"note":"漢代設玄菟郡，治所即在撫順。初唐時期曾為安東都護府下轄的都督府治所在地。公元1384年（明洪武十七年）修築撫順城。清光緒三十三年以興仁縣改名。（歷地魏：521；<a target=\"_blank\" href=\"http:\/\/baike.baidu.com\/view\/2779.htm\">http:\/\/baike.baidu.com\/view\/2779.htm<\/a>，2011.08.10）",
		"lang":"中文",
		"shortAuthorityID":"PL7281",
		"names":"",
		"pinyin":[]
	},
	{
		"authorityID":"PL000000007282",
		"name":"貴德",
		"dynasty":"遼",
		"long":"123.8859",
		"lat":"41.9218",
		"districtHistorical":"遼_東京道",
		"districtModern":"中國-遼寧省-撫順市-順城區",
		"note":null,
		"lang":"中文",
		"shortAuthorityID":"PL7282",
		"names":"",
		"pinyin":{
			"貴德":"guì dé"
		}
	},
	{
		"authorityID":"PL000000007283",
		"name":"貴德州",
		"dynasty":"遼",
		"long":"123.8859",
		"lat":"41.9218",
		"districtHistorical":"遼_東京道",
		"districtModern":"中國-遼寧省-撫順市-順城區",
		"note":null,
		"lang":"中文",
		"shortAuthorityID":"PL7283",
		"names":"",
		"pinyin":{
			"貴德州":"guì dé zhōu"
		}
	},
	{
		"authorityID":"PL000000007284",
		"name":"新城州都督府",
		"dynasty":"唐",
		"long":"123.885",
		"lat":"41.9032",
		"districtHistorical":"唐_河北道",
		"districtModern":"中國-遼寧省-撫順市-順城區",
		"note":null,
		"lang":"中文",
		"shortAuthorityID":"PL7284",
		"names":"",
		"pinyin":[]
	},
	{
		"authorityID":"PL000000007285",
		"name":"新城",
		"dynasty":"高麗",
		"long":"123.8661",
		"lat":"41.9288",
		"districtHistorical":"高麗",
		"districtModern":"中國-遼寧省-撫順市-順城區",
		"note":null,
		"lang":"中文",
		"shortAuthorityID":"PL7285",
		"names":"",
		"pinyin":{
			"新城":"xīn chéng"
		}
	},
	{
		"authorityID":"PL000000007286",
		"name":"會安堡",
		"dynasty":"明",
		"long":"123.8919",
		"lat":"41.9774",
		"districtHistorical":"明_山東",
		"districtModern":"中國-遼寧省-撫順市-順城區",
		"note":null,
		"lang":"中文",
		"shortAuthorityID":"PL7286",
		"names":"",
		"pinyin":[]
	},
	{
		"authorityID":"PL000000007287",
		"name":"惠遠堡",
		"dynasty":"清",
		"long":"123.8991",
		"lat":"41.972",
		"districtHistorical":"清_盛京（奉天）",
		"districtModern":"中國-遼寧省-撫順市-順城區",
		"note":null,
		"lang":"中文",
		"shortAuthorityID":"PL7287",
		"names":"",
		"pinyin":[]
	},
	{
		"authorityID":"PL000000007288",
		"name":"撫西城",
		"dynasty":"清",
		"long":"123.9147",
		"lat":"41.88",
		"districtHistorical":"清_盛京（奉天）",
		"districtModern":"中國-遼寧省-撫順市-順城區",
		"note":null,
		"lang":"中文",
		"shortAuthorityID":"PL7288",
		"names":"",
		"pinyin":[]
	},
	{
		"authorityID":"PL000000007289",
		"name":"噶布拉村",
		"dynasty":"清",
		"long":"123.8549",
		"lat":"41.8724",
		"districtHistorical":"清_盛京（奉天）",
		"districtModern":"中國-遼寧省-撫順市-順城區",
		"note":null,
		"lang":"中文",
		"shortAuthorityID":"PL7289",
		"names":"",
		"pinyin":[]
	},
	{
		"authorityID":"PL000000007290",
		"name":"界凡寨",
		"dynasty":"明",
		"long":"124.3408",
		"lat":"41.9309",
		"districtHistorical":"明_建州",
		"districtModern":"中國-遼寧省-撫順市-撫順縣",
		"note":null,
		"lang":"中文",
		"shortAuthorityID":"PL7290",
		"names":"",
		"pinyin":[]
	},
	{
		"authorityID":"PL000000007291",
		"name":"薩爾滸城",
		"dynasty":"清",
		"long":"124.2636",
		"lat":"41.9041",
		"districtHistorical":"清_盛京（奉天）",
		"districtModern":"中國-遼寧省-撫順市-撫順縣",
		"note":null,
		"lang":"中文",
		"shortAuthorityID":"PL7291",
		"names":"",
		"pinyin":[]
	},
	{
		"authorityID":"PL000000007292",
		"name":"薩爾滸",
		"dynasty":"明",
		"long":"124.2679",
		"lat":"41.8999",
		"districtHistorical":"明_建州",
		"districtModern":"中國-遼寧省-撫順市-撫順縣",
		"note":null,
		"lang":"中文",
		"shortAuthorityID":"PL7292",
		"names":"",
		"pinyin":[]
	},
	{
		"authorityID":"PL000000007293",
		"name":"東州堡",
		"dynasty":"明",
		"long":"124.0187",
		"lat":"41.7424",
		"districtHistorical":"明_山東",
		"districtModern":"中國-遼寧省-撫順市-撫順縣",
		"note":null,
		"lang":"中文",
		"shortAuthorityID":"PL7293",
		"names":"",
		"pinyin":[]
	},
	{
		"authorityID":"PL000000007294",
		"name":"東州堡",
		"dynasty":"清",
		"long":"124.0198",
		"lat":"41.7346",
		"districtHistorical":"清_盛京（奉天）",
		"districtModern":"中國-遼寧省-撫順市-撫順縣",
		"note":null,
		"lang":"中文",
		"shortAuthorityID":"PL7294",
		"names":"",
		"pinyin":[]
	},
	{
		"authorityID":"PL000000007295",
		"name":"馬根單堡",
		"dynasty":"明",
		"long":"124.0478",
		"lat":"41.6589",
		"districtHistorical":"明_山東",
		"districtModern":"中國-遼寧省-撫順市-撫順縣",
		"note":null,
		"lang":"中文",
		"shortAuthorityID":"PL7295",
		"names":"",
		"pinyin":[]
	},
	{
		"authorityID":"PL000000007296",
		"name":"瑪哈丹堡",
		"dynasty":"清",
		"long":"124.0544",
		"lat":"41.656",
		"districtHistorical":"清_盛京（奉天）",
		"districtModern":"中國-遼寧省-撫順市-撫順縣",
		"note":null,
		"lang":"中文",
		"shortAuthorityID":"PL7296",
		"names":"",
		"pinyin":[]
	},
	{
		"authorityID":"PL000000007297",
		"name":"散羊峪堡",
		"dynasty":"明",
		"long":"124.0986",
		"lat":"41.5604",
		"districtHistorical":"明_山東",
		"districtModern":"中國-遼寧省-撫順市-撫順縣",
		"note":null,
		"lang":"中文",
		"shortAuthorityID":"PL7297",
		"names":"",
		"pinyin":[]
	},
	{
		"authorityID":"PL000000007298",
		"name":"山羊峪關",
		"dynasty":"清",
		"long":"124.1129",
		"lat":"41.5513",
		"districtHistorical":"清_盛京（奉天）",
		"districtModern":"中國-遼寧省-撫順市-撫順縣",
		"note":null,
		"lang":"中文",
		"shortAuthorityID":"PL7298",
		"names":"",
		"pinyin":[]
	},
	{
		"authorityID":"PL000000007299",
		"name":"大梁水",
		"dynasty":null,
		"long":"124.631332",
		"lat":"41.453057",
		"districtHistorical":null,
		"districtModern":"中國-遼寧省-撫順市-新賓滿族自治縣",
		"note":"一名東梁河。即今遼寧渾河支流太子河。《漢書．地理志》遼東郡遼陽縣：\"大梁水西南至遼陽入遼。\"《遼史．地理志》東京遼陽府：\"東梁河自東山西流，與渾河合為小口，會遼河入海。又名太子河，亦曰大梁水。＂（歷地史：146）",
		"lang":"中文",
		"shortAuthorityID":"PL7299",
		"names":"[中文] 太子河,東梁河",
		"pinyin":{
			"東梁河":"dōng liáng hé"
		}
	},
	{
		"authorityID":"PL000000007300",
		"name":"古勒寨",
		"dynasty":"明",
		"long":"124.4195",
		"lat":"41.8736",
		"districtHistorical":"明_建州",
		"districtModern":"中國-遼寧省-撫順市-新賓滿族自治縣",
		"note":null,
		"lang":"中文",
		"shortAuthorityID":"PL7300",
		"names":"",
		"pinyin":[]
	},
	{
		"authorityID":"PL000000007301",
		"name":"馬兒墩寨",
		"dynasty":"明",
		"long":"124.5664",
		"lat":"41.8072",
		"districtHistorical":"明_建州",
		"districtModern":"中國-遼寧省-撫順市-新賓滿族自治縣",
		"note":null,
		"lang":"中文",
		"shortAuthorityID":"PL7301",
		"names":"",
		"pinyin":[]
	},
	{
		"authorityID":"PL000000007302",
		"name":"扎喀關",
		"dynasty":"清",
		"long":"124.5962",
		"lat":"41.7951",
		"districtHistorical":"清_盛京（奉天）",
		"districtModern":"中國-遼寧省-撫順市-新賓滿族自治縣",
		"note":null,
		"lang":"中文",
		"shortAuthorityID":"PL7302",
		"names":"",
		"pinyin":[]
	},
	{
		"authorityID":"PL000000007303",
		"name":"穆喜站",
		"dynasty":"清",
		"long":"124.6545",
		"lat":"41.7744",
		"districtHistorical":"清_盛京（奉天）",
		"districtModern":"中國-遼寧省-撫順市-新賓滿族自治縣",
		"note":null,
		"lang":"中文",
		"shortAuthorityID":"PL7303",
		"names":"",
		"pinyin":[]
	},
	{
		"authorityID":"PL000000007304",
		"name":"興京門",
		"dynasty":"清",
		"long":"125.315",
		"lat":"41.7323",
		"districtHistorical":"清_吉林",
		"districtModern":"中國-遼寧省-撫順市-新賓滿族自治縣",
		"note":null,
		"lang":"中文",
		"shortAuthorityID":"PL7304",
		"names":"",
		"pinyin":[]
	},
	{
		"authorityID":"PL000000007305",
		"name":"新賓堡",
		"dynasty":"清",
		"long":"125.0439",
		"lat":"41.7209",
		"districtHistorical":"清_盛京（奉天）",
		"districtModern":"中國-遼寧省-撫順市-新賓滿族自治縣",
		"note":null,
		"lang":"中文",
		"shortAuthorityID":"PL7305",
		"names":"",
		"pinyin":[]
	},
	{
		"authorityID":"PL000000007306",
		"name":"興京廳",
		"dynasty":"清",
		"long":"124.8878",
		"lat":"41.6968",
		"districtHistorical":"清_盛京（奉天）",
		"districtModern":"中國-遼寧省-撫順市-新賓滿族自治縣",
		"note":null,
		"lang":"中文",
		"shortAuthorityID":"PL7306",
		"names":"",
		"pinyin":[]
	},
	{
		"authorityID":"PL000000007307",
		"name":"玄菟郡",
		"dynasty":"西漢",
		"long":"124.8807",
		"lat":"41.6959",
		"districtHistorical":"西漢_幽州刺史部",
		"districtModern":"中國-遼寧省-撫順市-新賓滿族自治縣",
		"note":null,
		"lang":"中文",
		"shortAuthorityID":"PL7307",
		"names":"",
		"pinyin":[]
	},
	{
		"authorityID":"PL000000007308",
		"name":"高句驪",
		"dynasty":"西漢",
		"long":"124.8807",
		"lat":"41.6959",
		"districtHistorical":"西漢_幽州刺史部",
		"districtModern":"中國-遼寧省-撫順市-新賓滿族自治縣",
		"note":null,
		"lang":"中文",
		"shortAuthorityID":"PL7308",
		"names":"",
		"pinyin":[]
	},
	{
		"authorityID":"PL000000007309",
		"name":"鴉鶻關",
		"dynasty":"清",
		"long":"124.5653",
		"lat":"41.5396",
		"districtHistorical":"清_盛京（奉天）",
		"districtModern":"中國-遼寧省-撫順市-新賓滿族自治縣",
		"note":null,
		"lang":"中文",
		"shortAuthorityID":"PL7309",
		"names":"",
		"pinyin":[]
	},
	{
		"authorityID":"PL000000007310",
		"name":"葦子谷",
		"dynasty":"明",
		"long":"124.5238",
		"lat":"41.4535",
		"districtHistorical":"明_山東",
		"districtModern":"中國-遼寧省-撫順市-新賓滿族自治縣",
		"note":null,
		"lang":"中文",
		"shortAuthorityID":"PL7310",
		"names":"",
		"pinyin":[]
	},
	{
		"authorityID":"PL000000007311",
		"name":"葦子峪",
		"dynasty":"清",
		"long":"124.5095",
		"lat":"41.4477",
		"districtHistorical":"清_盛京（奉天）",
		"districtModern":"中國-遼寧省-撫順市-新賓滿族自治縣",
		"note":null,
		"lang":"中文",
		"shortAuthorityID":"PL7311",
		"names":"",
		"pinyin":[]
	},
	{
		"authorityID":"PL000000007312",
		"name":"平頂山",
		"dynasty":"清",
		"long":"124.7629",
		"lat":"41.4389",
		"districtHistorical":"清_盛京（奉天）",
		"districtModern":"中國-遼寧省-撫順市-新賓滿族自治縣",
		"note":null,
		"lang":"中文",
		"shortAuthorityID":"PL7312",
		"names":"",
		"pinyin":[]
	},
	{
		"authorityID":"PL000000007313",
		"name":"松樹口",
		"dynasty":"明",
		"long":"124.4119",
		"lat":"41.3867",
		"districtHistorical":"明_山東",
		"districtModern":"中國-遼寧省-撫順市-新賓滿族自治縣",
		"note":null,
		"lang":"中文",
		"shortAuthorityID":"PL7313",
		"names":"",
		"pinyin":{
			"松樹口":"sōng shù kǒu"
		}
	},
	{
		"authorityID":"PL000000007314",
		"name":"建州衛",
		"dynasty":"明",
		"long":"124.8831",
		"lat":"41.7002",
		"districtHistorical":"明_建州",
		"districtModern":"中國-遼寧省-撫順市-新賓滿族自治縣",
		"note":null,
		"lang":"中文",
		"shortAuthorityID":"PL7314",
		"names":"",
		"pinyin":{
			"建州衛":"jiàn zhōu wèi"
		}
	},
	{
		"authorityID":"PL000000007315",
		"name":"東那",
		"dynasty":"遼",
		"long":"125.0091",
		"lat":"41.7413",
		"districtHistorical":"遼_東京道",
		"districtModern":"中國-遼寧省-撫順市-新賓滿族自治縣",
		"note":null,
		"lang":"中文",
		"shortAuthorityID":"PL7315",
		"names":"",
		"pinyin":[]
	},
	{
		"authorityID":"PL000000007316",
		"name":"木底州",
		"dynasty":"唐",
		"long":"124.6066",
		"lat":"41.8028",
		"districtHistorical":"唐_河北道",
		"districtModern":"中國-遼寧省-撫順市-新賓滿族自治縣",
		"note":null,
		"lang":"中文",
		"shortAuthorityID":"PL7316",
		"names":"",
		"pinyin":[]
	},
	{
		"authorityID":"PL000000007317",
		"name":"商家臺",
		"dynasty":"清",
		"long":"124.8498",
		"lat":"42.3665",
		"districtHistorical":"清_盛京（奉天）",
		"districtModern":"中國-遼寧省-撫順市-清原滿族自治縣",
		"note":null,
		"lang":"中文",
		"shortAuthorityID":"PL7317",
		"names":"",
		"pinyin":[]
	},
	{
		"authorityID":"PL000000007318",
		"name":"英峨門",
		"dynasty":"清",
		"long":"125.0723",
		"lat":"42.1864",
		"districtHistorical":"清_盛京（奉天）",
		"districtModern":"中國-遼寧省-撫順市-清原滿族自治縣",
		"note":null,
		"lang":"中文",
		"shortAuthorityID":"PL7318",
		"names":"",
		"pinyin":[]
	},
	{
		"authorityID":"PL000000007319",
		"name":"耿家莊",
		"dynasty":"清",
		"long":"124.5873",
		"lat":"41.9567",
		"districtHistorical":"清_盛京（奉天）",
		"districtModern":"中國-遼寧省-撫順市-清原滿族自治縣",
		"note":null,
		"lang":"中文",
		"shortAuthorityID":"PL7319",
		"names":"",
		"pinyin":[]
	},
	{
		"authorityID":"PL000000007320",
		"name":"塔山前衛",
		"dynasty":"明",
		"long":"124.8807",
		"lat":"42.2886",
		"districtHistorical":"明_建州",
		"districtModern":"中國-遼寧省-撫順市-清原滿族自治縣",
		"note":null,
		"lang":"中文",
		"shortAuthorityID":"PL7320",
		"names":"",
		"pinyin":[]
	},
	{
		"authorityID":"PL000000007321",
		"name":"威寧營",
		"dynasty":"明",
		"long":"123.8351",
		"lat":"41.3454",
		"districtHistorical":"明_山東",
		"districtModern":"中國-遼寧省-本溪市-明山區",
		"note":null,
		"lang":"中文",
		"shortAuthorityID":"PL7321",
		"names":"",
		"pinyin":[]
	},
	{
		"authorityID":"PL000000007322",
		"name":"清河堡",
		"dynasty":"清",
		"long":"124.2369",
		"lat":"41.4643",
		"districtHistorical":"清_盛京（奉天）",
		"districtModern":"中國-遼寧省-本溪市-本溪滿族自治縣",
		"note":null,
		"lang":"中文",
		"shortAuthorityID":"PL7322",
		"names":"",
		"pinyin":[]
	},
	{
		"authorityID":"PL000000007323",
		"name":"清河堡",
		"dynasty":"明",
		"long":"124.2309",
		"lat":"41.4582",
		"districtHistorical":"明_山東",
		"districtModern":"中國-遼寧省-本溪市-本溪滿族自治縣",
		"note":null,
		"lang":"中文",
		"shortAuthorityID":"PL7323",
		"names":"",
		"pinyin":[]
	},
	{
		"authorityID":"PL000000007324",
		"name":"孤山堡",
		"dynasty":"明",
		"long":"124.486",
		"lat":"41.1396",
		"districtHistorical":"明_山東",
		"districtModern":"中國-遼寧省-本溪市-本溪滿族自治縣",
		"note":null,
		"lang":"中文",
		"shortAuthorityID":"PL7324",
		"names":"",
		"pinyin":[]
	},
	{
		"authorityID":"PL000000007325",
		"name":"孤山堡",
		"dynasty":"清",
		"long":"124.4291",
		"lat":"41.1383",
		"districtHistorical":"清_盛京（奉天）",
		"districtModern":"中國-遼寧省-本溪市-本溪滿族自治縣",
		"note":null,
		"lang":"中文",
		"shortAuthorityID":"PL7325",
		"names":"",
		"pinyin":[]
	},
	{
		"authorityID":"PL000000007326",
		"name":"連山關",
		"dynasty":"明",
		"long":"123.7627",
		"lat":"40.9638",
		"districtHistorical":"明_山東",
		"districtModern":"中國-遼寧省-本溪市-本溪滿族自治縣",
		"note":null,
		"lang":"中文",
		"shortAuthorityID":"PL7326",
		"names":"",
		"pinyin":[]
	},
	{
		"authorityID":"PL000000007327",
		"name":"連山站",
		"dynasty":"元",
		"long":"123.7627",
		"lat":"40.9638",
		"districtHistorical":"元_遼陽行省",
		"districtModern":"中國-遼寧省-本溪市-本溪滿族自治縣",
		"note":null,
		"lang":"中文",
		"shortAuthorityID":"PL7327",
		"names":"",
		"pinyin":[]
	},
	{
		"authorityID":"PL000000007328",
		"name":"連山關",
		"dynasty":"清",
		"long":"123.7622",
		"lat":"40.9626",
		"districtHistorical":"清_盛京（奉天）",
		"districtModern":"中國-遼寧省-本溪市-本溪滿族自治縣",
		"note":null,
		"lang":"中文",
		"shortAuthorityID":"PL7328",
		"names":"",
		"pinyin":[]
	},
	{
		"authorityID":"PL000000007329",
		"name":"草河堡",
		"dynasty":"明",
		"long":"124.0452",
		"lat":"40.8978",
		"districtHistorical":"明_山東",
		"districtModern":"中國-遼寧省-本溪市-本溪滿族自治縣",
		"note":null,
		"lang":"中文",
		"shortAuthorityID":"PL7329",
		"names":"",
		"pinyin":[]
	},
	{
		"authorityID":"PL000000007330",
		"name":"草河堡",
		"dynasty":"清",
		"long":"123.923",
		"lat":"40.878",
		"districtHistorical":"清_盛京（奉天）",
		"districtModern":"中國-遼寧省-本溪市-本溪滿族自治縣",
		"note":null,
		"lang":"中文",
		"shortAuthorityID":"PL7330",
		"names":"",
		"pinyin":[]
	},
	{
		"authorityID":"PL000000007331",
		"name":"一堵墻堡",
		"dynasty":"明",
		"long":"124.3525",
		"lat":"41.3489",
		"districtHistorical":"明_山東",
		"districtModern":"中國-遼寧省-本溪市-本溪滿族自治縣",
		"note":null,
		"lang":"中文",
		"shortAuthorityID":"PL7331",
		"names":"",
		"pinyin":[]
	},
	{
		"authorityID":"PL000000007332",
		"name":"場堡",
		"dynasty":"明",
		"long":"124.4889",
		"lat":"41.2525",
		"districtHistorical":"明_山東",
		"districtModern":"中國-遼寧省-本溪市-本溪滿族自治縣",
		"note":null,
		"lang":"中文",
		"shortAuthorityID":"PL7332",
		"names":"",
		"pinyin":[]
	},
	{
		"authorityID":"PL000000007333",
		"name":"廠門",
		"dynasty":"清",
		"long":"124.6515",
		"lat":"41.2066",
		"districtHistorical":"清_盛京（奉天）",
		"districtModern":"中國-遼寧省-本溪市-本溪滿族自治縣",
		"note":null,
		"lang":"中文",
		"shortAuthorityID":"PL7333",
		"names":"",
		"pinyin":{
			"廠門":"chǎng mén"
		}
	},
	{
		"authorityID":"PL000000007334",
		"name":"廠營",
		"dynasty":"清",
		"long":"124.4912",
		"lat":"41.253",
		"districtHistorical":"清_盛京（奉天）",
		"districtModern":"中國-遼寧省-本溪市-本溪滿族自治縣",
		"note":null,
		"lang":"中文",
		"shortAuthorityID":"PL7334",
		"names":"",
		"pinyin":[]
	},
	{
		"authorityID":"PL000000007335",
		"name":"石棚溝",
		"dynasty":"清",
		"long":"125.0506",
		"lat":"41.3459",
		"districtHistorical":"清_盛京（奉天）",
		"districtModern":"中國-遼寧省-本溪市-桓仁滿族自治縣",
		"note":null,
		"lang":"中文",
		"shortAuthorityID":"PL7335",
		"names":"",
		"pinyin":[]
	},
	{
		"authorityID":"PL000000007336",
		"name":"紇升骨城",
		"dynasty":"西漢",
		"long":"125.3382",
		"lat":"41.3099",
		"districtHistorical":"西漢_幽州刺史部",
		"districtModern":"中國-遼寧省-本溪市-桓仁滿族自治縣",
		"note":null,
		"lang":"中文",
		"shortAuthorityID":"PL7336",
		"names":"",
		"pinyin":[]
	},
	{
		"authorityID":"PL000000007337",
		"name":"五老山城",
		"dynasty":"元",
		"long":"125.3456",
		"lat":"41.2936",
		"districtHistorical":"元_遼陽行省",
		"districtModern":"中國-遼寧省-本溪市-桓仁滿族自治縣",
		"note":null,
		"lang":"中文",
		"shortAuthorityID":"PL7337",
		"names":"",
		"pinyin":{
			"五老山城":"wǔ lǎo shān chéng"
		}
	},
	{
		"authorityID":"PL000000007338",
		"name":"大南溝",
		"dynasty":"清",
		"long":"124.8932",
		"lat":"41.2051",
		"districtHistorical":"清_盛京（奉天）",
		"districtModern":"中國-遼寧省-本溪市-桓仁滿族自治縣",
		"note":null,
		"lang":"中文",
		"shortAuthorityID":"PL7338",
		"names":"",
		"pinyin":[]
	},
	{
		"authorityID":"PL000000007339",
		"name":"紇升骨城",
		"dynasty":"沒有給定朝代",
		"long":"125.3467",
		"lat":"41.3066",
		"districtHistorical":"",
		"districtModern":"中國-遼寧省-本溪市-桓仁滿族自治縣",
		"note":"",
		"lang":"中文",
		"shortAuthorityID":"PL7339",
		"names":"",
		"pinyin":[]
	},
	{
		"authorityID":"PL000000007340",
		"name":"梁口",
		"dynasty":"沒有給定朝代",
		"long":"125.4981",
		"lat":"41.405",
		"districtHistorical":"",
		"districtModern":"中國-遼寧省-本溪市-桓仁滿族自治縣",
		"note":"",
		"lang":"中文",
		"shortAuthorityID":"PL7340",
		"names":"",
		"pinyin":{
			"梁口":"liáng kǒu"
		}
	},
	{
		"authorityID":"PL000000007341",
		"name":"九連城",
		"dynasty":"明",
		"long":"124.449",
		"lat":"40.1989",
		"districtHistorical":"明_山東",
		"districtModern":"中國-遼寧省-丹東市-振安區",
		"note":null,
		"lang":"中文",
		"shortAuthorityID":"PL7341",
		"names":"",
		"pinyin":[]
	},
	{
		"authorityID":"PL000000007342",
		"name":"來遠城",
		"dynasty":"遼",
		"long":"124.452",
		"lat":"40.1871",
		"districtHistorical":"遼_東京道",
		"districtModern":"中國-遼寧省-丹東市-振安區",
		"note":null,
		"lang":"中文",
		"shortAuthorityID":"PL7342",
		"names":"",
		"pinyin":[]
	},
	{
		"authorityID":"PL000000007343",
		"name":"中江",
		"dynasty":"清",
		"long":"124.4941",
		"lat":"40.2106",
		"districtHistorical":"清_盛京（奉天）",
		"districtModern":"中國-遼寧省-丹東市-振安區",
		"note":null,
		"lang":"中文",
		"shortAuthorityID":"PL7343",
		"names":"",
		"pinyin":[]
	},
	{
		"authorityID":"PL000000007344",
		"name":"鎮江堡",
		"dynasty":"清",
		"long":"124.4437",
		"lat":"40.2133",
		"districtHistorical":"清_盛京（奉天）",
		"districtModern":"中國-遼寧省-丹東市-振安區",
		"note":null,
		"lang":"中文",
		"shortAuthorityID":"PL7344",
		"names":"",
		"pinyin":[]
	},
	{
		"authorityID":"PL000000007345",
		"name":"婆娑妄檢司",
		"dynasty":"元",
		"long":"124.4587",
		"lat":"40.2571",
		"districtHistorical":"元_遼陽行省",
		"districtModern":"中國-遼寧省-丹東市-振安區",
		"note":null,
		"lang":"中文",
		"shortAuthorityID":"PL7345",
		"names":"",
		"pinyin":[]
	},