[
	{
		"authorityID":"PL000000035001",
		"name":"導江",
		"dynasty":"唐",
		"long":"103.7333",
		"lat":"30.9953",
		"districtHistorical":"唐_劍南道",
		"districtModern":"中國-四川省-成都市-都江堰市",
		"note":null,
		"lang":"中文",
		"shortAuthorityID":"PL35001",
		"names":"",
		"pinyin":[]
	},
	{
		"authorityID":"PL000000035002",
		"name":"都安",
		"dynasty":"西晉",
		"long":"103.7167",
		"lat":"30.9951",
		"districtHistorical":"西晉_益州",
		"districtModern":"中國-四川省-成都市-都江堰市",
		"note":null,
		"lang":"中文",
		"shortAuthorityID":"PL35002",
		"names":"",
		"pinyin":[]
	},
	{
		"authorityID":"PL000000035003",
		"name":"都安",
		"dynasty":"蜀漢",
		"long":"103.7167",
		"lat":"30.9951",
		"districtHistorical":"三國 蜀漢_益州",
		"districtModern":"中國-四川省-成都市-都江堰市",
		"note":null,
		"lang":"中文",
		"shortAuthorityID":"PL35003",
		"names":"",
		"pinyin":[]
	},
	{
		"authorityID":"PL000000035004",
		"name":"導江",
		"dynasty":"南宋",
		"long":"103.7268",
		"lat":"30.9884",
		"districtHistorical":"南宋_成都府路",
		"districtModern":"中國-四川省-成都市-都江堰市",
		"note":null,
		"lang":"中文",
		"shortAuthorityID":"PL35004",
		"names":"",
		"pinyin":[]
	},
	{
		"authorityID":"PL000000035005",
		"name":"導江",
		"dynasty":"北宋",
		"long":"103.7268",
		"lat":"30.9884",
		"districtHistorical":"北宋_成都府路",
		"districtModern":"中國-四川省-成都市-都江堰市",
		"note":null,
		"lang":"中文",
		"shortAuthorityID":"PL35005",
		"names":"",
		"pinyin":[]
	},
	{
		"authorityID":"PL000000035006",
		"name":"崇寧",
		"dynasty":"清",
		"long":"103.7643",
		"lat":"30.8875",
		"districtHistorical":"清_四川",
		"districtModern":"中國-四川省-成都市-都江堰市",
		"note":null,
		"lang":"中文",
		"shortAuthorityID":"PL35006",
		"names":"",
		"pinyin":[]
	},
	{
		"authorityID":"PL000000035007",
		"name":"青城",
		"dynasty":"南宋",
		"long":"103.6697",
		"lat":"30.8309",
		"districtHistorical":"南宋_成都府路",
		"districtModern":"中國-四川省-成都市-都江堰市",
		"note":null,
		"lang":"中文",
		"shortAuthorityID":"PL35007",
		"names":"",
		"pinyin":[]
	},
	{
		"authorityID":"PL000000035008",
		"name":"青城",
		"dynasty":"北宋",
		"long":"103.6726",
		"lat":"30.8298",
		"districtHistorical":"北宋_成都府路",
		"districtModern":"中國-四川省-成都市-都江堰市",
		"note":null,
		"lang":"中文",
		"shortAuthorityID":"PL35008",
		"names":"",
		"pinyin":[]
	},
	{
		"authorityID":"PL000000035009",
		"name":"齊基",
		"dynasty":"南齊",
		"long":"103.7033",
		"lat":"30.8268",
		"districtHistorical":"南朝 齊_益州",
		"districtModern":"中國-四川省-成都市-都江堰市",
		"note":null,
		"lang":"中文",
		"shortAuthorityID":"PL35009",
		"names":"",
		"pinyin":[]
	},
	{
		"authorityID":"PL000000035010",
		"name":"青城",
		"dynasty":"元",
		"long":"103.6693",
		"lat":"30.7856",
		"districtHistorical":"元_四川行省",
		"districtModern":"中國-四川省-成都市-都江堰市",
		"note":null,
		"lang":"中文",
		"shortAuthorityID":"PL35010",
		"names":"",
		"pinyin":[]
	},
	{
		"authorityID":"PL000000035011",
		"name":"觀坂",
		"dynasty":"蜀漢",
		"long":"103.5538",
		"lat":"31.0116",
		"districtHistorical":"三國 蜀漢_益州",
		"districtModern":"中國-四川省-成都市-都江堰市",
		"note":"",
		"lang":"中文",
		"shortAuthorityID":"PL35011",
		"names":"",
		"pinyin":[]
	},
	{
		"authorityID":"PL000000035012",
		"name":"九峰山",
		"dynasty":null,
		"long":"103.85583",
		"lat":"31.406601",
		"districtHistorical":null,
		"districtModern":"中國-四川省-成都市-彭州市",
		"note":"清嘉慶《彭縣誌》載：「在西北百六十里，至此奇峰地依天，聳然峙列者九，實為彭邑諸山之冠，故名。」九峰為東北白清龍、朱雀、火焰、天牙，中日背光，西南曰仙人、黃龍、元武、白虎諸峰，迤邐蜿蜒。（<a target=\"_blank\" href=\"http:\/\/www.zhongguoditu.com\/jingdian\/jieshao\/113367.html\">http:\/\/www.zhongguoditu.com\/jingdian\/jieshao\/113367.html<\/a>，2009.11.23）",
		"lang":"中文",
		"shortAuthorityID":"PL35012",
		"names":"[中文] 火焰峰",
		"pinyin":[]
	},
	{
		"authorityID":"PL000000035013",
		"name":"茶籠山",
		"dynasty":"沒有給定朝代",
		"long":"103.958291",
		"lat":"30.990735",
		"districtHistorical":null,
		"districtModern":"中國-四川省-成都市-彭州市",
		"note":"在（九隴）郡西三十里，上有廣明院。本志云：「至德山有三昧泉，自石竇噴冽，方大如斗，不竭不溢。俗傳即知玄國師洗人面瘡之處。……悟達暮嵗至蜀，厯訪羣峯……則開成中事也。（淵四．蜀中廣記．卷五：24）",
		"lang":"中文",
		"shortAuthorityID":"PL35013",
		"names":"[中文] 至德山,景丹山",
		"pinyin":{
			"茶籠山":"chá lóng shān",
			"至德山":"zhì dé shān",
			"景丹山":"jǐng dān shān"
		}
	},
	{
		"authorityID":"PL000000035014",
		"name":"丹景山",
		"dynasty":"沒有給定朝代",
		"long":"103.83",
		"lat":"31.092",
		"districtHistorical":null,
		"districtModern":"中國-四川省-成都市-彭州市",
		"note":"位於四川省彭州市丹景山鎮（古九隴），距成都西北50公里。素有「丹嶽岱宗」，「古唐勝跡」，「丹景第一」之稱。為天彭牡丹的發源地，宋代尤其南宋時期，花特盛，與洛陽、菏澤齊名。丹景山座落在沱江之源--湔江南岸，為龍門山八脈，山巒迭翠，風光秀麗，自古就是靈秀獨鍾的西蜀名山。（淵四．大清一統志．卷二百九十二：17；<a target=\"_blank\" href=\"http:\/\/baike.baidu.com\/view\/356615.htm\">http:\/\/baike.baidu.com\/view\/356615.htm<\/a>，2011.12.23）",
		"lang":"中文",
		"shortAuthorityID":"PL35014",
		"names":"",
		"pinyin":[]
	},
	{
		"authorityID":"PL000000035015",
		"name":"濛水",
		"dynasty":null,
		"long":"104.112873",
		"lat":"30.956128",
		"districtHistorical":null,
		"districtModern":"中國-四川省-成都市-彭州市",
		"note":"在四川彭縣。（中地：1279）",
		"lang":"中文",
		"shortAuthorityID":"PL35015",
		"names":"[中文] 濛江,北江水",
		"pinyin":{
			"濛水":"méng shuǐ",
			"濛江":"méng jiāng"
		}
	},
	{
		"authorityID":"PL000000035016",
		"name":"龍懷寺",
		"dynasty":"隋",
		"long":"103.937822",
		"lat":"31.004757",
		"districtHistorical":null,
		"districtModern":"中國-四川省-成都市-彭州市",
		"note":"（唐寺考：268）",
		"lang":"中文",
		"shortAuthorityID":"PL35016",
		"names":"",
		"pinyin":[]
	},
	{
		"authorityID":"PL000000035017",
		"name":"龍興寺",
		"dynasty":"東晉",
		"long":"103.9421",
		"lat":"31.0186",
		"districtHistorical":null,
		"districtModern":"中國-四川省-成都市-彭州市",
		"note":"位於唐彭州九隴縣。初寺號太空，天授二年為大雲，開元中詔號龍興。會昌五年廢。（全唐文：3702；唐寺考：268；<a target=\"_blank\" href=\"http:\/\/www.fjdh.com\/temple\/HTML\/temple_20070722090824.html\">http:\/\/www.fjdh.com\/temple\/HTML\/temple_20070722090824.html<\/a>，2009.05.21）",
		"lang":"中文",
		"shortAuthorityID":"PL35017",
		"names":"[中文] 大空寺,大雲寺,中興寺",
		"pinyin":{
			"龍興寺":"lóng xīng sì",
			"大空寺":"dài kōng sì",
			"大雲寺":"dà yún sì",
			"中興寺":"zhōng xīng sì"
		}
	},
	{
		"authorityID":"PL000000035018",
		"name":"至德寺",
		"dynasty":"沒有給定朝代",
		"long":"103.82892",
		"lat":"31.07637",
		"districtHistorical":null,
		"districtModern":"中國-四川省-成都市-彭州市",
		"note":"（唐寺考：268）",
		"lang":"中文",
		"shortAuthorityID":"PL35018",
		"names":"",
		"pinyin":[]
	},
	{
		"authorityID":"PL000000035019",
		"name":"白鹿寺",
		"dynasty":null,
		"long":"103.879259",
		"lat":"31.184664",
		"districtHistorical":null,
		"districtModern":"中國-四川省-成都市-彭州市",
		"note":"（明清序：240）",
		"lang":"中文",
		"shortAuthorityID":"PL35019",
		"names":"",
		"pinyin":[]
	},
	{
		"authorityID":"PL000000035020",
		"name":"附聖寺",
		"dynasty":"唐",
		"long":"103.958291",
		"lat":"30.990735",
		"districtHistorical":null,
		"districtModern":"中國-四川省-成都市-彭州市",
		"note":"位於茶籠山，傳知玄悟達國師遷塔於此。（T50n2061_p0744c06）",
		"lang":"中文",
		"shortAuthorityID":"PL35020",
		"names":"",
		"pinyin":[]
	},
	{
		"authorityID":"PL000000035021",
		"name":"光化寺",
		"dynasty":"唐",
		"long":"104.1461",
		"lat":"30.6837",
		"districtHistorical":"",
		"districtModern":"中國-四川省-成都市-彭州市",
		"note":"位於彭門山，在彭縣北三十里，兩峯對立如闕，名『天彭門』。清．龔世瑩《彭縣金石志．卷9》：「光化寺石經，道因法師所刻，在今中正菴後石壁。字漫漶無存。」（宋僧索引：416；淵四．方輿勝覽．卷54：2；淵四．明一統志．卷67：10；石刻．輯3．冊15：143）",
		"lang":"中文",
		"shortAuthorityID":"PL35021",
		"names":"[中文] 彭門山寺",
		"pinyin":[]
	},
	{
		"authorityID":"PL000000035022",
		"name":"承天院",
		"dynasty":null,
		"long":"103.958291",
		"lat":"30.990735",
		"districtHistorical":null,
		"districtModern":"中國-四川省-成都市-彭州市",
		"note":"位於彭州。（X85n1590_p0130a15）",
		"lang":"中文",
		"shortAuthorityID":"PL35022",
		"names":"",
		"pinyin":[]
	},
	{
		"authorityID":"PL000000035023",
		"name":"青龍寺",
		"dynasty":null,
		"long":"103.958291",
		"lat":"30.990735",
		"districtHistorical":null,
		"districtModern":"中國-四川省-成都市-彭州市",
		"note":"始建於南北朝時代。位於四川省彭州市麗春鎮塔子山山頂，這裡環境清幽是修行的好地方。北宋高僧臨濟宗楊岐派傳人--圓悟禪師曾在此剃度出家。（<a target=\"_blank\" href=\"http:\/\/hk.plm.org.cn\/gnews\/2010911\/2010911206624.html\">http:\/\/hk.plm.org.cn\/gnews\/2010911\/2010911206624.html<\/a>，2011.09.15）",
		"lang":"中文",
		"shortAuthorityID":"PL35023",
		"names":"[中文] 妙寂院",
		"pinyin":[]
	},
	{
		"authorityID":"PL000000035024",
		"name":"朋笮捉守",
		"dynasty":"唐",
		"long":"103.8535",
		"lat":"31.073",
		"districtHistorical":"唐_劍南道",
		"districtModern":"中國-四川省-成都市-彭州市",
		"note":null,
		"lang":"中文",
		"shortAuthorityID":"PL35024",
		"names":"",
		"pinyin":[]
	},
	{
		"authorityID":"PL000000035025",
		"name":"堋口鎮",
		"dynasty":"南宋",
		"long":"103.86",
		"lat":"31.072",
		"districtHistorical":"南宋_成都府路",
		"districtModern":"中國-四川省-成都市-彭州市",
		"note":null,
		"lang":"中文",
		"shortAuthorityID":"PL35025",
		"names":"",
		"pinyin":[]
	},
	{
		"authorityID":"PL000000035026",
		"name":"堋口鎮",
		"dynasty":"北宋",
		"long":"103.8558",
		"lat":"31.0508",
		"districtHistorical":"北宋_成都府路",
		"districtModern":"中國-四川省-成都市-彭州市",
		"note":null,
		"lang":"中文",
		"shortAuthorityID":"PL35026",
		"names":"",
		"pinyin":[]
	},
	{
		"authorityID":"PL000000035027",
		"name":"繁縣",
		"dynasty":"東漢",
		"long":"103.9362",
		"lat":"31.0281",
		"districtHistorical":"東漢_益州刺史部",
		"districtModern":"中國-四川省-成都市-彭州市",
		"note":null,
		"lang":"中文",
		"shortAuthorityID":"PL35027",
		"names":"",
		"pinyin":[]
	},
	{
		"authorityID":"PL000000035028",
		"name":"繁縣",
		"dynasty":"西漢",
		"long":"103.9362",
		"lat":"31.0281",
		"districtHistorical":"西漢_益州刺史部",
		"districtModern":"中國-四川省-成都市-彭州市",
		"note":null,
		"lang":"中文",
		"shortAuthorityID":"PL35028",
		"names":"",
		"pinyin":[]
	},
	{
		"authorityID":"PL000000035029",
		"name":"南晉壽",
		"dynasty":"南齊",
		"long":"103.9226",
		"lat":"31.0272",
		"districtHistorical":"南朝 齊_益州",
		"districtModern":"中國-四川省-成都市-彭州市",
		"note":null,
		"lang":"中文",
		"shortAuthorityID":"PL35029",
		"names":"",
		"pinyin":[]
	},
	{
		"authorityID":"PL000000035030",
		"name":"南晉壽郡",
		"dynasty":"南齊",
		"long":"103.9226",
		"lat":"31.0272",
		"districtHistorical":"南朝 齊_益州",
		"districtModern":"中國-四川省-成都市-彭州市",
		"note":null,
		"lang":"中文",
		"shortAuthorityID":"PL35030",
		"names":"",
		"pinyin":[]
	},
	{
		"authorityID":"PL000000035031",
		"name":"九隴",
		"dynasty":"隋",
		"long":"103.9325",
		"lat":"31.0193",
		"districtHistorical":"隋_蜀郡",
		"districtModern":"中國-四川省-成都市-彭州市",
		"note":null,
		"lang":"中文",
		"shortAuthorityID":"PL35031",
		"names":"",
		"pinyin":[]
	},
	{
		"authorityID":"PL000000035032",
		"name":"九隴",
		"dynasty":"唐",
		"long":"103.9421",
		"lat":"31.0186",
		"districtHistorical":"唐_劍南道",
		"districtModern":"中國-四川省-成都市-彭州市",
		"note":"益州所治。漢繁縣地，宋置晉壽郡，古城在縣西北三裏。後魏為天水郡，梁置東益州。後周州廢，置九隴郡，并改縣曰九隴。仁壽初置濛州。開皇初郡廢，仍改為九隴。（<a target=\"_blank\" href=\"http:\/\/zh.wikisource.org\/wiki\/%E8%88%8A%E5%94%90%E6%9B%B8\/%E5%8D%B741\">http:\/\/zh.wikisource.org\/wiki\/%E8%88%8A%E5%94%90%E6%9B%B8\/%E5%8D%B741<\/a>，2011.12.23）",
		"lang":"中文",
		"shortAuthorityID":"PL35032",
		"names":"",
		"pinyin":[]
	},
	{
		"authorityID":"PL000000035033",
		"name":"彭縣",
		"dynasty":"清",
		"long":"103.9535",
		"lat":"30.9916",
		"districtHistorical":"清_四川",
		"districtModern":"中國-四川省-成都市-彭州市",
		"note":null,
		"lang":"中文",
		"shortAuthorityID":"PL35033",
		"names":"",
		"pinyin":[]
	},
	{
		"authorityID":"PL000000035034",
		"name":"彭縣",
		"dynasty":"明",
		"long":"103.9535",
		"lat":"30.9916",
		"districtHistorical":"明_四川",
		"districtModern":"中國-四川省-成都市-彭州市",
		"note":null,
		"lang":"中文",
		"shortAuthorityID":"PL35034",
		"names":"",
		"pinyin":[]
	},
	{
		"authorityID":"PL000000035035",
		"name":"九隴",
		"dynasty":"南宋",
		"long":"103.9535",
		"lat":"30.9916",
		"districtHistorical":"南宋_成都府路",
		"districtModern":"中國-四川省-成都市-彭州市",
		"note":null,
		"lang":"中文",
		"shortAuthorityID":"PL35035",
		"names":"",
		"pinyin":[]
	},
	{
		"authorityID":"PL000000035036",
		"name":"彭州",
		"dynasty":"南宋",
		"long":"103.9535",
		"lat":"30.9916",
		"districtHistorical":"南宋_成都府路",
		"districtModern":"中國-四川省-成都市-彭州市",
		"note":null,
		"lang":"中文",
		"shortAuthorityID":"PL35036",
		"names":"",
		"pinyin":[]
	},
	{
		"authorityID":"PL000000035037",
		"name":"九隴",
		"dynasty":"北宋",
		"long":"103.9535",
		"lat":"30.9916",
		"districtHistorical":"北宋_成都府路",
		"districtModern":"中國-四川省-成都市-彭州市",
		"note":"位於今四川省彭州市西北九隴鎮。於北周改南晉壽縣置，唐垂拱二年為彭州治，元至元十三年廢入彭州。 （<a target=\"_blank\" href=\"http:\/\/sns.dmmap.com\/forum.php?mod=group&action=album&fid=3820\">http:\/\/sns.dmmap.com\/forum.php?mod=group&action=album&fid=3820<\/a>，2012.01.10）",
		"lang":"中文",
		"shortAuthorityID":"PL35037",
		"names":"",
		"pinyin":[]
	},
	{
		"authorityID":"PL000000035038",
		"name":"彭州",
		"dynasty":"北宋",
		"long":"103.9535",
		"lat":"30.9916",
		"districtHistorical":"北宋_成都府路",
		"districtModern":"中國-四川省-成都市-彭州市",
		"note":null,
		"lang":"中文",
		"shortAuthorityID":"PL35038",
		"names":"",
		"pinyin":[]
	},
	{
		"authorityID":"PL000000035039",
		"name":"彭州",
		"dynasty":"唐",
		"long":"103.9535",
		"lat":"30.9916",
		"districtHistorical":"唐_劍南道",
		"districtModern":"中國-四川省-成都市-彭州市",
		"note":"位於四川省會成都西北部。唐武后垂拱二年（686）置彭州。彭州稱謂《元和郡縣誌》釋為「彭州以岷山導江，江出山處，兩山相對，古謂之天彭門，因取以名」。此為今彭州名稱的由來。 （<a target=\"_blank\" href=\"http:\/\/baike.baidu.com\/view\/26538.htm\">http:\/\/baike.baidu.com\/view\/26538.htm<\/a>，2012.01.06）",
		"lang":"中文",
		"shortAuthorityID":"PL35039",
		"names":"",
		"pinyin":[]
	},
	{
		"authorityID":"PL000000035040",
		"name":"濛州",
		"dynasty":"隋",
		"long":"103.9535",
		"lat":"30.9916",
		"districtHistorical":"隋_蜀郡",
		"districtModern":"中國-四川省-成都市-彭州市",
		"note":"舊曰晉壽，梁置東益州。後周州廢，置九隴郡，并改縣曰九隴。仁壽初置濛州。開皇初郡廢，并隴泉、興固、青陽三縣入焉。大業初州廢。有太山、道場山。（<a target=\"_blank\" href=\"http:\/\/zh.wikisource.org\/zh-hant\/%E9%9A%8B%E6%9B%B8\/%E5%8D%B729\">http:\/\/zh.wikisource.org\/zh-hant\/%E9%9A%8B%E6%9B%B8\/%E5%8D%B729<\/a>，2013.12.23）",
		"lang":"中文",
		"shortAuthorityID":"PL35040",
		"names":"[中文] 九隴郡",
		"pinyin":{
			"濛州":"méng zhōu",
			"九隴郡":"jiǔ lǒng jùn"
		}
	},
	{
		"authorityID":"PL000000035041",
		"name":"濛陽",
		"dynasty":"唐",
		"long":"104.1412",
		"lat":"30.979",
		"districtHistorical":"唐_劍南道",
		"districtModern":"中國-四川省-成都市-彭州市",
		"note":null,
		"lang":"中文",
		"shortAuthorityID":"PL35041",
		"names":"",
		"pinyin":{
			"濛陽":"méng yáng"
		}
	},
	{
		"authorityID":"PL000000035042",
		"name":"濛陽",
		"dynasty":"元",
		"long":"104.1401",
		"lat":"30.9746",
		"districtHistorical":"元_四川行省",
		"districtModern":"中國-四川省-成都市-彭州市",
		"note":null,
		"lang":"中文",
		"shortAuthorityID":"PL35042",
		"names":"",
		"pinyin":{
			"濛陽":"méng yáng"
		}
	},
	{
		"authorityID":"PL000000035043",
		"name":"蒙陽",
		"dynasty":"南宋",
		"long":"104.1363",
		"lat":"30.9673",
		"districtHistorical":"南宋_成都府路",
		"districtModern":"中國-四川省-成都市-彭州市",
		"note":null,
		"lang":"中文",
		"shortAuthorityID":"PL35043",
		"names":"",
		"pinyin":[]
	},
	{
		"authorityID":"PL000000035044",
		"name":"蒙陽",
		"dynasty":"北宋",
		"long":"104.1291",
		"lat":"30.9634",
		"districtHistorical":"北宋_成都府路",
		"districtModern":"中國-四川省-成都市-彭州市",
		"note":null,
		"lang":"中文",
		"shortAuthorityID":"PL35044",
		"names":"",
		"pinyin":[]
	},
	{
		"authorityID":"PL000000035045",
		"name":"彭州",
		"dynasty":"元",
		"long":"103.9535",
		"lat":"30.9916",
		"districtHistorical":"元_四川行省",
		"districtModern":"中國-四川省-成都市-彭州市",
		"note":null,
		"lang":"中文",
		"shortAuthorityID":"PL35045",
		"names":"",
		"pinyin":[]
	},
	{
		"authorityID":"PL000000035046",
		"name":"蒲頓",
		"dynasty":null,
		"long":"103.46",
		"lat":"30.41",
		"districtHistorical":null,
		"districtModern":"中國-四川省-成都市-邛崍市",
		"note":"位於邛州。（X77n1524_p0376a18）",
		"lang":"中文",
		"shortAuthorityID":"PL35046",
		"names":"",
		"pinyin":[]
	},
	{
		"authorityID":"PL000000035047",
		"name":"火井",
		"dynasty":"南宋",
		"long":"103.2657",
		"lat":"30.4587",
		"districtHistorical":"南宋_成都府路",
		"districtModern":"中國-四川省-成都市-邛崍市",
		"note":null,
		"lang":"中文",
		"shortAuthorityID":"PL35047",
		"names":"",
		"pinyin":[]
	},
	{
		"authorityID":"PL000000035048",
		"name":"火井",
		"dynasty":"北宋",
		"long":"103.2657",
		"lat":"30.4587",
		"districtHistorical":"北宋_成都府路",
		"districtModern":"中國-四川省-成都市-邛崍市",
		"note":null,
		"lang":"中文",
		"shortAuthorityID":"PL35048",
		"names":"",
		"pinyin":[]
	},
	{
		"authorityID":"PL000000035049",
		"name":"火井",
		"dynasty":"唐",
		"long":"103.2676",
		"lat":"30.4552",
		"districtHistorical":"唐_劍南道",
		"districtModern":"中國-四川省-成都市-邛崍市",
		"note":null,
		"lang":"中文",
		"shortAuthorityID":"PL35049",
		"names":"",
		"pinyin":[]
	},
	{
		"authorityID":"PL000000035050",
		"name":"火井縣",
		"dynasty":"隋",
		"long":"103.2655",
		"lat":"30.4527",
		"districtHistorical":"隋_臨邛郡",
		"districtModern":"中國-四川省-成都市-邛崍市",
		"note":null,
		"lang":"中文",
		"shortAuthorityID":"PL35050",
		"names":"",
		"pinyin":[]
	},
	{
		"authorityID":"PL000000035051",
		"name":"火井壩",
		"dynasty":"明",
		"long":"103.2694",
		"lat":"30.4507",
		"districtHistorical":"明_四川",
		"districtModern":"中國-四川省-成都市-邛崍市",
		"note":null,
		"lang":"中文",
		"shortAuthorityID":"PL35051",
		"names":"",
		"pinyin":[]
	},
	{
		"authorityID":"PL000000035052",
		"name":"高橋鋪",
		"dynasty":"清",
		"long":"103.6178",
		"lat":"30.4251",
		"districtHistorical":"清_四川",
		"districtModern":"中國-四川省-成都市-邛崍市",
		"note":null,
		"lang":"中文",
		"shortAuthorityID":"PL35052",
		"names":"",
		"pinyin":[]
	},
	{
		"authorityID":"PL000000035053",
		"name":"火井槽",
		"dynasty":"清",
		"long":"103.2442",
		"lat":"30.4234",
		"districtHistorical":"清_四川",
		"districtModern":"中國-四川省-成都市-邛崍市",
		"note":null,
		"lang":"中文",
		"shortAuthorityID":"PL35053",
		"names":"",
		"pinyin":[]
	},
	{
		"authorityID":"PL000000035054",
		"name":"臨邛",
		"dynasty":"隋",
		"long":"103.4684",
		"lat":"30.422",
		"districtHistorical":"隋_臨邛郡",
		"districtModern":"中國-四川省-成都市-邛崍市",
		"note":null,
		"lang":"中文",
		"shortAuthorityID":"PL35054",
		"names":"",
		"pinyin":[]
	},
	{
		"authorityID":"PL000000035055",
		"name":"邛州",
		"dynasty":"清",
		"long":"103.4652",
		"lat":"30.4164",
		"districtHistorical":"清_四川",
		"districtModern":"中國-四川省-成都市-邛崍市",
		"note":"明朝初年降為邛縣，成化年間為直隸州。清朝相沿。相當於今四川省邛崍縣、大邑縣、蒲江縣。（<a target=\"_blank\" href=\"http:\/\/zh.wikipedia.org\/wiki\/%E9%82%9B%E5%B7%9E\">http:\/\/zh.wikipedia.org\/wiki\/邛州<\/a>，2011.12.29）",
		"lang":"中文",
		"shortAuthorityID":"PL35055",
		"names":"",
		"pinyin":{
			"邛州":"qióng zhōu"
		}
	},
	{
		"authorityID":"PL000000035056",
		"name":"邛州",
		"dynasty":"明",
		"long":"103.4652",
		"lat":"30.4164",
		"districtHistorical":"明_四川",
		"districtModern":"中國-四川省-成都市-邛崍市",
		"note":null,
		"lang":"中文",
		"shortAuthorityID":"PL35056",
		"names":"",
		"pinyin":{
			"邛州":"qióng zhōu"
		}
	},
	{
		"authorityID":"PL000000035057",
		"name":"邛州",
		"dynasty":"南宋",
		"long":"103.4652",
		"lat":"30.4164",
		"districtHistorical":"南宋_成都府路",
		"districtModern":"中國-四川省-成都市-邛崍市",
		"note":"北宋時期，邛州初歸西川路管轄。嘉祐四年（1059）歸成都府路管轄。先後轄七縣一監：臨邛縣、依政縣、安仁縣、大邑縣、蒲江縣、臨溪縣、火井縣、惠民監（在今四川蒲江縣境內）。 南宋時期轄六縣（即北宋時所轄七縣除去臨溪縣）。惠民監於南宋初撤銷，32年後復置惠民監。（<a target=\"_blank\" href=\"http:\/\/baike.baidu.com\/view\/438260.htm\">http:\/\/baike.baidu.com\/view\/438260.htm<\/a>，2011.12.19）",
		"lang":"中文",
		"shortAuthorityID":"PL35057",
		"names":"",
		"pinyin":{
			"邛州":"qióng zhōu"
		}
	},
	{
		"authorityID":"PL000000035058",
		"name":"臨邛",
		"dynasty":"南宋",
		"long":"103.4652",
		"lat":"30.4164",
		"districtHistorical":"南宋_成都府路",
		"districtModern":"中國-四川省-成都市-邛崍市",
		"note":"",
		"lang":"中文",
		"shortAuthorityID":"PL35058",
		"names":"[中文] 臨卭",
		"pinyin":[]
	},
	{
		"authorityID":"PL000000035059",
		"name":"邛州",
		"dynasty":"北宋",
		"long":"103.4652",
		"lat":"30.4164",
		"districtHistorical":"北宋_成都府路",
		"districtModern":"中國-四川省-成都市-邛崍市",
		"note":null,
		"lang":"中文",
		"shortAuthorityID":"PL35059",
		"names":"",
		"pinyin":{
			"邛州":"qióng zhōu"
		}
	},
	{
		"authorityID":"PL000000035060",
		"name":"臨邛",
		"dynasty":"北宋",
		"long":"103.4652",
		"lat":"30.4164",
		"districtHistorical":"北宋_成都府路",
		"districtModern":"中國-四川省-成都市-邛崍市",
		"note":null,
		"lang":"中文",
		"shortAuthorityID":"PL35060",
		"names":"",
		"pinyin":[]
	},
	{
		"authorityID":"PL000000035061",
		"name":"邛州",
		"dynasty":"唐",
		"long":"103.4652",
		"lat":"30.4164",
		"districtHistorical":"唐_劍南道",
		"districtModern":"中國-四川省-成都市-邛崍市",
		"note":null,
		"lang":"中文",
		"shortAuthorityID":"PL35061",
		"names":"",
		"pinyin":{
			"邛州":"qióng zhōu"
		}
	},
	{
		"authorityID":"PL000000035062",
		"name":"臨邛",
		"dynasty":"唐",
		"long":"103.4652",
		"lat":"30.4164",
		"districtHistorical":"唐_劍南道",
		"districtModern":"中國-四川省-成都市-邛崍市",
		"note":"秦惠更元九年（前316）置臨邛縣（今四川邛崍市臨邛鎮），屬蜀郡。唐武德元年（618），將臨邛郡改置雅州。同年不久，又恢復邛州。天寶元年（742）將邛州改為臨邛郡。肅宗乾元元年（758）又改臨邛郡為邛州，臨邛縣先後屬之。顯慶二年（657）將邛州治所從依政縣移至臨邛縣。（<a target=\"_blank\" href=\"http:\/\/www.hudong.com\/wiki\/%E4%B8%B4%E9%82%9B%E5%8E%BF\">http:\/\/www.hudong.com\/wiki\/臨邛縣<\/a>，2012.01.06）",
		"lang":"中文",
		"shortAuthorityID":"PL35062",
		"names":"",
		"pinyin":[]
	},
	{
		"authorityID":"PL000000035063",
		"name":"臨邛",
		"dynasty":"西晉",
		"long":"103.4652",
		"lat":"30.4164",
		"districtHistorical":"西晉_益州",
		"districtModern":"中國-四川省-成都市-邛崍市",
		"note":null,
		"lang":"中文",
		"shortAuthorityID":"PL35063",
		"names":"",
		"pinyin":[]
	},
	{
		"authorityID":"PL000000035064",
		"name":"臨邛",
		"dynasty":"蜀漢",
		"long":"103.4652",
		"lat":"30.4164",
		"districtHistorical":"三國 蜀漢_益州",
		"districtModern":"中國-四川省-成都市-邛崍市",
		"note":null,
		"lang":"中文",
		"shortAuthorityID":"PL35064",
		"names":"",
		"pinyin":[]
	},
	{
		"authorityID":"PL000000035065",
		"name":"臨邛",
		"dynasty":"東漢",
		"long":"103.4652",
		"lat":"30.4164",
		"districtHistorical":"東漢_益州刺史部",
		"districtModern":"中國-四川省-成都市-邛崍市",
		"note":null,
		"lang":"中文",
		"shortAuthorityID":"PL35065",
		"names":"",
		"pinyin":[]
	},
	{
		"authorityID":"PL000000035066",
		"name":"臨邛",
		"dynasty":"西漢",
		"long":"103.4652",
		"lat":"30.4164",
		"districtHistorical":"西漢_益州刺史部",
		"districtModern":"中國-四川省-成都市-邛崍市",
		"note":null,
		"lang":"中文",
		"shortAuthorityID":"PL35066",
		"names":"",
		"pinyin":[]
	},
	{
		"authorityID":"PL000000035067",
		"name":"臨邛",
		"dynasty":"秦",
		"long":"103.4652",
		"lat":"30.4164",
		"districtHistorical":"秦_蜀郡",
		"districtModern":"中國-四川省-成都市-邛崍市",
		"note":null,
		"lang":"中文",
		"shortAuthorityID":"PL35067",
		"names":"",
		"pinyin":[]
	},
	{
		"authorityID":"PL000000035068",
		"name":"故馹鎮",
		"dynasty":"北宋",
		"long":"103.579",
		"lat":"30.3985",
		"districtHistorical":"北宋_成都府路",
		"districtModern":"中國-四川省-成都市-邛崍市",
		"note":null,
		"lang":"中文",
		"shortAuthorityID":"PL35068",
		"names":"",
		"pinyin":[]
	},
	{
		"authorityID":"PL000000035069",
		"name":"平樂鎮",
		"dynasty":"南宋",
		"long":"103.3187",
		"lat":"30.3909",
		"districtHistorical":"南宋_成都府路",
		"districtModern":"中國-四川省-成都市-邛崍市",
		"note":null,
		"lang":"中文",
		"shortAuthorityID":"PL35069",
		"names":"",
		"pinyin":[]
	},
	{
		"authorityID":"PL000000035070",
		"name":"平樂鋪",
		"dynasty":"清",
		"long":"103.3059",
		"lat":"30.3757",
		"districtHistorical":"清_四川",
		"districtModern":"中國-四川省-成都市-邛崍市",
		"note":null,
		"lang":"中文",
		"shortAuthorityID":"PL35070",
		"names":"",
		"pinyin":[]
	},
	{
		"authorityID":"PL000000035071",
		"name":"平樂鎮",
		"dynasty":"北宋",
		"long":"103.3293",
		"lat":"30.3756",
		"districtHistorical":"北宋_成都府路",
		"districtModern":"中國-四川省-成都市-邛崍市",
		"note":null,
		"lang":"中文",
		"shortAuthorityID":"PL35071",
		"names":"",
		"pinyin":[]
	},
	{
		"authorityID":"PL000000035072",
		"name":"蒲陽",
		"dynasty":"秦",
		"long":"103.6937",
		"lat":"30.3755",
		"districtHistorical":"秦_蜀郡",
		"districtModern":"中國-四川省-成都市-邛崍市",
		"note":null,
		"lang":"中文",
		"shortAuthorityID":"PL35072",
		"names":"",
		"pinyin":[]
	},
	{
		"authorityID":"PL000000035073",
		"name":"依政",
		"dynasty":"唐",
		"long":"103.7119",
		"lat":"30.355",
		"districtHistorical":"唐_劍南道",
		"districtModern":"中國-四川省-成都市-邛崍市",
		"note":null,
		"lang":"中文",
		"shortAuthorityID":"PL35073",
		"names":"",
		"pinyin":[]
	},
	{
		"authorityID":"PL000000035074",
		"name":"依政",
		"dynasty":"南宋",
		"long":"103.7226",
		"lat":"30.3518",
		"districtHistorical":"南宋_成都府路",
		"districtModern":"中國-四川省-成都市-邛崍市",
		"note":null,
		"lang":"中文",
		"shortAuthorityID":"PL35074",
		"names":"",
		"pinyin":[]
	},
	{
		"authorityID":"PL000000035075",
		"name":"依政",
		"dynasty":"隋",
		"long":"103.7134",
		"lat":"30.3425",
		"districtHistorical":"隋_臨邛郡",
		"districtModern":"中國-四川省-成都市-邛崍市",
		"note":null,
		"lang":"中文",
		"shortAuthorityID":"PL35075",
		"names":"",
		"pinyin":[]
	},
	{
		"authorityID":"PL000000035076",
		"name":"依政",
		"dynasty":"北宋",
		"long":"103.7121",
		"lat":"30.3389",
		"districtHistorical":"北宋_成都府路",
		"districtModern":"中國-四川省-成都市-邛崍市",
		"note":null,
		"lang":"中文",
		"shortAuthorityID":"PL35076",
		"names":"",
		"pinyin":[]
	},
	{
		"authorityID":"PL000000035077",
		"name":"夾門鎮",
		"dynasty":"北宋",
		"long":"103.2043",
		"lat":"30.3184",
		"districtHistorical":"北宋_成都府路",
		"districtModern":"中國-四川省-成都市-邛崍市",
		"note":null,
		"lang":"中文",
		"shortAuthorityID":"PL35077",
		"names":"",
		"pinyin":[]
	},
	{
		"authorityID":"PL000000035078",
		"name":"臨溪",
		"dynasty":"隋",
		"long":"103.3336",
		"lat":"30.3157",
		"districtHistorical":"隋_臨邛郡",
		"districtModern":"中國-四川省-成都市-邛崍市",
		"note":null,
		"lang":"中文",
		"shortAuthorityID":"PL35078",
		"names":"",
		"pinyin":[]
	},
	{
		"authorityID":"PL000000035079",
		"name":"臨溪",
		"dynasty":"唐",
		"long":"103.2903",
		"lat":"30.3093",
		"districtHistorical":"唐_劍南道",
		"districtModern":"中國-四川省-成都市-邛崍市",
		"note":null,
		"lang":"中文",
		"shortAuthorityID":"PL35079",
		"names":"",
		"pinyin":[]
	},
	{
		"authorityID":"PL000000035080",
		"name":"夾門關",
		"dynasty":"明",
		"long":"103.2051",
		"lat":"30.2965",
		"districtHistorical":"明_四川",
		"districtModern":"中國-四川省-成都市-邛崍市",
		"note":null,
		"lang":"中文",
		"shortAuthorityID":"PL35080",
		"names":"",
		"pinyin":[]
	},
	{
		"authorityID":"PL000000035081",
		"name":"夾門關",
		"dynasty":"清",
		"long":"103.1907",
		"lat":"30.2951",
		"districtHistorical":"清_四川",
		"districtModern":"中國-四川省-成都市-邛崍市",
		"note":null,
		"lang":"中文",
		"shortAuthorityID":"PL35081",
		"names":"",
		"pinyin":[]
	},
	{
		"authorityID":"PL000000035082",
		"name":"漢嘉郡",
		"dynasty":"前秦",
		"long":"103.1399",
		"lat":"30.2612",
		"districtHistorical":"前秦",
		"districtModern":"中國-四川省-成都市-邛崍市",
		"note":"三國蜀章武元年（221）改蜀郡屬國置，治漢嘉縣（今四川蘆山縣）。屬益州。轄境相當今四川省雅安、蘆山、名山、天全、滎經、漢源等市縣地。西晉永嘉後廢。（<a target=\"_blank\" href=\"http:\/\/zh.wikipedia.org\/wiki\/%E6%B1%89%E5%98%89%E9%83%A1\">http:\/\/zh.wikipedia.org\/wiki\/漢嘉郡<\/a>，2012.01.10）",
		"lang":"中文",
		"shortAuthorityID":"PL35082",
		"names":"",
		"pinyin":[]
	},
	{
		"authorityID":"PL000000035083",
		"name":"青衣",
		"dynasty":"西漢",
		"long":"103.1215",
		"lat":"30.2356",
		"districtHistorical":"西漢_益州刺史部",
		"districtModern":"中國-四川省-成都市-邛崍市",
		"note":null,
		"lang":"中文",
		"shortAuthorityID":"PL35083",
		"names":"",
		"pinyin":[]
	},
	{
		"authorityID":"PL000000035084",
		"name":"蜀郡屬國",
		"dynasty":"東漢",
		"long":"103.1224",
		"lat":"30.2296",
		"districtHistorical":"東漢_益州刺史部",
		"districtModern":"中國-四川省-成都市-邛崍市",
		"note":null,
		"lang":"中文",
		"shortAuthorityID":"PL35084",
		"names":"",
		"pinyin":[]
	},
	{
		"authorityID":"PL000000035085",
		"name":"漢嘉",
		"dynasty":"東漢",
		"long":"103.1224",
		"lat":"30.2296",
		"districtHistorical":"東漢_益州刺史部",
		"districtModern":"中國-四川省-成都市-邛崍市",
		"note":null,
		"lang":"中文",
		"shortAuthorityID":"PL35085",
		"names":"",
		"pinyin":[]
	},
	{
		"authorityID":"PL000000035086",
		"name":"邛州",
		"dynasty":"元",
		"long":"103.4652",
		"lat":"30.4164",
		"districtHistorical":"元_四川行省",
		"districtModern":"中國-四川省-成都市-邛崍市",
		"note":null,
		"lang":"中文",
		"shortAuthorityID":"PL35086",
		"names":"",
		"pinyin":{
			"邛州":"qióng zhōu"
		}
	},
	{
		"authorityID":"PL000000035087",
		"name":"都尉",
		"dynasty":"西漢",
		"long":"103.1215",
		"lat":"30.2356",
		"districtHistorical":"西漢_益州刺史部",
		"districtModern":"中國-四川省-成都市-邛崍市",
		"note":null,
		"lang":"中文",
		"shortAuthorityID":"PL35087",
		"names":"",
		"pinyin":[]
	},
	{
		"authorityID":"PL000000035088",
		"name":"洛口山",
		"dynasty":"唐",
		"long":"103.6752",
		"lat":"30.6326",
		"districtHistorical":null,
		"districtModern":"中國-四川省-成都市-崇州市",
		"note":"",
		"lang":"中文",
		"shortAuthorityID":"PL35088",
		"names":"",
		"pinyin":{
			"洛口山":"luò kǒu shān"
		}
	},
	{
		"authorityID":"PL000000035089",
		"name":"鳳林寺",
		"dynasty":null,
		"long":"103.550517",
		"lat":"30.80644",
		"districtHistorical":null,
		"districtModern":"中國-四川省-成都市-崇州市",
		"note":"（明清序：291）",
		"lang":"中文",
		"shortAuthorityID":"PL35089",
		"names":"",
		"pinyin":[]
	},
	{
		"authorityID":"PL000000035090",
		"name":"曇雲寺",
		"dynasty":null,
		"long":"103.68022",
		"lat":"30.626945",
		"districtHistorical":null,
		"districtModern":"中國-四川省-成都市-崇州市",
		"note":"（明清序：285）",
		"lang":"中文",
		"shortAuthorityID":"PL35090",
		"names":"",
		"pinyin":[]
	},
	{
		"authorityID":"PL000000035091",
		"name":"寶林寺",
		"dynasty":null,
		"long":"103.6752",
		"lat":"30.6326",
		"districtHistorical":null,
		"districtModern":"中國-四川省-成都市-崇州市",
		"note":"位於崇慶州東南四十里。（淵四．四川通志．卷二十八下：4）",
		"lang":"中文",
		"shortAuthorityID":"PL35091",
		"names":"",
		"pinyin":[]
	},
	{
		"authorityID":"PL000000035092",
		"name":"永康",
		"dynasty":"南宋",
		"long":"103.5548",
		"lat":"30.803",
		"districtHistorical":"南宋_成都府路",
		"districtModern":"中國-四川省-成都市-崇州市",
		"note":null,
		"lang":"中文",
		"shortAuthorityID":"PL35092",
		"names":"",
		"pinyin":[]
	},
	{
		"authorityID":"PL000000035093",
		"name":"永康",
		"dynasty":"北宋",
		"long":"103.5609",
		"lat":"30.7972",
		"districtHistorical":"北宋_成都府路",
		"districtModern":"中國-四川省-成都市-崇州市",
		"note":"唐先天元年（712）以唐隆縣改名，治今四川省崇州市東南江源鎮。屬蜀州。北宋開寶四年（971）改為江源縣。（<a target=\"_blank\" href=\"http:\/\/zh.wikipedia.org\/wiki\/%E5%94%90%E5%AE%89%E5%8E%BF\">http:\/\/zh.wikipedia.org\/wiki\/唐安縣<\/a>，2012.01.02）",
		"lang":"中文",
		"shortAuthorityID":"PL35093",
		"names":"[中文] 唐安",
		"pinyin":{
			"唐安":"táng ān"
		}
	},
	{
		"authorityID":"PL000000035094",
		"name":"懷遠鎮",
		"dynasty":"清",
		"long":"103.5381",
		"lat":"30.7485",
		"districtHistorical":"清_四川",
		"districtModern":"中國-四川省-成都市-崇州市",
		"note":null,
		"lang":"中文",
		"shortAuthorityID":"PL35094",
		"names":"",
		"pinyin":[]
	},
	{
		"authorityID":"PL000000035095",
		"name":"江原",
		"dynasty":"南齊",
		"long":"103.5452",
		"lat":"30.7361",
		"districtHistorical":"南朝 齊_益州",
		"districtModern":"中國-四川省-成都市-崇州市",
		"note":null,
		"lang":"中文",
		"shortAuthorityID":"PL35095",
		"names":"",
		"pinyin":{
			"江原":"jiāng yuán"
		}
	},
	{
		"authorityID":"PL000000035096",
		"name":"晉原郡",
		"dynasty":"南齊",
		"long":"103.5452",
		"lat":"30.7361",
		"districtHistorical":"南朝 齊_益州",
		"districtModern":"中國-四川省-成都市-崇州市",
		"note":null,
		"lang":"中文",
		"shortAuthorityID":"PL35096",
		"names":"",
		"pinyin":{
			"晉原郡":"jìn yuán jùn"
		}
	},
	{
		"authorityID":"PL000000035097",
		"name":"晉樂",
		"dynasty":"南齊",
		"long":"103.6251",
		"lat":"30.7304",
		"districtHistorical":"南朝 齊_益州",
		"districtModern":"中國-四川省-成都市-崇州市",
		"note":null,
		"lang":"中文",
		"shortAuthorityID":"PL35097",
		"names":"",
		"pinyin":[]
	},
	{
		"authorityID":"PL000000035098",
		"name":"漢原郡",
		"dynasty":"前秦",
		"long":"103.5304",
		"lat":"30.721",
		"districtHistorical":"前秦",
		"districtModern":"中國-四川省-成都市-崇州市",
		"note":null,
		"lang":"中文",
		"shortAuthorityID":"PL35098",
		"names":"",
		"pinyin":[]
	},
	{
		"authorityID":"PL000000035099",
		"name":"崇慶州",
		"dynasty":"清",
		"long":"103.6925",
		"lat":"30.6506",
		"districtHistorical":"清_四川",
		"districtModern":"中國-四川省-成都市-崇州市",
		"note":null,
		"lang":"中文",
		"shortAuthorityID":"PL35099",
		"names":"",
		"pinyin":[]
	},
	{
		"authorityID":"PL000000035100",
		"name":"崇慶州",
		"dynasty":"明",
		"long":"103.681",
		"lat":"30.6363",
		"districtHistorical":"明_四川",
		"districtModern":"中國-四川省-成都市-崇州市",
		"note":"",
		"lang":"中文",
		"shortAuthorityID":"PL35100",
		"names":"[中文] 唐安",
		"pinyin":{
			"唐安":"táng ān"
		}
	},
	{
		"authorityID":"PL000000035101",
		"name":"晉原",
		"dynasty":"元",
		"long":"103.681",
		"lat":"30.6363",
		"districtHistorical":"元_四川行省",
		"districtModern":"中國-四川省-成都市-崇州市",
		"note":null,
		"lang":"中文",
		"shortAuthorityID":"PL35101",
		"names":"",
		"pinyin":{
			"晉原":"jìn yuán"
		}
	},
	{
		"authorityID":"PL000000035102",
		"name":"晉源",
		"dynasty":"南宋",
		"long":"103.681",
		"lat":"30.6363",
		"districtHistorical":"南宋_成都府路",
		"districtModern":"中國-四川省-成都市-崇州市",
		"note":null,
		"lang":"中文",
		"shortAuthorityID":"PL35102",
		"names":"",
		"pinyin":{
			"晉源":"jìn yuán"
		}
	},
	{
		"authorityID":"PL000000035103",
		"name":"崇慶府",
		"dynasty":"南宋",
		"long":"103.681",
		"lat":"30.6363",
		"districtHistorical":"南宋_成都府路",
		"districtModern":"中國-四川省-成都市-崇州市",
		"note":"南宋紹興十四年（1144），升蜀州為崇慶軍，孝宗淳熙四年（1177）再升為崇慶府。（<a target=\"_blank\" href=\"http:\/\/baike.baidu.com\/view\/690779.htm\">http:\/\/baike.baidu.com\/view\/690779.htm<\/a>，2012.11.09）",
		"lang":"中文",
		"shortAuthorityID":"PL35103",
		"names":"[中文] 蜀州,崇慶軍,蜀郡",
		"pinyin":{
			"蜀州":"shǔ zhōu",
			"蜀郡":"shǔ jùn"
		}
	},
	{
		"authorityID":"PL000000035104",
		"name":"晉原",
		"dynasty":"北宋",
		"long":"103.681",
		"lat":"30.6363",
		"districtHistorical":"北宋_成都府路",
		"districtModern":"中國-四川省-成都市-崇州市",
		"note":null,
		"lang":"中文",
		"shortAuthorityID":"PL35104",
		"names":"",
		"pinyin":{
			"晉原":"jìn yuán"
		}
	},
	{
		"authorityID":"PL000000035105",
		"name":"蜀州",
		"dynasty":"北宋",
		"long":"103.681",
		"lat":"30.6363",
		"districtHistorical":"北宋_成都府路",
		"districtModern":"中國-四川省-成都市-崇州市",
		"note":"武則天垂拱二年（686）至五代 ，析益州地置蜀州，蜀州轄晉原、唐隆、清城、新津4縣。北宋繼稱蜀州，下轄晉原、江源、永康、新津4縣，統領青城僅有短暫的三段時期。（<a target=\"_blank\" href=\"http:\/\/baike.baidu.com\/view\/690779.htm\">http:\/\/baike.baidu.com\/view\/690779.htm<\/a>，2011.12.13）",
		"lang":"中文",
		"shortAuthorityID":"PL35105",
		"names":"[中文] 蜀",
		"pinyin":{
			"蜀州":"shǔ zhōu",
			"蜀":"shǔ"
		}
	},
	{
		"authorityID":"PL000000035106",
		"name":"晉原",
		"dynasty":"唐",
		"long":"103.681",
		"lat":"30.6363",
		"districtHistorical":"唐_劍南道",
		"districtModern":"中國-四川省-成都市-崇州市",
		"note":null,
		"lang":"中文",
		"shortAuthorityID":"PL35106",
		"names":"",
		"pinyin":{
			"晉原":"jìn yuán"
		}
	},
	{
		"authorityID":"PL000000035107",
		"name":"蜀州",
		"dynasty":"唐",
		"long":"103.681",
		"lat":"30.6363",
		"districtHistorical":"唐_劍南道",
		"districtModern":"中國-四川省-成都市-崇州市",
		"note":"垂拱二年，分益州四縣置。天寶元年，改為唐安郡。乾元元年，復為蜀州也。（<a target=\"_blank\" href=\"http:\/\/zh.wikisource.org\/zh-hant\/%E8%88%8A%E5%94%90%E6%9B%B8\/%E5%8D%B741\">http:\/\/zh.wikisource.org\/zh-hant\/%E8%88%8A%E5%94%90%E6%9B%B8\/%E5%8D%B741<\/a>，2012.09.10）",
		"lang":"中文",
		"shortAuthorityID":"PL35107",
		"names":"[中文] 井絡,唐安郡",
		"pinyin":{
			"蜀州":"shǔ zhōu",
			"唐安郡":"táng ān jùn"
		}
	},
	{
		"authorityID":"PL000000035108",
		"name":"晉原",
		"dynasty":"隋",
		"long":"103.681",
		"lat":"30.6363",
		"districtHistorical":"隋_蜀郡",
		"districtModern":"中國-四川省-成都市-崇州市",
		"note":null,
		"lang":"中文",
		"shortAuthorityID":"PL35108",
		"names":"",
		"pinyin":{
			"晉原":"jìn yuán"
		}
	},
	{
		"authorityID":"PL000000035109",
		"name":"江原",
		"dynasty":"南宋",
		"long":"103.7627",
		"lat":"30.6001",
		"districtHistorical":"南宋_成都府路",
		"districtModern":"中國-四川省-成都市-崇州市",
		"note":null,
		"lang":"中文",
		"shortAuthorityID":"PL35109",
		"names":"",
		"pinyin":{
			"江原":"jiāng yuán"
		}
	},
	{
		"authorityID":"PL000000035110",
		"name":"江原",
		"dynasty":"北宋",
		"long":"103.7627",
		"lat":"30.6001",
		"districtHistorical":"北宋_成都府路",
		"districtModern":"中國-四川省-成都市-崇州市",
		"note":null,
		"lang":"中文",
		"shortAuthorityID":"PL35110",
		"names":"",
		"pinyin":{
			"江原":"jiāng yuán"
		}
	},
	{
		"authorityID":"PL000000035111",
		"name":"唐安",
		"dynasty":"唐",
		"long":"103.775",
		"lat":"30.5996",
		"districtHistorical":"唐_劍南道",
		"districtModern":"中國-四川省-成都市-崇州市",
		"note":null,
		"lang":"中文",
		"shortAuthorityID":"PL35111",
		"names":"",
		"pinyin":{
			"唐安":"táng ān"
		}
	},
	{
		"authorityID":"PL000000035112",
		"name":"延貢寨",
		"dynasty":"南宋",
		"long":"103.6125",
		"lat":"30.5882",
		"districtHistorical":"南宋_成都府路",
		"districtModern":"中國-四川省-成都市-崇州市",
		"note":null,
		"lang":"中文",
		"shortAuthorityID":"PL35112",
		"names":"",
		"pinyin":[]
	},
	{
		"authorityID":"PL000000035113",
		"name":"金馬鎮",
		"dynasty":"北宋",
		"long":"103.7724",
		"lat":"30.5796",
		"districtHistorical":"北宋_成都府路",
		"districtModern":"中國-四川省-成都市-崇州市",
		"note":null,
		"lang":"中文",
		"shortAuthorityID":"PL35113",
		"names":"",
		"pinyin":[]
	},
	{
		"authorityID":"PL000000035114",
		"name":"臨邛",
		"dynasty":"南齊",
		"long":"103.7716",
		"lat":"30.5613",
		"districtHistorical":"南朝 齊_益州",
		"districtModern":"中國-四川省-成都市-崇州市",
		"note":"秦惠更元九年（前316）置臨邛縣（今四川邛崍市臨邛鎮），屬蜀郡。唐武德元年（618），將臨邛郡改置雅州。同年不久，又恢復邛州。天寶元年（742）將邛州改為臨邛郡。肅宗乾元元年（758）又改臨邛郡為邛州，臨邛縣先後屬之。顯慶二年（657）將邛州治所從依政縣移至臨邛縣。（<a target=\"_blank\" href=\"http:\/\/www.hudong.com\/wiki\/%E4%B8%B4%E9%82%9B%E5%8E%BF\">http:\/\/www.hudong.com\/wiki\/臨邛縣<\/a>，2012.09.20）",
		"lang":"中文",
		"shortAuthorityID":"PL35114",
		"names":"",
		"pinyin":[]
	},
	{
		"authorityID":"PL000000035115",
		"name":"延貢寨",
		"dynasty":"北宋",
		"long":"103.5857",
		"lat":"30.5599",
		"districtHistorical":"北宋_成都府路",
		"districtModern":"中國-四川省-成都市-崇州市",
		"note":null,
		"lang":"中文",
		"shortAuthorityID":"PL35115",
		"names":"",
		"pinyin":[]
	},
	{
		"authorityID":"PL000000035116",
		"name":"安仁",
		"dynasty":"唐",
		"long":"103.6222",
		"lat":"30.5468",
		"districtHistorical":"唐_劍南道",
		"districtModern":"中國-四川省-成都市-崇州市",
		"note":null,
		"lang":"中文",
		"shortAuthorityID":"PL35116",
		"names":"",
		"pinyin":{
			"安仁":"ān rén"
		}
	},
	{
		"authorityID":"PL000000035117",
		"name":"崇慶州",
		"dynasty":"元",
		"long":"103.681",
		"lat":"30.6363",
		"districtHistorical":"元_四川行省",
		"districtModern":"中國-四川省-成都市-崇州市",
		"note":null,
		"lang":"中文",
		"shortAuthorityID":"PL35117",
		"names":"",
		"pinyin":[]
	},
	{
		"authorityID":"PL000000035118",
		"name":"貢井鎮",
		"dynasty":"清",
		"long":"104.726",
		"lat":"29.3548",
		"districtHistorical":"清_四川",
		"districtModern":"中國-四川省-自貢市-貢井區",
		"note":null,
		"lang":"中文",
		"shortAuthorityID":"PL35118",
		"names":"",
		"pinyin":[]
	},
	{
		"authorityID":"PL000000035119",
		"name":"自流井",
		"dynasty":"清",
		"long":"104.7843",
		"lat":"29.3699",
		"districtHistorical":"清_四川",
		"districtModern":"中國-四川省-自貢市-大安區",
		"note":null,
		"lang":"中文",
		"shortAuthorityID":"PL35119",
		"names":"",
		"pinyin":[]
	},
	{
		"authorityID":"PL000000035120",
		"name":"和義縣",
		"dynasty":"隋",
		"long":"104.9444",
		"lat":"29.4113",
		"districtHistorical":"隋_資陽郡",
		"districtModern":"中國-四川省-自貢市-大安區",
		"note":null,
		"lang":"中文",
		"shortAuthorityID":"PL35120",
		"names":"",
		"pinyin":[]
	},
	{
		"authorityID":"PL000000035121",
		"name":"和義",
		"dynasty":"唐",
		"long":"104.9443",
		"lat":"29.4019",
		"districtHistorical":"唐_劍南道",
		"districtModern":"中國-四川省-自貢市-大安區",
		"note":null,
		"lang":"中文",
		"shortAuthorityID":"PL35121",
		"names":"",
		"pinyin":[]
	},
	{
		"authorityID":"PL000000035122",
		"name":"賴易鎮",
		"dynasty":"北宋",
		"long":"104.739",
		"lat":"29.2126",
		"districtHistorical":"北宋_梓州路",
		"districtModern":"中國-四川省-自貢市-沿灘區",
		"note":null,
		"lang":"中文",
		"shortAuthorityID":"PL35122",
		"names":"",
		"pinyin":[]
	},
	{
		"authorityID":"PL000000035123",
		"name":"臨江鎮",
		"dynasty":"北宋",
		"long":"104.8861",
		"lat":"29.2156",
		"districtHistorical":"北宋_梓州路",
		"districtModern":"中國-四川省-自貢市-沿灘區",
		"note":null,
		"lang":"中文",
		"shortAuthorityID":"PL35123",
		"names":"",
		"pinyin":[]
	},
	{
		"authorityID":"PL000000035124",
		"name":"賴井鎮",
		"dynasty":"北宋",
		"long":"104.8026",
		"lat":"29.2009",
		"districtHistorical":"北宋_梓州路",
		"districtModern":"中國-四川省-自貢市-沿灘區",
		"note":null,
		"lang":"中文",
		"shortAuthorityID":"PL35124",
		"names":"",
		"pinyin":[]
	},
	{
		"authorityID":"PL000000035125",
		"name":"鼓井鎮",
		"dynasty":"北宋",
		"long":"104.8792",
		"lat":"29.1551",
		"districtHistorical":"北宋_梓州路",
		"districtModern":"中國-四川省-自貢市-沿灘區",
		"note":null,
		"lang":"中文",
		"shortAuthorityID":"PL35125",
		"names":"",
		"pinyin":[]
	},
	{
		"authorityID":"PL000000035126",
		"name":"茆頭鎮",
		"dynasty":"北宋",
		"long":"104.7585",
		"lat":"29.259",
		"districtHistorical":"北宋_梓州路",
		"districtModern":"中國-四川省-自貢市-沿灘區",
		"note":null,
		"lang":"中文",
		"shortAuthorityID":"PL35126",
		"names":"",
		"pinyin":[]
	},
	{
		"authorityID":"PL000000035127",
		"name":"榮德山",
		"dynasty":null,
		"long":"104.496029",
		"lat":"29.586307",
		"districtHistorical":null,
		"districtModern":"中國-四川省-自貢市-榮縣",
		"note":"在榮縣東北，與威遠縣接界。（中地：1095）",
		"lang":"中文",
		"shortAuthorityID":"PL35127",
		"names":"[中文] 老君山",
		"pinyin":{
			"榮德山":"róng dé shān",
			"老君山":"lǎo jūn shān"
		}
	},
	{
		"authorityID":"PL000000035128",
		"name":"賴牟鎮",
		"dynasty":"清",
		"long":"104.2086",
		"lat":"29.5209",
		"districtHistorical":"清_四川",
		"districtModern":"中國-四川省-自貢市-榮縣",
		"note":null,
		"lang":"中文",
		"shortAuthorityID":"PL35128",
		"names":"",
		"pinyin":[]
	},
	{
		"authorityID":"PL000000035129",
		"name":"賴牟鎮",
		"dynasty":"北宋",
		"long":"104.1635",
		"lat":"29.5133",
		"districtHistorical":"北宋_梓州路",
		"districtModern":"中國-四川省-自貢市-榮縣",
		"note":null,
		"lang":"中文",
		"shortAuthorityID":"PL35129",
		"names":"",
		"pinyin":[]
	},
	{
		"authorityID":"PL000000035130",
		"name":"高山鋪",
		"dynasty":"清",
		"long":"104.5348",
		"lat":"29.4726",
		"districtHistorical":"清_四川",
		"districtModern":"中國-四川省-自貢市-榮縣",
		"note":null,
		"lang":"中文",
		"shortAuthorityID":"PL35130",
		"names":"",
		"pinyin":[]
	},
	{
		"authorityID":"PL000000035131",
		"name":"榮縣",
		"dynasty":"清",
		"long":"104.4287",
		"lat":"29.4636",
		"districtHistorical":"清_四川",
		"districtModern":"中國-四川省-自貢市-榮縣",
		"note":null,
		"lang":"中文",
		"shortAuthorityID":"PL35131",
		"names":"",
		"pinyin":[]
	},
	{
		"authorityID":"PL000000035132",
		"name":"榮縣",
		"dynasty":"明",
		"long":"104.4287",
		"lat":"29.4636",
		"districtHistorical":"明_四川",
		"districtModern":"中國-四川省-自貢市-榮縣",
		"note":null,
		"lang":"中文",
		"shortAuthorityID":"PL35132",
		"names":"",
		"pinyin":[]
	},
	{
		"authorityID":"PL000000035133",
		"name":"榮州",
		"dynasty":"元",
		"long":"104.4287",
		"lat":"29.4636",
		"districtHistorical":"元_四川行省",
		"districtModern":"中國-四川省-自貢市-榮縣",
		"note":null,
		"lang":"中文",
		"shortAuthorityID":"PL35133",
		"names":"",
		"pinyin":{
			"榮州":"róng zhōu"
		}
	},
	{
		"authorityID":"PL000000035134",
		"name":"紹熙府",
		"dynasty":"南宋",
		"long":"104.4287",
		"lat":"29.4636",
		"districtHistorical":"南宋_潼川府路",
		"districtModern":"中國-四川省-自貢市-榮縣",
		"note":null,
		"lang":"中文",
		"shortAuthorityID":"PL35134",
		"names":"",
		"pinyin":[]
	},
	{
		"authorityID":"PL000000035135",
		"name":"榮德",
		"dynasty":"南宋",
		"long":"104.4287",
		"lat":"29.4636",
		"districtHistorical":"南宋_潼川府路",
		"districtModern":"中國-四川省-自貢市-榮縣",
		"note":null,
		"lang":"中文",
		"shortAuthorityID":"PL35135",
		"names":"",
		"pinyin":{
			"榮德":"róng dé"
		}
	},
	{
		"authorityID":"PL000000035136",
		"name":"榮州",
		"dynasty":"北宋",
		"long":"104.4287",
		"lat":"29.4636",
		"districtHistorical":"北宋_梓州路",
		"districtModern":"中國-四川省-自貢市-榮縣",
		"note":null,
		"lang":"中文",
		"shortAuthorityID":"PL35136",
		"names":"",
		"pinyin":{
			"榮州":"róng zhōu"
		}
	},
	{
		"authorityID":"PL000000035137",
		"name":"榮德",
		"dynasty":"北宋",
		"long":"104.4287",
		"lat":"29.4636",
		"districtHistorical":"北宋_梓州路",
		"districtModern":"中國-四川省-自貢市-榮縣",
		"note":null,
		"lang":"中文",
		"shortAuthorityID":"PL35137",
		"names":"",
		"pinyin":{
			"榮德":"róng dé"
		}
	},
	{
		"authorityID":"PL000000035138",
		"name":"旭川",
		"dynasty":"唐",
		"long":"104.4287",
		"lat":"29.4636",
		"districtHistorical":"唐_劍南道",
		"districtModern":"中國-四川省-自貢市-榮縣",
		"note":null,
		"lang":"中文",
		"shortAuthorityID":"PL35138",
		"names":"",
		"pinyin":{
			"旭川":"xù chuān"
		}
	},
	{
		"authorityID":"PL000000035139",
		"name":"榮州",
		"dynasty":"唐",
		"long":"104.4287",
		"lat":"29.4636",
		"districtHistorical":"唐_劍南道",
		"districtModern":"中國-四川省-自貢市-榮縣",
		"note":null,
		"lang":"中文",
		"shortAuthorityID":"PL35139",
		"names":"",
		"pinyin":{
			"榮州":"róng zhōu"
		}
	},
	{
		"authorityID":"PL000000035140",
		"name":"大牢",
		"dynasty":"隋",
		"long":"104.4287",
		"lat":"29.4636",
		"districtHistorical":"隋_資陽郡",
		"districtModern":"中國-四川省-自貢市-榮縣",
		"note":null,
		"lang":"中文",
		"shortAuthorityID":"PL35140",
		"names":"",
		"pinyin":[]
	},
	{
		"authorityID":"PL000000035141",
		"name":"應靈",
		"dynasty":"北宋",
		"long":"104.1182",
		"lat":"29.4486",
		"districtHistorical":"北宋_梓州路",
		"districtModern":"中國-四川省-自貢市-榮縣",
		"note":null,
		"lang":"中文",
		"shortAuthorityID":"PL35141",
		"names":"",
		"pinyin":[]
	},
	{
		"authorityID":"PL000000035142",
		"name":"應靈",
		"dynasty":"南宋",
		"long":"104.1411",
		"lat":"29.4424",
		"districtHistorical":"南宋_潼川府路",
		"districtModern":"中國-四川省-自貢市-榮縣",
		"note":null,
		"lang":"中文",
		"shortAuthorityID":"PL35142",
		"names":"",
		"pinyin":[]
	},
	{
		"authorityID":"PL000000035143",
		"name":"大牢",
		"dynasty":"唐",
		"long":"104.1459",
		"lat":"29.4361",
		"districtHistorical":"唐_劍南道",
		"districtModern":"中國-四川省-自貢市-榮縣",
		"note":null,
		"lang":"中文",
		"shortAuthorityID":"PL35143",
		"names":"",
		"pinyin":[]
	},
	{
		"authorityID":"PL000000035144",
		"name":"樂德鎮",
		"dynasty":"清",
		"long":"104.4369",
		"lat":"29.3654",
		"districtHistorical":"清_四川",
		"districtModern":"中國-四川省-自貢市-榮縣",
		"note":null,
		"lang":"中文",
		"shortAuthorityID":"PL35144",
		"names":"",
		"pinyin":[]
	},
	{
		"authorityID":"PL000000035145",
		"name":"龍臺鎮",
		"dynasty":"北宋",
		"long":"104.5928",
		"lat":"29.308",
		"districtHistorical":"北宋_梓州路",
		"districtModern":"中國-四川省-自貢市-榮縣",
		"note":null,
		"lang":"中文",
		"shortAuthorityID":"PL35145",
		"names":"",
		"pinyin":[]
	},
	{
		"authorityID":"PL000000035146",
		"name":"龍臺鎮",
		"dynasty":"南宋",
		"long":"104.5885",
		"lat":"29.3014",
		"districtHistorical":"南宋_潼川府路",
		"districtModern":"中國-四川省-自貢市-榮縣",
		"note":null,
		"lang":"中文",
		"shortAuthorityID":"PL35146",
		"names":"",
		"pinyin":[]
	},
	{
		"authorityID":"PL000000035147",
		"name":"來蘇鎮",
		"dynasty":"北宋",
		"long":"104.4342",
		"lat":"29.291",
		"districtHistorical":"北宋_梓州路",
		"districtModern":"中國-四川省-自貢市-榮縣",
		"note":null,
		"lang":"中文",
		"shortAuthorityID":"PL35147",
		"names":"",
		"pinyin":[]
	},
	{
		"authorityID":"PL000000035148",
		"name":"賴遠鎮",
		"dynasty":"北宋",
		"long":"104.3328",
		"lat":"29.2573",
		"districtHistorical":"北宋_梓州路",
		"districtModern":"中國-四川省-自貢市-榮縣",
		"note":null,
		"lang":"中文",
		"shortAuthorityID":"PL35148",
		"names":"",
		"pinyin":[]
	},
	{
		"authorityID":"PL000000035149",
		"name":"五保鎮",
		"dynasty":"清",
		"long":"104.5397",
		"lat":"29.2371",
		"districtHistorical":"清_四川",
		"districtModern":"中國-四川省-自貢市-榮縣",
		"note":null,
		"lang":"中文",
		"shortAuthorityID":"PL35149",
		"names":"",
		"pinyin":[]
	},
	{
		"authorityID":"PL000000035150",
		"name":"中嚴寺",
		"dynasty":null,
		"long":"104.989844",
		"lat":"29.189343",
		"districtHistorical":null,
		"districtModern":"中國-四川省-自貢市-富順縣",
		"note":"（明清序：279）",
		"lang":"中文",
		"shortAuthorityID":"PL35150",
		"names":"",
		"pinyin":[]
	},
	{
		"authorityID":"PL000000035151",
		"name":"高市鎮",
		"dynasty":"北宋",
		"long":"105.0163",
		"lat":"29.396",
		"districtHistorical":"北宋_梓州路",
		"districtModern":"中國-四川省-自貢市-富順縣",
		"note":null,
		"lang":"中文",
		"shortAuthorityID":"PL35151",
		"names":"",
		"pinyin":[]
	},
	{
		"authorityID":"PL000000035152",
		"name":"戰井鎮",
		"dynasty":"北宋",
		"long":"105.1511",
		"lat":"29.2276",
		"districtHistorical":"北宋_梓州路",
		"districtModern":"中國-四川省-自貢市-富順縣",
		"note":null,
		"lang":"中文",
		"shortAuthorityID":"PL35152",
		"names":"",
		"pinyin":[]
	},
	{
		"authorityID":"PL000000035153",
		"name":"戴家寺鋪",
		"dynasty":"清",
		"long":"105.1393",
		"lat":"29.2211",
		"districtHistorical":"清_四川",
		"districtModern":"中國-四川省-自貢市-富順縣",
		"note":null,
		"lang":"中文",
		"shortAuthorityID":"PL35153",
		"names":"",
		"pinyin":[]
	},
	{
		"authorityID":"PL000000035154",
		"name":"富順",
		"dynasty":"清",
		"long":"104.9966",
		"lat":"29.1883",
		"districtHistorical":"清_四川",
		"districtModern":"中國-四川省-自貢市-富順縣",
		"note":null,
		"lang":"中文",
		"shortAuthorityID":"PL35154",
		"names":"",
		"pinyin":{
			"富順":"fù shùn"
		}
	},
	{
		"authorityID":"PL000000035155",
		"name":"富順",
		"dynasty":"明",
		"long":"104.9966",
		"lat":"29.1883",
		"districtHistorical":"明_四川",
		"districtModern":"中國-四川省-自貢市-富順縣",
		"note":"原為古代江陽縣治域。北宋治平初置，熙寧初廢。元至元二十年升富順監安撫司置。明初降富順州為縣。地處四川盆地南部、沱江下游，東鄰隆昌，西靠沿灘，南接瀘州，東北與隆昌臨界，西北與自貢大安區相連，西南與宜賓接壤。（歷地魏：1147；<a target=\"_blank\" href=\"http:\/\/baike.baidu.com\/view\/59298.htm\">http:\/\/baike.baidu.com\/view\/59298.htm<\/a>，2011.05.26）",
		"lang":"中文",
		"shortAuthorityID":"PL35155",
		"names":"",
		"pinyin":{
			"富順":"fù shùn"
		}
	},
	{
		"authorityID":"PL000000035156",
		"name":"富順州",
		"dynasty":"元",
		"long":"104.9966",
		"lat":"29.1883",
		"districtHistorical":"元_四川行省",
		"districtModern":"中國-四川省-自貢市-富順縣",
		"note":null,
		"lang":"中文",
		"shortAuthorityID":"PL35156",
		"names":"",
		"pinyin":{
			"富順州":"fù shùn zhōu"
		}
	},
	{
		"authorityID":"PL000000035157",
		"name":"富順監",
		"dynasty":"南宋",
		"long":"104.9966",
		"lat":"29.1883",
		"districtHistorical":"南宋_潼川府路",
		"districtModern":"中國-四川省-自貢市-富順縣",
		"note":null,
		"lang":"中文",
		"shortAuthorityID":"PL35157",
		"names":"",
		"pinyin":[]
	},
	{
		"authorityID":"PL000000035158",
		"name":"富順監",
		"dynasty":"北宋",
		"long":"104.9966",
		"lat":"29.1883",
		"districtHistorical":"北宋_梓州路",
		"districtModern":"中國-四川省-自貢市-富順縣",
		"note":"富順縣，唐改曰富義。宋升為富義監。改曰富順監。（中地：890）",
		"lang":"中文",
		"shortAuthorityID":"PL35158",
		"names":"[中文] 富義",
		"pinyin":[]
	},
	{
		"authorityID":"PL000000035159",
		"name":"富義",
		"dynasty":"唐",
		"long":"104.9966",
		"lat":"29.1883",
		"districtHistorical":"唐_劍南道",
		"districtModern":"中國-四川省-自貢市-富順縣",
		"note":null,
		"lang":"中文",
		"shortAuthorityID":"PL35159",
		"names":"",
		"pinyin":[]
	},
	{
		"authorityID":"PL000000035160",
		"name":"富世",
		"dynasty":"隋",
		"long":"104.9966",
		"lat":"29.1883",
		"districtHistorical":"隋_瀘川郡",
		"districtModern":"中國-四川省-自貢市-富順縣",
		"note":null,
		"lang":"中文",
		"shortAuthorityID":"PL35160",
		"names":"",
		"pinyin":{
			"富世":"fù shì"
		}
	},
	{
		"authorityID":"PL000000035161",
		"name":"鄧井鎮",
		"dynasty":"北宋",
		"long":"104.955",
		"lat":"29.1817",
		"districtHistorical":"北宋_梓州路",
		"districtModern":"中國-四川省-自貢市-富順縣",
		"note":null,
		"lang":"中文",
		"shortAuthorityID":"PL35161",
		"names":"",
		"pinyin":[]
	},
	{
		"authorityID":"PL000000035162",
		"name":"鄧井關",
		"dynasty":"清",
		"long":"104.9572",
		"lat":"29.1751",
		"districtHistorical":"清_四川",
		"districtModern":"中國-四川省-自貢市-富順縣",
		"note":null,
		"lang":"中文",
		"shortAuthorityID":"PL35162",
		"names":"",
		"pinyin":[]
	},
	{
		"authorityID":"PL000000035163",
		"name":"真溪鎮",
		"dynasty":"北宋",
		"long":"104.9548",
		"lat":"29.1262",
		"districtHistorical":"北宋_梓州路",
		"districtModern":"中國-四川省-自貢市-富順縣",
		"note":null,
		"lang":"中文",
		"shortAuthorityID":"PL35163",
		"names":"",
		"pinyin":[]
	},
	{
		"authorityID":"PL000000035164",
		"name":"越化鎮",
		"dynasty":"明",
		"long":"105.1252",
		"lat":"29.0146",
		"districtHistorical":"明_四川",
		"districtModern":"中國-四川省-自貢市-富順縣",
		"note":null,
		"lang":"中文",
		"shortAuthorityID":"PL35164",
		"names":"",
		"pinyin":[]
	},
	{
		"authorityID":"PL000000035165",
		"name":"趙化鎮",
		"dynasty":"清",
		"long":"105.1218",
		"lat":"29.0082",
		"districtHistorical":"清_四川",
		"districtModern":"中國-四川省-自貢市-富順縣",
		"note":null,
		"lang":"中文",
		"shortAuthorityID":"PL35165",
		"names":"",
		"pinyin":[]
	},
	{
		"authorityID":"PL000000035166",
		"name":"魚乍江",
		"dynasty":"清",
		"long":"101.4675",
		"lat":"26.5601",
		"districtHistorical":"清_雲南",
		"districtModern":"中國-四川省-攀枝花市-西區",
		"note":null,
		"lang":"中文",
		"shortAuthorityID":"PL35166",
		"names":"",
		"pinyin":[]
	},
	{
		"authorityID":"PL000000035167",
		"name":"馬喇司",
		"dynasty":"清",
		"long":"101.6431",
		"lat":"26.7095",
		"districtHistorical":"清_四川",
		"districtModern":"中國-四川省-攀枝花市-仁和區",
		"note":null,
		"lang":"中文",
		"shortAuthorityID":"PL35167",
		"names":"",
		"pinyin":[]
	},
	{
		"authorityID":"PL000000035168",
		"name":"馬喇司",
		"dynasty":"明",
		"long":"101.6254",
		"lat":"26.7319",
		"districtHistorical":"明_四川",
		"districtModern":"中國-四川省-攀枝花市-仁和區",
		"note":null,
		"lang":"中文",
		"shortAuthorityID":"PL35168",
		"names":"",
		"pinyin":[]
	},
	{
		"authorityID":"PL000000035169",
		"name":"十部",
		"dynasty":"唐",
		"long":"101.6105",
		"lat":"26.4289",
		"districtHistorical":"唐_劍南道",
		"districtModern":"中國-四川省-攀枝花市-仁和區",
		"note":null,
		"lang":"中文",
		"shortAuthorityID":"PL35169",
		"names":"",
		"pinyin":[]
	},
	{
		"authorityID":"PL000000035170",
		"name":"俄準添館",
		"dynasty":"唐",
		"long":"102.2381",
		"lat":"27.1078",
		"districtHistorical":"唐_劍南道",
		"districtModern":"中國-四川省-攀枝花市-米易縣",
		"note":null,
		"lang":"中文",
		"shortAuthorityID":"PL35170",
		"names":"",
		"pinyin":[]
	},
	{
		"authorityID":"PL000000035171",
		"name":"普濟司",
		"dynasty":"明",
		"long":"101.9795",
		"lat":"27.0561",
		"districtHistorical":"明_四川",
		"districtModern":"中國-四川省-攀枝花市-米易縣",
		"note":null,
		"lang":"中文",
		"shortAuthorityID":"PL35171",
		"names":"",
		"pinyin":[]
	},
	{
		"authorityID":"PL000000035172",
		"name":"普濟州",
		"dynasty":"元",
		"long":"101.9795",
		"lat":"27.0561",
		"districtHistorical":"元_雲南行省",
		"districtModern":"中國-四川省-攀枝花市-米易縣",
		"note":null,
		"lang":"中文",
		"shortAuthorityID":"PL35172",
		"names":"",
		"pinyin":[]
	},
	{
		"authorityID":"PL000000035173",
		"name":"普濟州司",
		"dynasty":"清",
		"long":"101.9797",
		"lat":"27.0488",
		"districtHistorical":"清_四川",
		"districtModern":"中國-四川省-攀枝花市-米易縣",
		"note":null,
		"lang":"中文",
		"shortAuthorityID":"PL35173",
		"names":"",
		"pinyin":[]
	},
	{
		"authorityID":"PL000000035174",
		"name":"米易所",
		"dynasty":"清",
		"long":"102.1197",
		"lat":"26.8886",
		"districtHistorical":"清_四川",
		"districtModern":"中國-四川省-攀枝花市-米易縣",
		"note":null,
		"lang":"中文",
		"shortAuthorityID":"PL35174",
		"names":"",
		"pinyin":{
			"米易所":"mǐ yì suǒ"
		}
	},
	{
		"authorityID":"PL000000035175",
		"name":"明夷站",
		"dynasty":"元",
		"long":"102.1197",
		"lat":"26.8886",
		"districtHistorical":"元_雲南行省",
		"districtModern":"中國-四川省-攀枝花市-米易縣",
		"note":null,
		"lang":"中文",
		"shortAuthorityID":"PL35175",
		"names":"",
		"pinyin":[]
	},
	{
		"authorityID":"PL000000035176",
		"name":"會川府",
		"dynasty":"大理",
		"long":"102.112",
		"lat":"26.6942",
		"districtHistorical":"大理",
		"districtModern":"中國-四川省-攀枝花市-米易縣",
		"note":null,
		"lang":"中文",
		"shortAuthorityID":"PL35176",
		"names":"",
		"pinyin":[]
	},
	{
		"authorityID":"PL000000035177",
		"name":"迷易所",
		"dynasty":"明",
		"long":"102.1197",
		"lat":"26.8886",
		"districtHistorical":"明_四川",
		"districtModern":"中國-四川省-攀枝花市-米易縣",
		"note":null,
		"lang":"中文",
		"shortAuthorityID":"PL35177",
		"names":"",
		"pinyin":[]
	},
	{
		"authorityID":"PL000000035178",
		"name":"華坪縣",
		"dynasty":"清",
		"long":"101.2134",
		"lat":"27.0262",
		"districtHistorical":"清_雲南",
		"districtModern":"中國-四川省-攀枝花市-鹽邊縣",
		"note":null,
		"lang":"中文",
		"shortAuthorityID":"PL35178",
		"names":"",
		"pinyin":[]
	},
	{
		"authorityID":"PL000000035179",
		"name":"阿所拉場",
		"dynasty":"清",
		"long":"101.5532",
		"lat":"26.9127",
		"districtHistorical":"清_四川",
		"districtModern":"中國-四川省-攀枝花市-鹽邊縣",
		"note":null,
		"lang":"中文",
		"shortAuthorityID":"PL35179",
		"names":"",
		"pinyin":[]
	},
	{
		"authorityID":"PL000000035180",
		"name":"昌明",
		"dynasty":"唐",
		"long":"101.4812",
		"lat":"26.9389",
		"districtHistorical":"唐_劍南道",
		"districtModern":"中國-四川省-攀枝花市-鹽邊縣",
		"note":null,
		"lang":"中文",
		"shortAuthorityID":"PL35180",
		"names":"",
		"pinyin":[]
	},
	{
		"authorityID":"PL000000035181",
		"name":"松外",
		"dynasty":"唐",
		"long":"101.4685",
		"lat":"27.0446",
		"districtHistorical":"唐_劍南道",
		"districtModern":"中國-四川省-攀枝花市-鹽邊縣",
		"note":null,
		"lang":"中文",
		"shortAuthorityID":"PL35181",
		"names":"",
		"pinyin":{
			"松外":"sōng wài"
		}
	},
	{
		"authorityID":"PL000000035182",
		"name":"大莋",
		"dynasty":"東漢",
		"long":"101.5882",
		"lat":"26.7581",
		"districtHistorical":"東漢_益州刺史部",
		"districtModern":"中國-四川省-攀枝花市-鹽邊縣",
		"note":null,
		"lang":"中文",
		"shortAuthorityID":"PL35182",
		"names":"",
		"pinyin":[]
	},
	{
		"authorityID":"PL000000035183",
		"name":"瀘南",
		"dynasty":null,
		"long":"105.4453",
		"lat":"28.8839",
		"districtHistorical":null,
		"districtModern":"中國-四川省-瀘州市",
		"note":"元豐四年（1081），在瀘州置瀘南安撫司，統一管理瀘州、敘永、長寧軍三郡沿邊少數民族事宜。（<a target=\"_blank\" href=\"http:\/\/www.phoer.net\/geography\/luzhou\/luzhou_chronology.htm\">http:\/\/www.phoer.net\/geography\/luzhou\/luzhou_chronology.htm<\/a>，2009.11.23）",
		"lang":"中文",
		"shortAuthorityID":"PL35183",
		"names":"[中文] 瀘南安撫司",
		"pinyin":[]
	},
	{
		"authorityID":"PL000000035184",
		"name":"四峰山",
		"dynasty":null,
		"long":"105.529961",
		"lat":"28.872666",
		"districtHistorical":null,
		"districtModern":"中國-四川省-瀘州市-江陽區",
		"note":"（明清序：285）",
		"lang":"中文",
		"shortAuthorityID":"PL35184",
		"names":"",
		"pinyin":{
			"四峰山":"sì fēng shān"
		}
	},
	{
		"authorityID":"PL000000035185",
		"name":"等行寺",
		"dynasty":"隋",
		"long":"105.453434",
		"lat":"28.889019",
		"districtHistorical":null,
		"districtModern":"中國-四川省-瀘州市-江陽區",
		"note":"",
		"lang":"中文",
		"shortAuthorityID":"PL35185",
		"names":"",
		"pinyin":[]
	},
	{
		"authorityID":"PL000000035186",
		"name":"雲慶寺",
		"dynasty":null,
		"long":"105.535617",
		"lat":"28.817566",
		"districtHistorical":null,
		"districtModern":"中國-四川省-瀘州市-江陽區",
		"note":"（明清序：222）",
		"lang":"中文",
		"shortAuthorityID":"PL35186",
		"names":"",
		"pinyin":[]
	},
	{
		"authorityID":"PL000000035187",
		"name":"雲峰寺",
		"dynasty":null,
		"long":"105.317753",
		"lat":"28.825289",
		"districtHistorical":null,
		"districtModern":"中國-四川省-瀘州市-江陽區",
		"note":"（明清序：222；<a target=\"_blank\" href=\"http:\/\/baike.baidu.com\/view\/2122787.htm\">http:\/\/baike.baidu.com\/view\/2122787.htm<\/a>，2009.07.08）",
		"lang":"中文",
		"shortAuthorityID":"PL35187",
		"names":"",
		"pinyin":[]
	},
	{
		"authorityID":"PL000000035188",
		"name":"瀘州",
		"dynasty":"清",
		"long":"105.4453",
		"lat":"28.8839",
		"districtHistorical":"清_四川",
		"districtModern":"中國-四川省-瀘州市-江陽區",
		"note":"清嘉慶七年（1802）瀘州置川南永寧道。（<a target=\"_blank\" href=\"http:\/\/zh.wikipedia.org\/wiki\/%E6%B3%B8%E5%B7%9E%E5%B8%82\">http:\/\/zh.wikipedia.org\/wiki\/瀘州市<\/a>，2011.10.25）",
		"lang":"中文",
		"shortAuthorityID":"PL35188",
		"names":"",
		"pinyin":{
			"瀘州":"lú zhōu"
		}
	},
	{
		"authorityID":"PL000000035189",
		"name":"瀘州",
		"dynasty":"明",
		"long":"105.4453",
		"lat":"28.8839",
		"districtHistorical":"明_四川",
		"districtModern":"中國-四川省-瀘州市-江陽區",
		"note":"位於中國四川省東南部，長江和沱江交匯處，地處中國白酒金三角核心，是中國著名的酒城。明時期直隸四川行中書省，九年（1376）直隸四川布政使司。（<a target=\"_blank\" href=\"http:\/\/baike.baidu.com\/view\/24528.htm\">http:\/\/baike.baidu.com\/view\/24528.htm<\/a>，2011.10.25）",
		"lang":"中文",
		"shortAuthorityID":"PL35189",
		"names":"",
		"pinyin":{
			"瀘州":"lú zhōu"
		}
	},
	{
		"authorityID":"PL000000035190",
		"name":"瀘州",
		"dynasty":"元",
		"long":"105.4453",
		"lat":"28.8839",
		"districtHistorical":"元_四川行省",
		"districtModern":"中國-四川省-瀘州市-江陽區",
		"note":null,
		"lang":"中文",
		"shortAuthorityID":"PL35190",
		"names":"",
		"pinyin":{
			"瀘州":"lú zhōu"
		}
	},
	{
		"authorityID":"PL000000035191",
		"name":"潼川府路",
		"dynasty":"沒有給定朝代",
		"long":"105.4453",
		"lat":"28.8839",
		"districtHistorical":"",
		"districtModern":"中國-四川省-瀘州市-江陽區",
		"note":"潼川府路。府二：潼川，遂寧。州九：果，資，普，昌，衅，瀘，合，榮，渠。軍三：長寧，懷安，廣安。監一：富順。（淵四．宋史．卷八十九：10；<a target=\"_blank\" href=\"http:\/\/zh.wikipedia.org\/zh-tw\/%E6%BD%BC%E5%B7%9D%E5%BA%9C%E8%B7%AF\">http:\/\/zh.wikipedia.org\/zh-tw\/%E6%BD%BC%E5%B7%9D%E5%BA%9C%E8%B7%AF<\/a>，2009.12.22）",
		"lang":"中文",
		"shortAuthorityID":"PL35191",
		"names":"[中文] 梓州路",
		"pinyin":[]
	},
	{
		"authorityID":"PL000000035192",
		"name":"瀘川",
		"dynasty":"南宋",
		"long":"105.4453",
		"lat":"28.8839",
		"districtHistorical":"南宋_潼川府路",
		"districtModern":"中國-四川省-瀘州市-江陽區",
		"note":null,
		"lang":"中文",
		"shortAuthorityID":"PL35192",
		"names":"",
		"pinyin":{
			"瀘川":"lú chuān"
		}
	},
	{
		"authorityID":"PL000000035193",
		"name":"瀘州",
		"dynasty":"南宋",
		"long":"105.4453",
		"lat":"28.8839",
		"districtHistorical":"南宋_潼川府路",
		"districtModern":"中國-四川省-瀘州市-江陽區",
		"note":null,
		"lang":"中文",
		"shortAuthorityID":"PL35193",
		"names":"",
		"pinyin":{
			"瀘州":"lú zhōu"
		}
	},
	{
		"authorityID":"PL000000035194",
		"name":"瀘川",
		"dynasty":"北宋",
		"long":"105.4453",
		"lat":"28.8839",
		"districtHistorical":"北宋_梓州路",
		"districtModern":"中國-四川省-瀘州市-江陽區",
		"note":"隋煬帝大業三年（607）改瀘州為瀘川郡，改江陽縣為瀘川縣（今瀘州市江陽區），為瀘川郡治。轄瀘川縣、富世縣、江安縣、合江縣、綿水縣。唐高祖武德元年（618）複置為瀘州。（<a target=\"_blank\" href=\"http:\/\/tc.wangchao.net.cn\/baike\/detail_2178138.html\">http:\/\/tc.wangchao.net.cn\/baike\/detail_2178138.html<\/a>，2012.01.10）",
		"lang":"中文",
		"shortAuthorityID":"PL35194",
		"names":"",
		"pinyin":{
			"瀘川":"lú chuān"
		}
	},
	{
		"authorityID":"PL000000035195",
		"name":"瀘州",
		"dynasty":"北宋",
		"long":"105.4453",
		"lat":"28.8839",
		"districtHistorical":"北宋_梓州路",
		"districtModern":"中國-四川省-瀘州市-江陽區",
		"note":null,
		"lang":"中文",
		"shortAuthorityID":"PL35195",
		"names":"",
		"pinyin":{
			"瀘州":"lú zhōu"
		}
	},
	{
		"authorityID":"PL000000035196",
		"name":"瀘川",
		"dynasty":"唐",
		"long":"105.4453",
		"lat":"28.8839",
		"districtHistorical":"唐_劍南道",
		"districtModern":"中國-四川省-瀘州市-江陽區",
		"note":null,
		"lang":"中文",
		"shortAuthorityID":"PL35196",
		"names":"",
		"pinyin":{
			"瀘川":"lú chuān"
		}
	},
	{
		"authorityID":"PL000000035197",
		"name":"瀘州",
		"dynasty":"唐",
		"long":"105.4453",
		"lat":"28.8839",
		"districtHistorical":"唐_劍南道",
		"districtModern":"中國-四川省-瀘州市-江陽區",
		"note":null,
		"lang":"中文",
		"shortAuthorityID":"PL35197",
		"names":"",
		"pinyin":{
			"瀘州":"lú zhōu"
		}
	},
	{
		"authorityID":"PL000000035198",
		"name":"瀘川",
		"dynasty":"隋",
		"long":"105.4453",
		"lat":"28.8839",
		"districtHistorical":"隋_瀘川郡",
		"districtModern":"中國-四川省-瀘州市-江陽區",
		"note":null,
		"lang":"中文",
		"shortAuthorityID":"PL35198",
		"names":"",
		"pinyin":{
			"瀘川":"lú chuān"
		}
	},
	{
		"authorityID":"PL000000035199",
		"name":"瀘川郡",
		"dynasty":"隋",
		"long":"105.4453",
		"lat":"28.8839",
		"districtHistorical":"隋_瀘川郡",
		"districtModern":"中國-四川省-瀘州市-江陽區",
		"note":null,
		"lang":"中文",
		"shortAuthorityID":"PL35199",
		"names":"",
		"pinyin":{
			"瀘川郡":"lú chuān jùn"
		}
	},
	{
		"authorityID":"PL000000035200",
		"name":"江陽郡",
		"dynasty":"前秦",
		"long":"105.4453",
		"lat":"28.8839",
		"districtHistorical":"前秦",
		"districtModern":"中國-四川省-瀘州市-江陽區",
		"note":null,
		"lang":"中文",
		"shortAuthorityID":"PL35200",
		"names":"",
		"pinyin":{
			"江陽郡":"jiāng yáng jùn"
		}
	},
	{
		"authorityID":"PL000000035201",
		"name":"江陽",
		"dynasty":"西晉",
		"long":"105.4453",
		"lat":"28.8839",
		"districtHistorical":"西晉_益州",
		"districtModern":"中國-四川省-瀘州市-江陽區",
		"note":null,
		"lang":"中文",
		"shortAuthorityID":"PL35201",
		"names":"",
		"pinyin":{
			"江陽":"jiāng yáng"
		}
	},
	{
		"authorityID":"PL000000035202",
		"name":"江陽郡",
		"dynasty":"西晉",
		"long":"105.4453",
		"lat":"28.8839",
		"districtHistorical":"西晉_益州",
		"districtModern":"中國-四川省-瀘州市-江陽區",
		"note":null,
		"lang":"中文",
		"shortAuthorityID":"PL35202",
		"names":"",
		"pinyin":{
			"江陽郡":"jiāng yáng jùn"
		}
	},
	{
		"authorityID":"PL000000035203",
		"name":"江陽",
		"dynasty":"蜀漢",
		"long":"105.4453",
		"lat":"28.8839",
		"districtHistorical":"三國 蜀漢_益州",
		"districtModern":"中國-四川省-瀘州市-江陽區",
		"note":null,
		"lang":"中文",
		"shortAuthorityID":"PL35203",
		"names":"",
		"pinyin":{
			"江陽":"jiāng yáng"
		}
	},
	{
		"authorityID":"PL000000035204",
		"name":"江陽郡",
		"dynasty":"蜀漢",
		"long":"105.4453",
		"lat":"28.8839",
		"districtHistorical":"三國 蜀漢_益州",
		"districtModern":"中國-四川省-瀘州市-江陽區",
		"note":null,
		"lang":"中文",
		"shortAuthorityID":"PL35204",
		"names":"",
		"pinyin":{
			"江陽郡":"jiāng yáng jùn"
		}
	},
	{
		"authorityID":"PL000000035205",
		"name":"江陽",
		"dynasty":"東漢",
		"long":"105.4453",
		"lat":"28.8839",
		"districtHistorical":"東漢_益州刺史部",
		"districtModern":"中國-四川省-瀘州市-江陽區",
		"note":null,
		"lang":"中文",
		"shortAuthorityID":"PL35205",
		"names":"",
		"pinyin":{
			"江陽":"jiāng yáng"
		}
	},
	{
		"authorityID":"PL000000035206",
		"name":"江陽",
		"dynasty":"西漢",
		"long":"105.4453",
		"lat":"28.8839",
		"districtHistorical":"西漢_益州刺史部",
		"districtModern":"中國-四川省-瀘州市-江陽區",
		"note":null,
		"lang":"中文",
		"shortAuthorityID":"PL35206",
		"names":"",
		"pinyin":{
			"江陽":"jiāng yáng"
		}
	},
	{
		"authorityID":"PL000000035207",
		"name":"雲谿",
		"dynasty":null,
		"long":"105.371012",
		"lat":"28.773213",
		"districtHistorical":null,
		"districtModern":"中國-四川省-瀘州市-納溪區",
		"note":"即納溪。（明清序：223）",
		"lang":"中文",
		"shortAuthorityID":"PL35207",
		"names":"[中文] 納溪",
		"pinyin":[]
	},
	{
		"authorityID":"PL000000035208",
		"name":"興佛院",
		"dynasty":null,
		"long":"105.368005",
		"lat":"28.777486",
		"districtHistorical":null,
		"districtModern":"中國-四川省-瀘州市-納溪區",
		"note":"（明清序：294）",
		"lang":"中文",
		"shortAuthorityID":"PL35208",
		"names":"",
		"pinyin":[]
	},
	{
		"authorityID":"PL000000035209",
		"name":"石棚鎮",
		"dynasty":"明",
		"long":"105.3448",
		"lat":"28.8174",
		"districtHistorical":"明_四川",
		"districtModern":"中國-四川省-瀘州市-納溪區",
		"note":null,
		"lang":"中文",
		"shortAuthorityID":"PL35209",
		"names":"",
		"pinyin":[]
	},
	{
		"authorityID":"PL000000035210",
		"name":"石棚鎮",
		"dynasty":"清",
		"long":"105.3498",
		"lat":"28.8077",
		"districtHistorical":"清_四川",
		"districtModern":"中國-四川省-瀘州市-納溪區",
		"note":null,
		"lang":"中文",
		"shortAuthorityID":"PL35210",
		"names":"",
		"pinyin":[]
	},
	{
		"authorityID":"PL000000035211",
		"name":"涇南",
		"dynasty":"唐",
		"long":"105.4441",
		"lat":"28.7448",
		"districtHistorical":"唐_劍南道",
		"districtModern":"中國-四川省-瀘州市-納溪區",
		"note":null,
		"lang":"中文",
		"shortAuthorityID":"PL35211",
		"names":"",
		"pinyin":[]
	},
	{
		"authorityID":"PL000000035212",
		"name":"東江陽郡",
		"dynasty":"南齊",
		"long":"105.3197",
		"lat":"28.7356",
		"districtHistorical":"南朝 齊_益州",
		"districtModern":"中國-四川省-瀘州市-納溪區",
		"note":null,
		"lang":"中文",
		"shortAuthorityID":"PL35212",
		"names":"",
		"pinyin":{
			"東江陽郡":"dōng jiāng yáng jùn"
		}
	},
	{
		"authorityID":"PL000000035213",
		"name":"漢安",
		"dynasty":"南齊",
		"long":"105.3197",
		"lat":"28.7356",
		"districtHistorical":"南朝 齊_益州",
		"districtModern":"中國-四川省-瀘州市-納溪區",
		"note":null,
		"lang":"中文",
		"shortAuthorityID":"PL35213",
		"names":"",
		"pinyin":[]
	},
	{
		"authorityID":"PL000000035214",
		"name":"江安",
		"dynasty":"隋",
		"long":"105.334",
		"lat":"28.7337",
		"districtHistorical":"隋_瀘川郡",
		"districtModern":"中國-四川省-瀘州市-納溪區",
		"note":null,
		"lang":"中文",
		"shortAuthorityID":"PL35214",
		"names":"",
		"pinyin":{
			"江安":"jiāng ān"
		}
	},
	{
		"authorityID":"PL000000035215",
		"name":"江安",
		"dynasty":"唐",
		"long":"105.338",
		"lat":"28.7291",
		"districtHistorical":"唐_劍南道",
		"districtModern":"中國-四川省-瀘州市-納溪區",
		"note":null,
		"lang":"中文",
		"shortAuthorityID":"PL35215",
		"names":"",
		"pinyin":{
			"江安":"jiāng ān"
		}
	},
	{
		"authorityID":"PL000000035216",
		"name":"渠壩驛",
		"dynasty":"清",
		"long":"105.3759",
		"lat":"28.6927",
		"districtHistorical":"清_四川",
		"districtModern":"中國-四川省-瀘州市-納溪區",
		"note":null,
		"lang":"中文",
		"shortAuthorityID":"PL35216",
		"names":"",
		"pinyin":[]
	},
	{
		"authorityID":"PL000000035217",
		"name":"九支",
		"dynasty":"北宋",
		"long":"105.5525",
		"lat":"28.6327",
		"districtHistorical":"北宋_梓州路",
		"districtModern":"中國-四川省-瀘州市-納溪區",
		"note":null,
		"lang":"中文",
		"shortAuthorityID":"PL35217",
		"names":"",
		"pinyin":[]
	},
	{
		"authorityID":"PL000000035218",
		"name":"純州",
		"dynasty":"北宋",
		"long":"105.5525",
		"lat":"28.6327",
		"districtHistorical":"北宋_梓州路",
		"districtModern":"中國-四川省-瀘州市-納溪區",
		"note":null,
		"lang":"中文",
		"shortAuthorityID":"PL35218",
		"names":"",
		"pinyin":[]
	},
	{
		"authorityID":"PL000000035219",
		"name":"九支城",
		"dynasty":"南宋",
		"long":"105.5434",
		"lat":"28.6266",
		"districtHistorical":"南宋_潼川府路",
		"districtModern":"中國-四川省-瀘州市-納溪區",
		"note":null,
		"lang":"中文",
		"shortAuthorityID":"PL35219",
		"names":"",
		"pinyin":[]
	},
	{
		"authorityID":"PL000000035220",
		"name":"大州堡",
		"dynasty":"清",
		"long":"105.3333",
		"lat":"28.5952",
		"districtHistorical":"清_四川",
		"districtModern":"中國-四川省-瀘州市-納溪區",
		"note":null,
		"lang":"中文",
		"shortAuthorityID":"PL35220",
		"names":"",
		"pinyin":[]
	},
	{
		"authorityID":"PL000000035221",
		"name":"大洲堡",
		"dynasty":"南宋",
		"long":"105.3382",
		"lat":"28.5948",
		"districtHistorical":"南宋_潼川府路",
		"districtModern":"中國-四川省-瀘州市-納溪區",
		"note":null,
		"lang":"中文",
		"shortAuthorityID":"PL35221",
		"names":"",
		"pinyin":[]
	},
	{
		"authorityID":"PL000000035222",
		"name":"大洲堡",
		"dynasty":"北宋",
		"long":"105.3382",
		"lat":"28.5948",
		"districtHistorical":"北宋_梓州路",
		"districtModern":"中國-四川省-瀘州市-納溪區",
		"note":null,
		"lang":"中文",
		"shortAuthorityID":"PL35222",
		"names":"",
		"pinyin":[]
	},
	{
		"authorityID":"PL000000035223",
		"name":"石虎關",
		"dynasty":"明",
		"long":"105.338",
		"lat":"28.5588",
		"districtHistorical":"明_四川",
		"districtModern":"中國-四川省-瀘州市-納溪區",
		"note":null,
		"lang":"中文",
		"shortAuthorityID":"PL35223",
		"names":"",
		"pinyin":[]
	},
	{
		"authorityID":"PL000000035224",
		"name":"納溪",
		"dynasty":"清",
		"long":"105.39",
		"lat":"28.7816",
		"districtHistorical":"清_四川",
		"districtModern":"中國-四川省-瀘州市-納溪區",
		"note":null,
		"lang":"中文",
		"shortAuthorityID":"PL35224",
		"names":"",
		"pinyin":[]
	},
	{
		"authorityID":"PL000000035225",
		"name":"納溪",
		"dynasty":"明",
		"long":"105.39",
		"lat":"28.7816",
		"districtHistorical":"明_四川",
		"districtModern":"中國-四川省-瀘州市-納溪區",
		"note":null,
		"lang":"中文",
		"shortAuthorityID":"PL35225",
		"names":"",
		"pinyin":[]
	},
	{
		"authorityID":"PL000000035226",
		"name":"納溪",
		"dynasty":"元",
		"long":"105.39",
		"lat":"28.7816",
		"districtHistorical":"元_四川行省",
		"districtModern":"中國-四川省-瀘州市-納溪區",
		"note":null,
		"lang":"中文",
		"shortAuthorityID":"PL35226",
		"names":"",
		"pinyin":[]
	},
	{
		"authorityID":"PL000000035227",
		"name":"納溪寨",
		"dynasty":"南宋",
		"long":"105.39",
		"lat":"28.7816",
		"districtHistorical":"南宋_潼川府路",
		"districtModern":"中國-四川省-瀘州市-納溪區",
		"note":null,
		"lang":"中文",
		"shortAuthorityID":"PL35227",
		"names":"",
		"pinyin":[]
	},
	{
		"authorityID":"PL000000035228",
		"name":"納溪寨",
		"dynasty":"北宋",
		"long":"105.39",
		"lat":"28.7816",
		"districtHistorical":"北宋_梓州路",
		"districtModern":"中國-四川省-瀘州市-納溪區",
		"note":null,
		"lang":"中文",
		"shortAuthorityID":"PL35228",
		"names":"",
		"pinyin":[]
	},
	{
		"authorityID":"PL000000035229",
		"name":"嘉明鎮",
		"dynasty":"清",
		"long":"105.3376",
		"lat":"29.2557",
		"districtHistorical":"清_四川",
		"districtModern":"中國-四川省-瀘州市-瀘縣",
		"note":null,
		"lang":"中文",
		"shortAuthorityID":"PL35229",
		"names":"",
		"pinyin":[]
	},
	{
		"authorityID":"PL000000035230",
		"name":"立石站",
		"dynasty":"明",
		"long":"105.6906",
		"lat":"29.154",
		"districtHistorical":"明_四川",
		"districtModern":"中國-四川省-瀘州市-瀘縣",
		"note":null,
		"lang":"中文",
		"shortAuthorityID":"PL35230",
		"names":"",
		"pinyin":[]
	},
	{
		"authorityID":"PL000000035231",
		"name":"黃艤灣站",
		"dynasty":"元",
		"long":"105.6009",
		"lat":"28.9342",
		"districtHistorical":"元_四川行省",
		"districtModern":"中國-四川省-瀘州市-瀘縣",
		"note":null,
		"lang":"中文",
		"shortAuthorityID":"PL35231",
		"names":"",
		"pinyin":[]
	},
	{
		"authorityID":"PL000000035232",
		"name":"合江",
		"dynasty":"元",
		"long":"105.6284",
		"lat":"28.8523",
		"districtHistorical":"元_四川行省",
		"districtModern":"中國-四川省-瀘州市-瀘縣",
		"note":null,
		"lang":"中文",
		"shortAuthorityID":"PL35232",
		"names":"",
		"pinyin":[]
	},
	{
		"authorityID":"PL000000035233",
		"name":"史壩站",
		"dynasty":"元",
		"long":"105.8834",
		"lat":"28.9173",
		"districtHistorical":"元_四川行省",
		"districtModern":"中國-四川省-瀘州市-合江縣",
		"note":null,
		"lang":"中文",
		"shortAuthorityID":"PL35233",
		"names":"",
		"pinyin":[]
	},
	{
		"authorityID":"PL000000035234",
		"name":"合江",
		"dynasty":"唐",
		"long":"105.7328",
		"lat":"28.9073",
		"districtHistorical":"唐_劍南道",
		"districtModern":"中國-四川省-瀘州市-合江縣",
		"note":null,
		"lang":"中文",
		"shortAuthorityID":"PL35234",
		"names":"",
		"pinyin":[]
	},
	{
		"authorityID":"PL000000035235",
		"name":"柙山站",
		"dynasty":"元",
		"long":"105.68",
		"lat":"28.8606",
		"districtHistorical":"元_四川行省",
		"districtModern":"中國-四川省-瀘州市-合江縣",
		"note":null,
		"lang":"中文",
		"shortAuthorityID":"PL35235",
		"names":"",
		"pinyin":[]
	},
	{
		"authorityID":"PL000000035236",
		"name":"合江",
		"dynasty":"清",
		"long":"105.8351",
		"lat":"28.8115",
		"districtHistorical":"清_四川",
		"districtModern":"中國-四川省-瀘州市-合江縣",
		"note":null,
		"lang":"中文",
		"shortAuthorityID":"PL35236",
		"names":"",
		"pinyin":[]
	},
	{
		"authorityID":"PL000000035237",
		"name":"合江",
		"dynasty":"明",
		"long":"105.8351",
		"lat":"28.8115",
		"districtHistorical":"明_四川",
		"districtModern":"中國-四川省-瀘州市-合江縣",
		"note":null,
		"lang":"中文",
		"shortAuthorityID":"PL35237",
		"names":"",
		"pinyin":[]
	},
	{
		"authorityID":"PL000000035238",
		"name":"合江",
		"dynasty":"南宋",
		"long":"105.8351",
		"lat":"28.8115",
		"districtHistorical":"南宋_潼川府路",
		"districtModern":"中國-四川省-瀘州市-合江縣",
		"note":null,
		"lang":"中文",
		"shortAuthorityID":"PL35238",
		"names":"",
		"pinyin":[]
	},
	{
		"authorityID":"PL000000035239",
		"name":"合江",
		"dynasty":"北宋",
		"long":"105.8351",
		"lat":"28.8115",
		"districtHistorical":"北宋_梓州路",
		"districtModern":"中國-四川省-瀘州市-合江縣",
		"note":null,
		"lang":"中文",
		"shortAuthorityID":"PL35239",
		"names":"",
		"pinyin":[]
	},
	{
		"authorityID":"PL000000035240",
		"name":"合江",
		"dynasty":"隋",
		"long":"105.8351",
		"lat":"28.8115",
		"districtHistorical":"隋_瀘川郡",
		"districtModern":"中國-四川省-瀘州市-合江縣",
		"note":null,
		"lang":"中文",
		"shortAuthorityID":"PL35240",
		"names":"",
		"pinyin":[]
	},
	{
		"authorityID":"PL000000035241",
		"name":"安樂",
		"dynasty":"南齊",
		"long":"105.8351",
		"lat":"28.8115",
		"districtHistorical":"南朝 齊_益州",
		"districtModern":"中國-四川省-瀘州市-合江縣",
		"note":null,
		"lang":"中文",
		"shortAuthorityID":"PL35241",
		"names":"",
		"pinyin":[]
	},
	{
		"authorityID":"PL000000035242",
		"name":"符縣",
		"dynasty":"西晉",
		"long":"105.8351",
		"lat":"28.8115",
		"districtHistorical":"西晉_益州",
		"districtModern":"中國-四川省-瀘州市-合江縣",
		"note":null,
		"lang":"中文",
		"shortAuthorityID":"PL35242",
		"names":"",
		"pinyin":[]
	},
	{
		"authorityID":"PL000000035243",
		"name":"符節",
		"dynasty":"蜀漢",
		"long":"105.8351",
		"lat":"28.8115",
		"districtHistorical":"三國 蜀漢_益州",
		"districtModern":"中國-四川省-瀘州市-合江縣",
		"note":null,
		"lang":"中文",
		"shortAuthorityID":"PL35243",
		"names":"",
		"pinyin":[]
	},
	{
		"authorityID":"PL000000035244",
		"name":"符節",
		"dynasty":"東漢",
		"long":"105.8351",
		"lat":"28.8115",
		"districtHistorical":"東漢_益州刺史部",
		"districtModern":"中國-四川省-瀘州市-合江縣",
		"note":null,
		"lang":"中文",
		"shortAuthorityID":"PL35244",
		"names":"",
		"pinyin":[]
	},
	{
		"authorityID":"PL000000035245",
		"name":"符縣",
		"dynasty":"西漢",
		"long":"105.8351",
		"lat":"28.8115",
		"districtHistorical":"西漢_益州刺史部",
		"districtModern":"中國-四川省-瀘州市-合江縣",
		"note":null,
		"lang":"中文",
		"shortAuthorityID":"PL35245",
		"names":"",
		"pinyin":[]
	},
	{
		"authorityID":"PL000000035246",
		"name":"遙壩寨",
		"dynasty":"南宋",
		"long":"105.6433",
		"lat":"28.7414",
		"districtHistorical":"南宋_潼川府路",
		"districtModern":"中國-四川省-瀘州市-合江縣",
		"note":null,
		"lang":"中文",
		"shortAuthorityID":"PL35246",
		"names":"",
		"pinyin":[]
	},
	{
		"authorityID":"PL000000035247",
		"name":"遙壩寨",
		"dynasty":"北宋",
		"long":"105.6433",
		"lat":"28.7414",
		"districtHistorical":"北宋_梓州路",
		"districtModern":"中國-四川省-瀘州市-合江縣",
		"note":null,
		"lang":"中文",
		"shortAuthorityID":"PL35247",
		"names":"",
		"pinyin":[]
	},
	{
		"authorityID":"PL000000035248",
		"name":"仁懷",
		"dynasty":"北宋",
		"long":"105.668",
		"lat":"28.5626",
		"districtHistorical":"北宋_梓州路",
		"districtModern":"中國-四川省-瀘州市-合江縣",
		"note":null,
		"lang":"中文",
		"shortAuthorityID":"PL35248",
		"names":"",
		"pinyin":{
			"仁懷":"rén huái"
		}
	},
	{
		"authorityID":"PL000000035249",
		"name":"仁懷縣",
		"dynasty":"明",
		"long":"105.6755",
		"lat":"28.5488",
		"districtHistorical":"明_四川",
		"districtModern":"中國-四川省-瀘州市-合江縣",
		"note":null,
		"lang":"中文",
		"shortAuthorityID":"PL35249",
		"names":"",
		"pinyin":[]
	},
	{
		"authorityID":"PL000000035250",
		"name":"安溪寨",
		"dynasty":"南宋",
		"long":"105.6063",
		"lat":"28.5483",
		"districtHistorical":"南宋_潼川府路",
		"districtModern":"中國-四川省-瀘州市-合江縣",
		"note":null,
		"lang":"中文",
		"shortAuthorityID":"PL35250",
		"names":"",
		"pinyin":[]
	},
	{
		"authorityID":"PL000000035251",
		"name":"安溪",
		"dynasty":"北宋",
		"long":"105.603",
		"lat":"28.5462",
		"districtHistorical":"北宋_梓州路",
		"districtModern":"中國-四川省-瀘州市-合江縣",
		"note":null,
		"lang":"中文",
		"shortAuthorityID":"PL35251",
		"names":"",
		"pinyin":[]
	},
	{
		"authorityID":"PL000000035252",
		"name":"江門寨",
		"dynasty":"南宋",
		"long":"105.3374",
		"lat":"28.4645",
		"districtHistorical":"南宋_潼川府路",
		"districtModern":"中國-四川省-瀘州市-敘永縣",
		"note":null,
		"lang":"中文",
		"shortAuthorityID":"PL35252",
		"names":"",
		"pinyin":[]
	},
	{
		"authorityID":"PL000000035253",
		"name":"江門寨",
		"dynasty":"北宋",
		"long":"105.3374",
		"lat":"28.4645",
		"districtHistorical":"北宋_梓州路",
		"districtModern":"中國-四川省-瀘州市-敘永縣",
		"note":null,
		"lang":"中文",
		"shortAuthorityID":"PL35253",
		"names":"",
		"pinyin":[]
	},
	{
		"authorityID":"PL000000035254",
		"name":"江門驛",
		"dynasty":"清",
		"long":"105.3218",
		"lat":"28.4562",
		"districtHistorical":"清_四川",
		"districtModern":"中國-四川省-瀘州市-敘永縣",
		"note":null,
		"lang":"中文",
		"shortAuthorityID":"PL35254",
		"names":"",
		"pinyin":{
			"江門驛":"jiāng mén yì"
		}
	},
	{
		"authorityID":"PL000000035255",
		"name":"敘永廳",
		"dynasty":"清",
		"long":"105.4508",
		"lat":"28.1813",
		"districtHistorical":"清_四川",
		"districtModern":"中國-四川省-瀘州市-敘永縣",
		"note":null,
		"lang":"中文",
		"shortAuthorityID":"PL35255",
		"names":"",
		"pinyin":{
			"敘永廳":"xù yǒng tīng"
		}
	},
	{
		"authorityID":"PL000000035256",
		"name":"永寧宣撫司",
		"dynasty":"明",
		"long":"105.4508",
		"lat":"28.1813",
		"districtHistorical":"明_四川",
		"districtModern":"中國-四川省-瀘州市-敘永縣",
		"note":null,
		"lang":"中文",
		"shortAuthorityID":"PL35256",
		"names":"",
		"pinyin":[]
	},
	{
		"authorityID":"PL000000035257",
		"name":"永寧",
		"dynasty":"清",
		"long":"105.4097",
		"lat":"28.1702",
		"districtHistorical":"清_四川",
		"districtModern":"中國-四川省-瀘州市-敘永縣",
		"note":null,
		"lang":"中文",
		"shortAuthorityID":"PL35257",
		"names":"",
		"pinyin":[]
	},
	{
		"authorityID":"PL000000035258",
		"name":"土地坎",
		"dynasty":"明",
		"long":"105.382",
		"lat":"28.1312",
		"districtHistorical":"明_四川",
		"districtModern":"中國-四川省-瀘州市-敘永縣",
		"note":null,
		"lang":"中文",
		"shortAuthorityID":"PL35258",
		"names":"",
		"pinyin":[]
	},
	{
		"authorityID":"PL000000035259",
		"name":"永寧路",
		"dynasty":"元",
		"long":"105.2832",
		"lat":"28.0553",
		"districtHistorical":"元_四川行省",
		"districtModern":"中國-四川省-瀘州市-敘永縣",
		"note":null,
		"lang":"中文",
		"shortAuthorityID":"PL35259",
		"names":"",
		"pinyin":[]
	},
	{
		"authorityID":"PL000000035260",
		"name":"普市所",
		"dynasty":"明",
		"long":"105.5042",
		"lat":"28.0177",
		"districtHistorical":"明_貴州",
		"districtModern":"中國-四川省-瀘州市-敘永縣",
		"note":null,
		"lang":"中文",
		"shortAuthorityID":"PL35260",
		"names":"",
		"pinyin":{
			"普市所":"pǔ shì suǒ"
		}
	},
	{
		"authorityID":"PL000000035261",
		"name":"摩尼所",
		"dynasty":"明",
		"long":"105.5852",
		"lat":"27.793",
		"districtHistorical":"明_貴州",
		"districtModern":"中國-四川省-瀘州市-敘永縣",
		"note":null,
		"lang":"中文",
		"shortAuthorityID":"PL35261",
		"names":"",
		"pinyin":[]
	},
	{
		"authorityID":"PL000000035262",
		"name":"永寧衛",
		"dynasty":"明",
		"long":"105.4119",
		"lat":"28.1772",
		"districtHistorical":"明_四川",
		"districtModern":"中國-四川省-瀘州市-敘永縣",
		"note":null,
		"lang":"中文",
		"shortAuthorityID":"PL35262",
		"names":"",
		"pinyin":[]
	},
	{
		"authorityID":"PL000000035263",
		"name":"納州",
		"dynasty":"唐",
		"long":"105.2851",
		"lat":"27.9781",
		"districtHistorical":"唐_劍南道",
		"districtModern":"中國-四川省-瀘州市-敘永縣",
		"note":null,
		"lang":"中文",
		"shortAuthorityID":"PL35263",
		"names":"",
		"pinyin":{
			"納州":"nà zhōu"
		}
	},
	{
		"authorityID":"PL000000035264",
		"name":"都寧",
		"dynasty":"唐",
		"long":"105.3999",
		"lat":"28.2955",
		"districtHistorical":"唐_劍南道",
		"districtModern":"中國-四川省-瀘州市-敘永縣",
		"note":null,
		"lang":"中文",
		"shortAuthorityID":"PL35264",
		"names":"",
		"pinyin":[]
	},
	{
		"authorityID":"PL000000035265",
		"name":"滴水",
		"dynasty":"明",
		"long":"105.6456",
		"lat":"28.1133",
		"districtHistorical":"明_四川",
		"districtModern":"中國-四川省-瀘州市-古藺縣",
		"note":null,
		"lang":"中文",
		"shortAuthorityID":"PL35265",
		"names":"",
		"pinyin":{
			"滴水":"dī shuǐ"
		}
	},
	{
		"authorityID":"PL000000035266",
		"name":"古藺州",
		"dynasty":"清",
		"long":"105.8176",
		"lat":"28.0376",
		"districtHistorical":"清_四川",
		"districtModern":"中國-四川省-瀘州市-古藺縣",
		"note":"漢代以前為西南夷城，屬夜郎國地。明洪武四年（1377）置永樂衛，天啟三年（1630）置敘用善後廳後改為敘用軍糧廳。1731年置古藺巡檢司於古藺州隸敘永廳，置赤水分縣於赤水河，隸永寧縣。（<a target=\"_blank\" href=\"http:\/\/baike.baidu.com\/view\/72209.htm\">http:\/\/baike.baidu.com\/view\/72209.htm<\/a>，2011.10.13）",
		"lang":"中文",
		"shortAuthorityID":"PL35266",
		"names":"",
		"pinyin":[]
	},
	{
		"authorityID":"PL000000035267",
		"name":"蘭州城",
		"dynasty":"明",
		"long":"105.8176",
		"lat":"28.0376",
		"districtHistorical":"明_四川",
		"districtModern":"中國-四川省-瀘州市-古藺縣",
		"note":null,
		"lang":"中文",
		"shortAuthorityID":"PL35267",
		"names":"",
		"pinyin":{
			"蘭州城":"lán zhōu chéng"
		}
	},
	{
		"authorityID":"PL000000035268",
		"name":"孝泉",
		"dynasty":null,
		"long":"104.280007",
		"lat":"31.242034",
		"districtHistorical":null,
		"districtModern":"中國-四川省-德陽市-旌陽區",
		"note":"（明清序：269）",
		"lang":"中文",
		"shortAuthorityID":"PL35268",
		"names":"",
		"pinyin":{
			"孝泉":"xiào quán"
		}
	},
	{
		"authorityID":"PL000000035269",
		"name":"善寂寺",
		"dynasty":"南梁",
		"long":"104.397646",
		"lat":"31.122942",
		"districtHistorical":null,
		"districtModern":"中國-四川省-德陽市-旌陽區",
		"note":"（唐寺考：267）",
		"lang":"中文",
		"shortAuthorityID":"PL35269",
		"names":"",
		"pinyin":[]
	},
	{
		"authorityID":"PL000000035270",
		"name":"都尉",
		"dynasty":"西漢",
		"long":"104.4127",
		"lat":"31.2535",
		"districtHistorical":"西漢_益州刺史部",
		"districtModern":"中國-四川省-德陽市-旌陽區",
		"note":null,
		"lang":"中文",
		"shortAuthorityID":"PL35270",
		"names":"",
		"pinyin":[]
	},
	{
		"authorityID":"PL000000035271",
		"name":"黃許鎮",
		"dynasty":"清",
		"long":"104.4204",
		"lat":"31.258",
		"districtHistorical":"清_四川",
		"districtModern":"中國-四川省-德陽市-旌陽區",
		"note":"",
		"lang":"中文",
		"shortAuthorityID":"PL35271",
		"names":"",
		"pinyin":[]
	},
	{
		"authorityID":"PL000000035272",
		"name":"銅山",
		"dynasty":null,
		"long":"104.451552",
		"lat":"30.651652",
		"districtHistorical":null,
		"districtModern":"中國-四川省-德陽市-中江縣",
		"note":"位四川中江縣西南。山產銅，相傳即漢文帝賜鄧通鑄錢處。（中地：1135；<a target=\"_blank\" href=\"http:\/\/zh.wikisource.org\/zh-hant\/%E8%AE%80%E5%8F%B2%E6%96%B9%E8%BC%BF%E7%B4%80%E8%A6%81\/%E5%8D%B7%E4%B8%83%E5%8D%81%E4%BA%8C\">http:\/\/zh.wikisource.org\/zh-hant\/%E8%AE%80%E5%8F%B2%E6%96%B9%E8%BC%BF%E7%B4%80%E8%A6%81\/%E5%8D%B7%E4%B8%83%E5%8D%81%E4%BA%8C<\/a>，2009.10.30）",
		"lang":"中文",
		"shortAuthorityID":"PL35272",
		"names":"[中文] 銅官山",
		"pinyin":{
			"銅山":"tóng shān",
			"銅官山":"tóng guān shān"
		}
	},
	{
		"authorityID":"PL000000035273",
		"name":"長樂寺",
		"dynasty":null,
		"long":"104.688",
		"lat":"31.044",
		"districtHistorical":null,
		"districtModern":"中國-四川省-德陽市-中江縣",
		"note":"位於廣漢郡，<a target=\"_blank\" href=\"http:\/\/authority.dila.edu.tw\/person\/?fromInner=A002322\">釋道房<\/a>住錫於此。（T50n2059_p0401c07）",
		"lang":"中文",
		"shortAuthorityID":"PL35273",
		"names":"",
		"pinyin":[]
	},
	{
		"authorityID":"PL000000035274",
		"name":"白鶴寺",
		"dynasty":"南梁",
		"long":"104.980087",
		"lat":"30.631092",
		"districtHistorical":null,
		"districtModern":"中國-四川省-德陽市-中江縣",
		"note":"梁武帝時所建，原名「菩提寺」。唐王勃有碑銘。（全唐文：837；唐寺考：270）",
		"lang":"中文",
		"shortAuthorityID":"PL35274",
		"names":"[中文] 菩提寺",
		"pinyin":{
			"白鶴寺":"bái hè sì",
			"菩提寺":"pú tí sì"
		}
	},
	{
		"authorityID":"PL000000035275",
		"name":"福會寺",
		"dynasty":"隋",
		"long":"104.682049",
		"lat":"31.04322",
		"districtHistorical":null,
		"districtModern":"中國-四川省-德陽市-中江縣",
		"note":"（唐寺考：271）",
		"lang":"中文",
		"shortAuthorityID":"PL35275",
		"names":"",
		"pinyin":[]
	},
	{
		"authorityID":"PL000000035276",
		"name":"黃鹿鎮",
		"dynasty":"清",
		"long":"104.7158",
		"lat":"31.252",
		"districtHistorical":"清_四川",
		"districtModern":"中國-四川省-德陽市-中江縣",
		"note":null,
		"lang":"中文",
		"shortAuthorityID":"PL35276",
		"names":"",
		"pinyin":[]
	},
	{
		"authorityID":"PL000000035277",
		"name":"黃鹿鎮",
		"dynasty":"北宋",
		"long":"104.7092",
		"lat":"31.248",
		"districtHistorical":"北宋_成都府路",
		"districtModern":"中國-四川省-德陽市-中江縣",
		"note":null,
		"lang":"中文",
		"shortAuthorityID":"PL35277",
		"names":"",
		"pinyin":[]
	},
	{
		"authorityID":"PL000000035278",
		"name":"懷歸",
		"dynasty":"南齊",
		"long":"104.616",
		"lat":"31.108",
		"districtHistorical":"南朝 齊_益州",
		"districtModern":"中國-四川省-德陽市-中江縣",
		"note":null,
		"lang":"中文",
		"shortAuthorityID":"PL35278",
		"names":"",
		"pinyin":[]
	},
	{
		"authorityID":"PL000000035279",
		"name":"中江",
		"dynasty":"清",
		"long":"104.6875",
		"lat":"31.044",
		"districtHistorical":"清_四川",
		"districtModern":"中國-四川省-德陽市-中江縣",
		"note":null,
		"lang":"中文",
		"shortAuthorityID":"PL35279",
		"names":"",
		"pinyin":[]
	},
	{
		"authorityID":"PL000000035280",
		"name":"中江",
		"dynasty":"明",
		"long":"104.6875",
		"lat":"31.044",
		"districtHistorical":"明_四川",
		"districtModern":"中國-四川省-德陽市-中江縣",
		"note":null,
		"lang":"中文",
		"shortAuthorityID":"PL35280",
		"names":"",
		"pinyin":[]
	},
	{
		"authorityID":"PL000000035281",
		"name":"中江",
		"dynasty":"元",
		"long":"104.6875",
		"lat":"31.044",
		"districtHistorical":"元_四川行省",
		"districtModern":"中國-四川省-德陽市-中江縣",
		"note":null,
		"lang":"中文",
		"shortAuthorityID":"PL35281",
		"names":"",
		"pinyin":[]
	},
	{
		"authorityID":"PL000000035282",
		"name":"中江",
		"dynasty":"南宋",
		"long":"104.6875",
		"lat":"31.044",
		"districtHistorical":"南宋_潼川府路",
		"districtModern":"中國-四川省-德陽市-中江縣",
		"note":null,
		"lang":"中文",
		"shortAuthorityID":"PL35282",
		"names":"",
		"pinyin":[]
	},
	{
		"authorityID":"PL000000035283",
		"name":"中江",
		"dynasty":"北宋",
		"long":"104.6875",
		"lat":"31.044",
		"districtHistorical":"北宋_梓州路",
		"districtModern":"中國-四川省-德陽市-中江縣",
		"note":null,
		"lang":"中文",
		"shortAuthorityID":"PL35283",
		"names":"",
		"pinyin":[]
	},
	{
		"authorityID":"PL000000035284",
		"name":"玄武",
		"dynasty":"唐",
		"long":"104.6875",
		"lat":"31.044",
		"districtHistorical":"唐_劍南道",
		"districtModern":"中國-四川省-德陽市-中江縣",
		"note":null,
		"lang":"中文",
		"shortAuthorityID":"PL35284",
		"names":"",
		"pinyin":[]
	},
	{
		"authorityID":"PL000000035285",
		"name":"玄武",
		"dynasty":"隋",
		"long":"104.6875",
		"lat":"31.044",
		"districtHistorical":"隋_蜀郡",
		"districtModern":"中國-四川省-德陽市-中江縣",
		"note":null,
		"lang":"中文",
		"shortAuthorityID":"PL35285",
		"names":"",
		"pinyin":[]
	},
	{
		"authorityID":"PL000000035286",
		"name":"伍城",
		"dynasty":"南齊",
		"long":"104.6875",
		"lat":"31.044",
		"districtHistorical":"南朝 齊_益州",
		"districtModern":"中國-四川省-德陽市-中江縣",
		"note":null,
		"lang":"中文",
		"shortAuthorityID":"PL35286",
		"names":"",
		"pinyin":{
			"伍城":"wǔ chéng"
		}
	},
	{
		"authorityID":"PL000000035287",
		"name":"五城",
		"dynasty":"前秦",
		"long":"104.6875",
		"lat":"31.044",
		"districtHistorical":"前秦",
		"districtModern":"中國-四川省-德陽市-中江縣",
		"note":null,
		"lang":"中文",
		"shortAuthorityID":"PL35287",
		"names":"",
		"pinyin":{
			"五城":"wǔ chéng"
		}
	},
	{
		"authorityID":"PL000000035288",
		"name":"寧州",
		"dynasty":"前秦",
		"long":"104.6875",
		"lat":"31.044",
		"districtHistorical":"前秦",
		"districtModern":"中國-四川省-德陽市-中江縣",
		"note":"十六國前秦置，治所在塾江縣（今四川合川市）。《晉書．苻堅載記》：孝武帝寧康元年，\"姚萇維寧州刺史，領西蠻校尉（鎮塾江）\"。（歷地史：841）",
		"lang":"中文",
		"shortAuthorityID":"PL35288",
		"names":"",
		"pinyin":[]
	},
	{
		"authorityID":"PL000000035289",
		"name":"五城",
		"dynasty":"西晉",
		"long":"104.6875",
		"lat":"31.044",
		"districtHistorical":"西晉_梁州",
		"districtModern":"中國-四川省-德陽市-中江縣",
		"note":"三國蜀漢時置五城縣，隋改玄武縣。（<a target=\"_blank\" href=\"http:\/\/zh.wikipedia.org\/wiki\/%E4%B8%AD%E6%B1%9F%E5%8E%BF\">http:\/\/zh.wikipedia.org\/wiki\/%E4%B8%AD%E6%B1%9F%E5%8E%BF<\/a>，2012.09.20）",
		"lang":"中文",
		"shortAuthorityID":"PL35289",
		"names":"",
		"pinyin":{
			"五城":"wǔ chéng"
		}
	},
	{
		"authorityID":"PL000000035290",
		"name":"五城",
		"dynasty":"蜀漢",
		"long":"104.6875",
		"lat":"31.044",
		"districtHistorical":"三國 蜀漢_益州",
		"districtModern":"中國-四川省-德陽市-中江縣",
		"note":null,
		"lang":"中文",
		"shortAuthorityID":"PL35290",
		"names":"",
		"pinyin":{
			"五城":"wǔ chéng"
		}
	},
	{
		"authorityID":"PL000000035291",
		"name":"興隆場",
		"dynasty":"清",
		"long":"104.5934",
		"lat":"30.8789",
		"districtHistorical":"清_四川",
		"districtModern":"中國-四川省-德陽市-中江縣",
		"note":null,
		"lang":"中文",
		"shortAuthorityID":"PL35291",
		"names":"",
		"pinyin":[]
	},
	{
		"authorityID":"PL000000035292",
		"name":"吳店鎮",
		"dynasty":"北宋",
		"long":"104.8164",
		"lat":"30.8561",
		"districtHistorical":"北宋_梓州路",
		"districtModern":"中國-四川省-德陽市-中江縣",
		"note":null,
		"lang":"中文",
		"shortAuthorityID":"PL35292",
		"names":"",
		"pinyin":[]
	},
	{
		"authorityID":"PL000000035293",
		"name":"銅山",
		"dynasty":"唐",
		"long":"104.9462",
		"lat":"30.7878",
		"districtHistorical":"唐_劍南道",
		"districtModern":"中國-四川省-德陽市-中江縣",
		"note":null,
		"lang":"中文",
		"shortAuthorityID":"PL35293",
		"names":"",
		"pinyin":{
			"銅山":"tóng shān"
		}
	},
	{
		"authorityID":"PL000000035294",
		"name":"飛烏",
		"dynasty":"隋",
		"long":"104.9845",
		"lat":"30.7719",
		"districtHistorical":"隋_新城郡",
		"districtModern":"中國-四川省-德陽市-中江縣",
		"note":null,
		"lang":"中文",
		"shortAuthorityID":"PL35294",
		"names":"",
		"pinyin":[]
	},
	{
		"authorityID":"PL000000035295",
		"name":"郪縣",
		"dynasty":"東漢",
		"long":"104.955",
		"lat":"30.747",
		"districtHistorical":"東漢_益州刺史部",
		"districtModern":"中國-四川省-德陽市-中江縣",
		"note":null,
		"lang":"中文",
		"shortAuthorityID":"PL35295",
		"names":"",
		"pinyin":[]
	},
	{
		"authorityID":"PL000000035296",
		"name":"郪縣",
		"dynasty":"西漢",
		"long":"104.955",
		"lat":"30.747",
		"districtHistorical":"西漢_益州刺史部",
		"districtModern":"中國-四川省-德陽市-中江縣",
		"note":null,
		"lang":"中文",
		"shortAuthorityID":"PL35296",
		"names":"",
		"pinyin":[]
	},
	{
		"authorityID":"PL000000035297",
		"name":"郪縣",
		"dynasty":"南齊",
		"long":"104.9505",
		"lat":"30.7459",
		"districtHistorical":"南朝 齊_益州",
		"districtModern":"中國-四川省-德陽市-中江縣",
		"note":null,
		"lang":"中文",
		"shortAuthorityID":"PL35297",
		"names":"",
		"pinyin":[]
	},
	{
		"authorityID":"PL000000035298",
		"name":"郪縣",
		"dynasty":"西晉",
		"long":"104.952",
		"lat":"30.7441",
		"districtHistorical":"西晉_梁州",
		"districtModern":"中國-四川省-德陽市-中江縣",
		"note":null,
		"lang":"中文",
		"shortAuthorityID":"PL35298",
		"names":"",
		"pinyin":[]
	},
	{
		"authorityID":"PL000000035299",
		"name":"東廣漢郡",
		"dynasty":"蜀漢",
		"long":"104.952",
		"lat":"30.7441",
		"districtHistorical":"三國 蜀漢_益州",
		"districtModern":"中國-四川省-德陽市-中江縣",
		"note":null,
		"lang":"中文",
		"shortAuthorityID":"PL35299",
		"names":"",
		"pinyin":[]
	},
	{
		"authorityID":"PL000000035300",
		"name":"郪縣",
		"dynasty":"蜀漢",
		"long":"104.952",
		"lat":"30.7441",
		"districtHistorical":"三國 蜀漢_益州",
		"districtModern":"中國-四川省-德陽市-中江縣",
		"note":null,
		"lang":"中文",
		"shortAuthorityID":"PL35300",
		"names":"",
		"pinyin":[]
	},
	{
		"authorityID":"PL000000035301",
		"name":"飛烏",
		"dynasty":"南宋",
		"long":"105.0037",
		"lat":"30.6445",
		"districtHistorical":"南宋_潼川府路",
		"districtModern":"中國-四川省-德陽市-中江縣",
		"note":"位於四川省中江縣倉山鎮東北一公里飛烏壩（又名飛鵝壩）。設於隋開皇年間，唐貞觀二十二年（648）移至今倉山，元至元十六年（1279）廢，併入銅山。（<a target=\"_blank\" href=\"http:\/\/\">http:\/\/baike.baidu.com\/view\/2954056.htm<\/a>，2012.01.02）",
		"lang":"中文",
		"shortAuthorityID":"PL35301",
		"names":"",
		"pinyin":[]
	},
	{
		"authorityID":"PL000000035302",
		"name":"飛烏",
		"dynasty":"北宋",
		"long":"105.0037",
		"lat":"30.6445",
		"districtHistorical":"北宋_梓州路",
		"districtModern":"中國-四川省-德陽市-中江縣",
		"note":null,
		"lang":"中文",
		"shortAuthorityID":"PL35302",
		"names":"",
		"pinyin":[]
	},
	{
		"authorityID":"PL000000035303",
		"name":"飛烏",
		"dynasty":"唐",
		"long":"104.9882",
		"lat":"30.6438",
		"districtHistorical":"唐_劍南道",
		"districtModern":"中國-四川省-德陽市-中江縣",
		"note":null,
		"lang":"中文",
		"shortAuthorityID":"PL35303",
		"names":"",
		"pinyin":[]
	},
	{
		"authorityID":"PL000000035304",
		"name":"胖子店",
		"dynasty":"清",
		"long":"105.0679",
		"lat":"30.6295",
		"districtHistorical":"清_四川",
		"districtModern":"中國-四川省-德陽市-中江縣",
		"note":null,
		"lang":"中文",
		"shortAuthorityID":"PL35304",
		"names":"",
		"pinyin":[]
	},
	{
		"authorityID":"PL000000035305",
		"name":"開化寺",
		"dynasty":"唐",
		"long":"104.375315",
		"lat":"31.333161",
		"districtHistorical":null,
		"districtModern":"中國-四川省-德陽市-羅江縣",
		"note":"在漢州治東北，唐建。（唐寺考：266）",
		"lang":"中文",
		"shortAuthorityID":"PL35305",
		"names":"",
		"pinyin":[]
	},
	{
		"authorityID":"PL000000035306",
		"mergeTo":"PL000000035341",
		"names":"",
		"pinyin":[]
	},
	{
		"authorityID":"PL000000035307",
		"name":"金山鎮",
		"dynasty":"北宋",
		"long":"104.5583",
		"lat":"31.3729",
		"districtHistorical":"北宋_成都府路",
		"districtModern":"中國-四川省-德陽市-羅江縣",
		"note":null,
		"lang":"中文",
		"shortAuthorityID":"PL35307",
		"names":"",
		"pinyin":[]
	},
	{
		"authorityID":"PL000000035308",
		"name":"金山鋪",
		"dynasty":"清",
		"long":"104.5567",
		"lat":"31.3691",
		"districtHistorical":"清_四川",
		"districtModern":"中國-四川省-德陽市-羅江縣",
		"note":null,
		"lang":"中文",
		"shortAuthorityID":"PL35308",
		"names":"",
		"pinyin":[]
	},
	{
		"authorityID":"PL000000035309",
		"name":"略坪鎮",
		"dynasty":"北宋",
		"long":"104.4087",
		"lat":"31.3377",
		"districtHistorical":"北宋_成都府路",
		"districtModern":"中國-四川省-德陽市-羅江縣",
		"note":null,
		"lang":"中文",
		"shortAuthorityID":"PL35309",
		"names":"",
		"pinyin":[]
	},
	{
		"authorityID":"PL000000035310",
		"name":"略坪鎮",
		"dynasty":"清",
		"long":"104.4012",
		"lat":"31.3317",
		"districtHistorical":"清_四川",
		"districtModern":"中國-四川省-德陽市-羅江縣",
		"note":null,
		"lang":"中文",
		"shortAuthorityID":"PL35310",
		"names":"",
		"pinyin":[]
	},
	{
		"authorityID":"PL000000035311",
		"name":"萬安",
		"dynasty":"唐",
		"long":"104.4965",
		"lat":"31.3159",
		"districtHistorical":"唐_劍南道",
		"districtModern":"中國-四川省-德陽市-羅江縣",
		"note":null,
		"lang":"中文",
		"shortAuthorityID":"PL35311",
		"names":"",
		"pinyin":{
			"萬安":"wàn ān"
		}
	},
	{
		"authorityID":"PL000000035312",
		"name":"萬安",
		"dynasty":"南齊",
		"long":"104.5287",
		"lat":"31.3136",
		"districtHistorical":"南朝 齊_益州",
		"districtModern":"中國-四川省-德陽市-羅江縣",
		"note":null,
		"lang":"中文",
		"shortAuthorityID":"PL35312",
		"names":"",
		"pinyin":{
			"萬安":"wàn ān"
		}
	},
	{
		"authorityID":"PL000000035313",
		"name":"羅江",
		"dynasty":"南宋",
		"long":"104.5071",
		"lat":"31.3104",
		"districtHistorical":"南宋_成都府路",
		"districtModern":"中國-四川省-德陽市-羅江縣",
		"note":null,
		"lang":"中文",
		"shortAuthorityID":"PL35313",
		"names":"",
		"pinyin":[]
	},
	{
		"authorityID":"PL000000035314",
		"name":"羅江",
		"dynasty":"清",
		"long":"104.5112",
		"lat":"31.3084",
		"districtHistorical":"清_四川",
		"districtModern":"中國-四川省-德陽市-羅江縣",
		"note":null,
		"lang":"中文",
		"shortAuthorityID":"PL35314",
		"names":"",
		"pinyin":[]
	},
	{
		"authorityID":"PL000000035315",
		"name":"萬安",
		"dynasty":"隋",
		"long":"104.5224",
		"lat":"31.3081",
		"districtHistorical":"隋_金山郡",
		"districtModern":"中國-四川省-德陽市-羅江縣",
		"note":null,
		"lang":"中文",
		"shortAuthorityID":"PL35315",
		"names":"",
		"pinyin":{
			"萬安":"wàn ān"
		}
	},
	{
		"authorityID":"PL000000035316",
		"name":"柏社鎮",
		"dynasty":"北宋",
		"long":"104.3516",
		"lat":"31.3008",
		"districtHistorical":"北宋_成都府路",
		"districtModern":"中國-四川省-德陽市-羅江縣",
		"note":null,
		"lang":"中文",
		"shortAuthorityID":"PL35316",
		"names":"",
		"pinyin":[]
	},
	{
		"authorityID":"PL000000035317",
		"name":"羅江",
		"dynasty":"北宋",
		"long":"104.4983",
		"lat":"31.2915",
		"districtHistorical":"北宋_成都府路",
		"districtModern":"中國-四川省-德陽市-羅江縣",
		"note":null,
		"lang":"中文",
		"shortAuthorityID":"PL35317",
		"names":"",
		"pinyin":[]
	},
	{
		"authorityID":"PL000000035318",
		"name":"繳江",
		"dynasty":"明",
		"long":"104.4941",
		"lat":"31.291",
		"districtHistorical":"明_四川",
		"districtModern":"中國-四川省-德陽市-羅江縣",
		"note":null,
		"lang":"中文",
		"shortAuthorityID":"PL35318",
		"names":"",
		"pinyin":[]
	},
	{
		"authorityID":"PL000000035319",
		"name":"羅江",
		"dynasty":"元",
		"long":"104.4941",
		"lat":"31.291",
		"districtHistorical":"元_四川行省",
		"districtModern":"中國-四川省-德陽市-羅江縣",
		"note":null,
		"lang":"中文",
		"shortAuthorityID":"PL35319",
		"names":"",
		"pinyin":[]
	},
	{
		"authorityID":"PL000000035320",
		"name":"綿竹",
		"dynasty":"南齊",
		"long":"104.4176",
		"lat":"31.2578",
		"districtHistorical":"南朝 齊_益州",
		"districtModern":"中國-四川省-德陽市-羅江縣",
		"note":null,
		"lang":"中文",
		"shortAuthorityID":"PL35320",
		"names":"",
		"pinyin":{
			"綿竹":"mián zhú"
		}
	},
	{
		"authorityID":"PL000000035321",
		"name":"綿竹",
		"dynasty":"前秦",
		"long":"104.4224",
		"lat":"31.2567",
		"districtHistorical":"前秦",
		"districtModern":"中國-四川省-德陽市-羅江縣",
		"note":null,
		"lang":"中文",
		"shortAuthorityID":"PL35321",
		"names":"",
		"pinyin":{
			"綿竹":"mián zhú"
		}
	},
	{
		"authorityID":"PL000000035322",
		"name":"綿竹",
		"dynasty":"東漢",
		"long":"104.4127",
		"lat":"31.2535",
		"districtHistorical":"東漢_益州刺史部",
		"districtModern":"中國-四川省-德陽市-羅江縣",
		"note":null,
		"lang":"中文",
		"shortAuthorityID":"PL35322",
		"names":"",
		"pinyin":{
			"綿竹":"mián zhú"
		}
	},
	{
		"authorityID":"PL000000035323",
		"name":"綿竹",
		"dynasty":"西漢",
		"long":"104.4127",
		"lat":"31.2535",
		"districtHistorical":"西漢_益州刺史部",
		"districtModern":"中國-四川省-德陽市-羅江縣",
		"note":null,
		"lang":"中文",
		"shortAuthorityID":"PL35323",
		"names":"",
		"pinyin":{
			"綿竹":"mián zhú"
		}
	},
	{
		"authorityID":"PL000000035324",
		"name":"老泉鎮",
		"dynasty":"清",
		"long":"104.2808",
		"lat":"31.2456",
		"districtHistorical":"清_四川",
		"districtModern":"中國-四川省-德陽市-羅江縣",
		"note":null,
		"lang":"中文",
		"shortAuthorityID":"PL35324",
		"names":"",
		"pinyin":[]
	},
	{
		"authorityID":"PL000000035325",
		"name":"孝泉鎮",
		"dynasty":"北宋",
		"long":"104.2789",
		"lat":"31.2444",
		"districtHistorical":"北宋_成都府路",
		"districtModern":"中國-四川省-德陽市-羅江縣",
		"note":null,
		"lang":"中文",
		"shortAuthorityID":"PL35325",
		"names":"",
		"pinyin":[]
	},
	{
		"authorityID":"PL000000035326",
		"name":"綿竹",
		"dynasty":"西晉",
		"long":"104.4062",
		"lat":"31.2425",
		"districtHistorical":"西晉_益州",
		"districtModern":"中國-四川省-德陽市-羅江縣",
		"note":null,
		"lang":"中文",
		"shortAuthorityID":"PL35326",
		"names":"",
		"pinyin":{
			"綿竹":"mián zhú"
		}
	},
	{
		"authorityID":"PL000000035327",
		"name":"綿竹",
		"dynasty":"蜀漢",
		"long":"104.4062",
		"lat":"31.2425",
		"districtHistorical":"三國 蜀漢_益州",
		"districtModern":"中國-四川省-德陽市-羅江縣",
		"note":null,
		"lang":"中文",
		"shortAuthorityID":"PL35327",
		"names":"",
		"pinyin":{
			"綿竹":"mián zhú"
		}
	},
	{
		"authorityID":"PL000000035328",
		"name":"萇陽",
		"dynasty":"南齊",
		"long":"104.3379",
		"lat":"31.2138",
		"districtHistorical":"南朝 齊_益州",
		"districtModern":"中國-四川省-德陽市-羅江縣",
		"note":null,
		"lang":"中文",
		"shortAuthorityID":"PL35328",
		"names":"",
		"pinyin":{
			"萇陽":"cháng yáng"
		}
	},
	{
		"authorityID":"PL000000035329",
		"name":"德陽",
		"dynasty":"清",
		"long":"104.3995",
		"lat":"31.1321",
		"districtHistorical":"清_四川",
		"districtModern":"中國-四川省-德陽市-羅江縣",
		"note":null,
		"lang":"中文",
		"shortAuthorityID":"PL35329",
		"names":"",
		"pinyin":{
			"德陽":"dé yáng"
		}
	},
	{
		"authorityID":"PL000000035330",
		"name":"德陽",
		"dynasty":"明",
		"long":"104.3995",
		"lat":"31.1321",
		"districtHistorical":"明_四川",
		"districtModern":"中國-四川省-德陽市-羅江縣",
		"note":null,
		"lang":"中文",
		"shortAuthorityID":"PL35330",
		"names":"",
		"pinyin":{
			"德陽":"dé yáng"
		}
	},
	{
		"authorityID":"PL000000035331",
		"name":"德陽",
		"dynasty":"元",
		"long":"104.3995",
		"lat":"31.1321",
		"districtHistorical":"元_四川行省",
		"districtModern":"中國-四川省-德陽市-羅江縣",
		"note":null,
		"lang":"中文",
		"shortAuthorityID":"PL35331",
		"names":"",
		"pinyin":{
			"德陽":"dé yáng"
		}
	},