[
	{
		"authorityID":"PL000000040001",
		"name":"砂橋站",
		"dynasty":"元",
		"long":"101.1841",
		"lat":"25.2489",
		"districtHistorical":"元_雲南行省",
		"districtModern":"中國-雲南省-楚雄彝族自治州-南華縣",
		"note":null,
		"lang":"中文",
		"shortAuthorityID":"PL40001",
		"names":"",
		"pinyin":[]
	},
	{
		"authorityID":"PL000000040002",
		"name":"鎮南關",
		"dynasty":"明",
		"long":"101.2582",
		"lat":"25.2315",
		"districtHistorical":"明_雲南",
		"districtModern":"中國-雲南省-楚雄彝族自治州-南華縣",
		"note":null,
		"lang":"中文",
		"shortAuthorityID":"PL40002",
		"names":"",
		"pinyin":[]
	},
	{
		"authorityID":"PL000000040003",
		"name":"鎮南州",
		"dynasty":"清",
		"long":"101.2848",
		"lat":"25.1961",
		"districtHistorical":"清_雲南",
		"districtModern":"中國-雲南省-楚雄彝族自治州-南華縣",
		"note":null,
		"lang":"中文",
		"shortAuthorityID":"PL40003",
		"names":"",
		"pinyin":[]
	},
	{
		"authorityID":"PL000000040004",
		"name":"鎮南州",
		"dynasty":"明",
		"long":"101.2848",
		"lat":"25.1961",
		"districtHistorical":"明_雲南",
		"districtModern":"中國-雲南省-楚雄彝族自治州-南華縣",
		"note":null,
		"lang":"中文",
		"shortAuthorityID":"PL40004",
		"names":"",
		"pinyin":[]
	},
	{
		"authorityID":"PL000000040005",
		"name":"鎮南州",
		"dynasty":"元",
		"long":"101.2848",
		"lat":"25.1961",
		"districtHistorical":"元_雲南行省",
		"districtModern":"中國-雲南省-楚雄彝族自治州-南華縣",
		"note":null,
		"lang":"中文",
		"shortAuthorityID":"PL40005",
		"names":"",
		"pinyin":[]
	},
	{
		"authorityID":"PL000000040006",
		"name":"雞街",
		"dynasty":"清",
		"long":"100.9176",
		"lat":"25.091",
		"districtHistorical":"清_雲南",
		"districtModern":"中國-雲南省-楚雄彝族自治州-南華縣",
		"note":null,
		"lang":"中文",
		"shortAuthorityID":"PL40006",
		"names":"",
		"pinyin":{
			"雞街":"jī jiē"
		}
	},
	{
		"authorityID":"PL000000040007",
		"name":"鼠街",
		"dynasty":"清",
		"long":"100.8218",
		"lat":"25.0085",
		"districtHistorical":"清_雲南",
		"districtModern":"中國-雲南省-楚雄彝族自治州-南華縣",
		"note":null,
		"lang":"中文",
		"shortAuthorityID":"PL40007",
		"names":"",
		"pinyin":{
			"鼠街":"shǔ jiē"
		}
	},
	{
		"authorityID":"PL000000040008",
		"name":"丘州",
		"dynasty":"唐",
		"long":"101.2848",
		"lat":"25.1961",
		"districtHistorical":"唐_劍南道",
		"districtModern":"中國-雲南省-楚雄彝族自治州-南華縣",
		"note":null,
		"lang":"中文",
		"shortAuthorityID":"PL40008",
		"names":"",
		"pinyin":{
			"丘州":"qiū zhōu"
		}
	},
	{
		"authorityID":"PL000000040009",
		"name":"活佛寺",
		"dynasty":null,
		"long":"101.191121",
		"lat":"25.588971",
		"districtHistorical":null,
		"districtModern":"中國-雲南省-楚雄彝族自治州-姚安縣",
		"note":"位於姚安縣城北10公里的光祿山。一說位於姚安縣城北12公里的光祿鎮西山麓。（<a target=\"_blank\" href=\"http:\/\/baike.baidu.com\/view\/2449744.htm\">http:\/\/baike.baidu.com\/view\/2449744.htm<\/a>、<a target=\"_blank\" href=\"http:\/\/baike.baidu.com\/view\/28091.htm#7\">http:\/\/baike.baidu.com\/view\/28091.htm#7<\/a>，2010.12.28）",
		"lang":"中文",
		"shortAuthorityID":"PL40009",
		"names":"[中文] 龍華寺,臥佛庵",
		"pinyin":[]
	},
	{
		"authorityID":"PL000000040010",
		"name":"慈應寺",
		"dynasty":"唐",
		"long":"101.297398",
		"lat":"25.516821",
		"districtHistorical":null,
		"districtModern":"中國-雲南省-楚雄彝族自治州-姚安縣",
		"note":"在姚州東飽煙蘿山。舊名護國寺，唐張虔陀建。（唐寺考：277；<a target=\"_blank\" href=\" http:\/\/chgis.hmdc.harvard.edu\/search_details_1.php?ptid=relig_2208\"> http:\/\/chgis.hmdc.harvard.edu\/search_details_1.php?ptid=relig_2208<\/a>，2009.07.01；四部續．嘉慶一統志．楚雄府：19）",
		"lang":"中文",
		"shortAuthorityID":"PL40010",
		"names":"[中文] 護國寺",
		"pinyin":{
			"慈應寺":"cí yìng sì",
			"護國寺":"hù guó sì"
		}
	},
	{
		"authorityID":"PL000000040011",
		"name":"弄棟",
		"dynasty":"南齊",
		"long":"101.2167",
		"lat":"25.6035",
		"districtHistorical":"南朝齊_寧州",
		"districtModern":"中國-雲南省-楚雄彝族自治州-姚安縣",
		"note":null,
		"lang":"中文",
		"shortAuthorityID":"PL40011",
		"names":"",
		"pinyin":[]
	},
	{
		"authorityID":"PL000000040012",
		"name":"梇棟",
		"dynasty":"西晉",
		"long":"101.2115",
		"lat":"25.5897",
		"districtHistorical":"西晉_寧州",
		"districtModern":"中國-雲南省-楚雄彝族自治州-姚安縣",
		"note":null,
		"lang":"中文",
		"shortAuthorityID":"PL40012",
		"names":"",
		"pinyin":{
			"梇棟":"lòng dòng"
		}
	},
	{
		"authorityID":"PL000000040013",
		"name":"梇棟",
		"dynasty":"蜀漢",
		"long":"101.2115",
		"lat":"25.5897",
		"districtHistorical":"三國蜀漢_益州",
		"districtModern":"中國-雲南省-楚雄彝族自治州-姚安縣",
		"note":null,
		"lang":"中文",
		"shortAuthorityID":"PL40013",
		"names":"",
		"pinyin":{
			"梇棟":"lòng dòng"
		}
	},
	{
		"authorityID":"PL000000040014",
		"name":"雲南郡",
		"dynasty":"蜀漢",
		"long":"101.2115",
		"lat":"25.5897",
		"districtHistorical":"三國蜀漢_益州",
		"districtModern":"中國-雲南省-楚雄彝族自治州-姚安縣",
		"note":null,
		"lang":"中文",
		"shortAuthorityID":"PL40014",
		"names":"",
		"pinyin":[]
	},
	{
		"authorityID":"PL000000040015",
		"name":"馬邑",
		"dynasty":"唐",
		"long":"101.5269",
		"lat":"25.5859",
		"districtHistorical":"唐_劍南道",
		"districtModern":"中國-雲南省-楚雄彝族自治州-姚安縣",
		"note":null,
		"lang":"中文",
		"shortAuthorityID":"PL40015",
		"names":"",
		"pinyin":[]
	},
	{
		"authorityID":"PL000000040016",
		"name":"弄棟",
		"dynasty":"西漢",
		"long":"101.2147",
		"lat":"25.5826",
		"districtHistorical":"西漢_益州刺史部",
		"districtModern":"中國-雲南省-楚雄彝族自治州-姚安縣",
		"note":null,
		"lang":"中文",
		"shortAuthorityID":"PL40016",
		"names":"",
		"pinyin":[]
	},
	{
		"authorityID":"PL000000040017",
		"name":"興寧郡",
		"dynasty":"東晉",
		"long":"101.2241",
		"lat":"25.58",
		"districtHistorical":"東晉_寧州",
		"districtModern":"中國-雲南省-楚雄彝族自治州-姚安縣",
		"note":null,
		"lang":"中文",
		"shortAuthorityID":"PL40017",
		"names":"",
		"pinyin":[]
	},
	{
		"authorityID":"PL000000040018",
		"name":"梇棟",
		"dynasty":"東漢",
		"long":"101.2219",
		"lat":"25.5792",
		"districtHistorical":"東漢_益州刺史部",
		"districtModern":"中國-雲南省-楚雄彝族自治州-姚安縣",
		"note":null,
		"lang":"中文",
		"shortAuthorityID":"PL40018",
		"names":"",
		"pinyin":{
			"梇棟":"lòng dòng"
		}
	},
	{
		"authorityID":"PL000000040019",
		"name":"姚州",
		"dynasty":"唐",
		"long":"101.2142",
		"lat":"25.57",
		"districtHistorical":"唐_劍南道",
		"districtModern":"中國-雲南省-楚雄彝族自治州-姚安縣",
		"note":null,
		"lang":"中文",
		"shortAuthorityID":"PL40019",
		"names":"",
		"pinyin":[]
	},
	{
		"authorityID":"PL000000040020",
		"name":"姚城",
		"dynasty":"唐",
		"long":"101.2142",
		"lat":"25.57",
		"districtHistorical":"唐_劍南道",
		"districtModern":"中國-雲南省-楚雄彝族自治州-姚安縣",
		"note":null,
		"lang":"中文",
		"shortAuthorityID":"PL40020",
		"names":"",
		"pinyin":[]
	},
	{
		"authorityID":"PL000000040021",
		"name":"前場",
		"dynasty":"明",
		"long":"101.3699",
		"lat":"25.5418",
		"districtHistorical":"明_雲南",
		"districtModern":"中國-雲南省-楚雄彝族自治州-姚安縣",
		"note":null,
		"lang":"中文",
		"shortAuthorityID":"PL40021",
		"names":"",
		"pinyin":[]
	},
	{
		"authorityID":"PL000000040022",
		"name":"姚州",
		"dynasty":"清",
		"long":"101.2503",
		"lat":"25.5134",
		"districtHistorical":"清_雲南",
		"districtModern":"中國-雲南省-楚雄彝族自治州-姚安縣",
		"note":"元憲宗七年（1257）改為統矢千戶所。元至元十二年（1275）改統矢千戶所復置姚州，治今姚安縣。清屬楚雄府。（<a target=\"_blank\" href=\"http:\/\/zh.wikipedia.org\/wiki\/%E5%A7%9A%E5%B7%9E\">http:\/\/zh.wikipedia.org\/wiki\/姚州<\/a>，2011.10.19）",
		"lang":"中文",
		"shortAuthorityID":"PL40022",
		"names":"",
		"pinyin":[]
	},
	{
		"authorityID":"PL000000040023",
		"name":"姚安府",
		"dynasty":"明",
		"long":"101.2503",
		"lat":"25.5134",
		"districtHistorical":"明_雲南",
		"districtModern":"中國-雲南省-楚雄彝族自治州-姚安縣",
		"note":"明洪武十五年（1382）改姚安路置，治姚州（今雲南姚安縣）。轄境約當今雲南省姚安、大姚、永仁三縣及四川攀枝花市金沙江以南地區。乾隆三十五年（1770）廢。（<a target=\"_blank\" href=\"http:\/\/zh.wikipedia.org\/wiki\/%E5%A7%9A%E5%AE%89%E5%BA%9C\">http:\/\/zh.wikipedia.org\/wiki\/姚安府<\/a>，2011.10.11）",
		"lang":"中文",
		"shortAuthorityID":"PL40023",
		"names":"",
		"pinyin":[]
	},
	{
		"authorityID":"PL000000040024",
		"name":"姚州",
		"dynasty":"明",
		"long":"101.2503",
		"lat":"25.5134",
		"districtHistorical":"明_雲南",
		"districtModern":"中國-雲南省-楚雄彝族自治州-姚安縣",
		"note":"唐武德四年（621）以此地人多姓姚置姚州和附郭縣姚城，治今雲南省姚安縣西北舊城。明為姚安府治。（<a target=\"_blank\" href=\"http:\/\/zh.wikipedia.org\/wiki\/%E5%A7%9A%E5%B7%9E\">http:\/\/zh.wikipedia.org\/wiki\/姚州<\/a>，2011.10.19）",
		"lang":"中文",
		"shortAuthorityID":"PL40024",
		"names":"",
		"pinyin":[]
	},
	{
		"authorityID":"PL000000040025",
		"name":"姚安路",
		"dynasty":"元",
		"long":"101.2503",
		"lat":"25.5134",
		"districtHistorical":"元_雲南行省",
		"districtModern":"中國-雲南省-楚雄彝族自治州-姚安縣",
		"note":null,
		"lang":"中文",
		"shortAuthorityID":"PL40025",
		"names":"",
		"pinyin":[]
	},
	{
		"authorityID":"PL000000040026",
		"name":"姚州",
		"dynasty":"元",
		"long":"101.2503",
		"lat":"25.5134",
		"districtHistorical":"元_雲南行省",
		"districtModern":"中國-雲南省-楚雄彝族自治州-姚安縣",
		"note":null,
		"lang":"中文",
		"shortAuthorityID":"PL40026",
		"names":"",
		"pinyin":[]
	},
	{
		"authorityID":"PL000000040027",
		"name":"弄棟府",
		"dynasty":"大理",
		"long":"101.2503",
		"lat":"25.5134",
		"districtHistorical":"大理_騰沖府",
		"districtModern":"中國-雲南省-楚雄彝族自治州-姚安縣",
		"note":null,
		"lang":"中文",
		"shortAuthorityID":"PL40027",
		"names":"",
		"pinyin":[]
	},
	{
		"authorityID":"PL000000040028",
		"name":"弄棟府",
		"dynasty":"大理",
		"long":"101.2503",
		"lat":"25.5134",
		"districtHistorical":"大理",
		"districtModern":"中國-雲南省-楚雄彝族自治州-姚安縣",
		"note":null,
		"lang":"中文",
		"shortAuthorityID":"PL40028",
		"names":"",
		"pinyin":[]
	},
	{
		"authorityID":"PL000000040029",
		"name":"姚府",
		"dynasty":"大理",
		"long":"101.2503",
		"lat":"25.5134",
		"districtHistorical":"大理",
		"districtModern":"中國-雲南省-楚雄彝族自治州-姚安縣",
		"note":null,
		"lang":"中文",
		"shortAuthorityID":"PL40029",
		"names":"",
		"pinyin":[]
	},
	{
		"authorityID":"PL000000040030",
		"name":"青蛉驛",
		"dynasty":"明",
		"long":"101.2366",
		"lat":"25.4744",
		"districtHistorical":"明_雲南",
		"districtModern":"中國-雲南省-楚雄彝族自治州-姚安縣",
		"note":null,
		"lang":"中文",
		"shortAuthorityID":"PL40030",
		"names":"",
		"pinyin":[]
	},
	{
		"authorityID":"PL000000040031",
		"name":"三窠",
		"dynasty":"明",
		"long":"101.2345",
		"lat":"25.366",
		"districtHistorical":"明_雲南",
		"districtModern":"中國-雲南省-楚雄彝族自治州-姚安縣",
		"note":null,
		"lang":"中文",
		"shortAuthorityID":"PL40031",
		"names":"",
		"pinyin":{
			"三窠":"sān kē"
		}
	},
	{
		"authorityID":"PL000000040032",
		"name":"尹州",
		"dynasty":"唐",
		"long":"101.5269",
		"lat":"25.5859",
		"districtHistorical":"唐_劍南道",
		"districtModern":"中國-雲南省-楚雄彝族自治州-姚安縣",
		"note":null,
		"lang":"中文",
		"shortAuthorityID":"PL40032",
		"names":"",
		"pinyin":[]
	},
	{
		"authorityID":"PL000000040033",
		"name":"妙峰山",
		"dynasty":null,
		"long":"101.292769",
		"lat":"25.626384",
		"districtHistorical":null,
		"districtModern":"中國-雲南省-楚雄彝族自治州-大姚縣",
		"note":"位於大姚城南12公里之倉街鄉境內，山頂海撥高2341米。山有德云寺，是徹庸禪師所建，創建於明代末年。（<a target=\"_blank\" href=\"http:\/\/baike.baidu.com\/view\/1312002.htm\">http:\/\/baike.baidu.com\/view\/1312002.htm<\/a>，2010.12.22）",
		"lang":"中文",
		"shortAuthorityID":"PL40033",
		"names":"",
		"pinyin":[]
	},
	{
		"authorityID":"PL000000040034",
		"name":"曇華山",
		"dynasty":null,
		"long":"101.228522",
		"lat":"25.961744",
		"districtHistorical":null,
		"districtModern":"中國-雲南省-楚雄彝族自治州-大姚縣",
		"note":"位於雲南楚雄州大姚縣境內。城北48公里，海拔3117米，總面積約110平方公里。山有曇華寺，由南明太僕寺卿高泰翟，子高天明創建，並坐逝於此。為滇西名山。（<a target=\"_blank\" href=\"http:\/\/baike.baidu.com\/view\/550774.htm\">http:\/\/baike.baidu.com\/view\/550774.htm<\/a>，2011.01.28）",
		"lang":"中文",
		"shortAuthorityID":"PL40034",
		"names":"",
		"pinyin":[]
	},
	{
		"authorityID":"PL000000040035",
		"mergeTo":null,
		"names":"",
		"pinyin":[]
	},
	{
		"authorityID":"PL000000040036",
		"name":"曇華寺",
		"dynasty":null,
		"long":"101.228789",
		"lat":"25.965916",
		"districtHistorical":null,
		"districtModern":"中國-雲南省-楚雄彝族自治州-大姚縣",
		"note":"位雲南楚雄州大姚縣曇華山。悟禎大師所創。（g084p0440）",
		"lang":"中文",
		"shortAuthorityID":"PL40036",
		"names":"",
		"pinyin":[]
	},
	{
		"authorityID":"PL000000040037",
		"name":"鐵索菁",
		"dynasty":"明",
		"long":"100.9878",
		"lat":"26.1298",
		"districtHistorical":"明_雲南",
		"districtModern":"中國-雲南省-楚雄彝族自治州-大姚縣",
		"note":null,
		"lang":"中文",
		"shortAuthorityID":"PL40037",
		"names":"",
		"pinyin":[]
	},
	{
		"authorityID":"PL000000040038",
		"name":"濮水",
		"dynasty":"唐",
		"long":"101.1013",
		"lat":"25.8729",
		"districtHistorical":"唐_劍南道",
		"districtModern":"中國-雲南省-楚雄彝族自治州-大姚縣",
		"note":"",
		"lang":"中文",
		"shortAuthorityID":"PL40038",
		"names":"",
		"pinyin":{
			"濮水":"pú shuǐ"
		}
	},
	{
		"authorityID":"PL000000040039",
		"name":"白井",
		"dynasty":"清",
		"long":"101.1216",
		"lat":"25.8693",
		"districtHistorical":"清_雲南",
		"districtModern":"中國-雲南省-楚雄彝族自治州-大姚縣",
		"note":null,
		"lang":"中文",
		"shortAuthorityID":"PL40039",
		"names":"",
		"pinyin":[]
	},
	{
		"authorityID":"PL000000040040",
		"name":"白鹽井",
		"dynasty":"明",
		"long":"101.1167",
		"lat":"25.8648",
		"districtHistorical":"明_雲南",
		"districtModern":"中國-雲南省-楚雄彝族自治州-大姚縣",
		"note":null,
		"lang":"中文",
		"shortAuthorityID":"PL40040",
		"names":"",
		"pinyin":[]
	},
	{
		"authorityID":"PL000000040041",
		"name":"白鹽城",
		"dynasty":"元",
		"long":"101.1167",
		"lat":"25.8648",
		"districtHistorical":"元_雲南行省",
		"districtModern":"中國-雲南省-楚雄彝族自治州-大姚縣",
		"note":null,
		"lang":"中文",
		"shortAuthorityID":"PL40041",
		"names":"",
		"pinyin":[]
	},
	{
		"authorityID":"PL000000040042",
		"name":"青蛉",
		"dynasty":"西漢",
		"long":"101.3312",
		"lat":"25.7488",
		"districtHistorical":"西漢_益州刺史部",
		"districtModern":"中國-雲南省-楚雄彝族自治州-大姚縣",
		"note":null,
		"lang":"中文",
		"shortAuthorityID":"PL40042",
		"names":"",
		"pinyin":[]
	},
	{
		"authorityID":"PL000000040043",
		"name":"大姚",
		"dynasty":"清",
		"long":"101.3332",
		"lat":"25.7253",
		"districtHistorical":"清_雲南",
		"districtModern":"中國-雲南省-楚雄彝族自治州-大姚縣",
		"note":null,
		"lang":"中文",
		"shortAuthorityID":"PL40043",
		"names":"",
		"pinyin":[]
	},
	{
		"authorityID":"PL000000040044",
		"name":"大姚",
		"dynasty":"明",
		"long":"101.3332",
		"lat":"25.7253",
		"districtHistorical":"明_雲南",
		"districtModern":"中國-雲南省-楚雄彝族自治州-大姚縣",
		"note":null,
		"lang":"中文",
		"shortAuthorityID":"PL40044",
		"names":"",
		"pinyin":[]
	},
	{
		"authorityID":"PL000000040045",
		"name":"大姚",
		"dynasty":"元",
		"long":"101.3332",
		"lat":"25.7253",
		"districtHistorical":"元_雲南行省",
		"districtModern":"中國-雲南省-楚雄彝族自治州-大姚縣",
		"note":null,
		"lang":"中文",
		"shortAuthorityID":"PL40045",
		"names":"",
		"pinyin":[]
	},
	{
		"authorityID":"PL000000040046",
		"name":"青蛉",
		"dynasty":"南齊",
		"long":"101.3332",
		"lat":"25.7253",
		"districtHistorical":"南朝齊_寧州",
		"districtModern":"中國-雲南省-楚雄彝族自治州-大姚縣",
		"note":null,
		"lang":"中文",
		"shortAuthorityID":"PL40046",
		"names":"",
		"pinyin":[]
	},
	{
		"authorityID":"PL000000040047",
		"name":"興寧郡",
		"dynasty":"南齊",
		"long":"101.3332",
		"lat":"25.7253",
		"districtHistorical":"南朝齊_寧州",
		"districtModern":"中國-雲南省-楚雄彝族自治州-大姚縣",
		"note":null,
		"lang":"中文",
		"shortAuthorityID":"PL40047",
		"names":"",
		"pinyin":[]
	},
	{
		"authorityID":"PL000000040048",
		"name":"青蛉",
		"dynasty":"西晉",
		"long":"101.3332",
		"lat":"25.7253",
		"districtHistorical":"西晉_寧州",
		"districtModern":"中國-雲南省-楚雄彝族自治州-大姚縣",
		"note":null,
		"lang":"中文",
		"shortAuthorityID":"PL40048",
		"names":"",
		"pinyin":[]
	},
	{
		"authorityID":"PL000000040049",
		"name":"青蛉",
		"dynasty":"蜀漢",
		"long":"101.3332",
		"lat":"25.7253",
		"districtHistorical":"三國蜀漢_益州",
		"districtModern":"中國-雲南省-楚雄彝族自治州-大姚縣",
		"note":null,
		"lang":"中文",
		"shortAuthorityID":"PL40049",
		"names":"",
		"pinyin":[]
	},
	{
		"authorityID":"PL000000040050",
		"name":"青蛉",
		"dynasty":"東漢",
		"long":"101.3332",
		"lat":"25.7253",
		"districtHistorical":"東漢_益州刺史部",
		"districtModern":"中國-雲南省-楚雄彝族自治州-大姚縣",
		"note":null,
		"lang":"中文",
		"shortAuthorityID":"PL40050",
		"names":"",
		"pinyin":[]
	},
	{
		"authorityID":"PL000000040051",
		"name":"長城",
		"dynasty":"唐",
		"long":"101.225",
		"lat":"25.6447",
		"districtHistorical":"唐_劍南道",
		"districtModern":"中國-雲南省-楚雄彝族自治州-大姚縣",
		"note":null,
		"lang":"中文",
		"shortAuthorityID":"PL40051",
		"names":"",
		"pinyin":[]
	},
	{
		"authorityID":"PL000000040052",
		"name":"褒州",
		"dynasty":"唐",
		"long":"101.3775",
		"lat":"25.6659",
		"districtHistorical":"唐_劍南道",
		"districtModern":"中國-雲南省-楚雄彝族自治州-大姚縣",
		"note":null,
		"lang":"中文",
		"shortAuthorityID":"PL40052",
		"names":"",
		"pinyin":{
			"褒州":"bāo zhōu"
		}
	},
	{
		"authorityID":"PL000000040053",
		"name":"髳州",
		"dynasty":"唐",
		"long":"101.1013",
		"lat":"25.8729",
		"districtHistorical":"唐_劍南道",
		"districtModern":"中國-雲南省-楚雄彝族自治州-大姚縣",
		"note":null,
		"lang":"中文",
		"shortAuthorityID":"PL40053",
		"names":"",
		"pinyin":[]
	},
	{
		"authorityID":"PL000000040054",
		"name":"姚安中屯所",
		"dynasty":"明",
		"long":"101.3332",
		"lat":"25.7253",
		"districtHistorical":"明_雲南",
		"districtModern":"中國-雲南省-楚雄彝族自治州-大姚縣",
		"note":null,
		"lang":"中文",
		"shortAuthorityID":"PL40054",
		"names":"",
		"pinyin":[]
	},
	{
		"authorityID":"PL000000040055",
		"name":"苴卻",
		"dynasty":"明",
		"long":"101.6821",
		"lat":"26.0622",
		"districtHistorical":"明_雲南",
		"districtModern":"中國-雲南省-楚雄彝族自治州-永仁縣",
		"note":null,
		"lang":"中文",
		"shortAuthorityID":"PL40055",
		"names":"",
		"pinyin":[]
	},
	{
		"authorityID":"PL000000040056",
		"name":"深利",
		"dynasty":"唐",
		"long":"101.6821",
		"lat":"26.0622",
		"districtHistorical":"唐_劍南道",
		"districtModern":"中國-雲南省-楚雄彝族自治州-永仁縣",
		"note":null,
		"lang":"中文",
		"shortAuthorityID":"PL40056",
		"names":"",
		"pinyin":{
			"深利":"shēn lì"
		}
	},
	{
		"authorityID":"PL000000040057",
		"name":"微州",
		"dynasty":"唐",
		"long":"101.6821",
		"lat":"26.0622",
		"districtHistorical":"唐_劍南道",
		"districtModern":"中國-雲南省-楚雄彝族自治州-永仁縣",
		"note":null,
		"lang":"中文",
		"shortAuthorityID":"PL40057",
		"names":"",
		"pinyin":{
			"微州":"wēi zhōu"
		}
	},
	{
		"authorityID":"PL000000040058",
		"name":"姜驛",
		"dynasty":"明",
		"long":"101.9184",
		"lat":"26.0627",
		"districtHistorical":"明_雲南",
		"districtModern":"中國-雲南省-楚雄彝族自治州-元謀縣",
		"note":null,
		"lang":"中文",
		"shortAuthorityID":"PL40058",
		"names":"",
		"pinyin":{
			"姜驛":"jiāng yì"
		}
	},
	{
		"authorityID":"PL000000040059",
		"name":"姜站",
		"dynasty":"元",
		"long":"101.9184",
		"lat":"26.0627",
		"districtHistorical":"元_雲南行省",
		"districtModern":"中國-雲南省-楚雄彝族自治州-元謀縣",
		"note":null,
		"lang":"中文",
		"shortAuthorityID":"PL40059",
		"names":"",
		"pinyin":[]
	},
	{
		"authorityID":"PL000000040060",
		"name":"三縫",
		"dynasty":"蜀漢",
		"long":"101.9266",
		"lat":"26.0621",
		"districtHistorical":"三國蜀漢_益州",
		"districtModern":"中國-雲南省-楚雄彝族自治州-元謀縣",
		"note":null,
		"lang":"中文",
		"shortAuthorityID":"PL40060",
		"names":"",
		"pinyin":[]
	},
	{
		"authorityID":"PL000000040061",
		"name":"姜驛",
		"dynasty":"清",
		"long":"101.9159",
		"lat":"26.0508",
		"districtHistorical":"清_雲南",
		"districtModern":"中國-雲南省-楚雄彝族自治州-元謀縣",
		"note":null,
		"lang":"中文",
		"shortAuthorityID":"PL40061",
		"names":"",
		"pinyin":{
			"姜驛":"jiāng yì"
		}
	},
	{
		"authorityID":"PL000000040062",
		"name":"三縫",
		"dynasty":"東漢",
		"long":"101.924",
		"lat":"26.0462",
		"districtHistorical":"東漢_益州刺史部",
		"districtModern":"中國-雲南省-楚雄彝族自治州-元謀縣",
		"note":null,
		"lang":"中文",
		"shortAuthorityID":"PL40062",
		"names":"",
		"pinyin":[]
	},
	{
		"authorityID":"PL000000040063",
		"name":"三綘",
		"dynasty":"西漢",
		"long":"101.9016",
		"lat":"26.0352",
		"districtHistorical":"西漢_益州刺史部",
		"districtModern":"中國-雲南省-楚雄彝族自治州-元謀縣",
		"note":"",
		"lang":"中文",
		"shortAuthorityID":"PL40063",
		"names":"",
		"pinyin":{
			"三綘":"sān féng"
		}
	},
	{
		"authorityID":"PL000000040064",
		"name":"金沙江",
		"dynasty":"明",
		"long":"101.9012",
		"lat":"25.9672",
		"districtHistorical":"明_雲南",
		"districtModern":"中國-雲南省-楚雄彝族自治州-元謀縣",
		"note":null,
		"lang":"中文",
		"shortAuthorityID":"PL40064",
		"names":"",
		"pinyin":[]
	},
	{
		"authorityID":"PL000000040065",
		"name":"金沙江",
		"dynasty":"清",
		"long":"101.8943",
		"lat":"25.9517",
		"districtHistorical":"清_雲南",
		"districtModern":"中國-雲南省-楚雄彝族自治州-元謀縣",
		"note":"",
		"lang":"中文",
		"shortAuthorityID":"PL40065",
		"names":"",
		"pinyin":[]
	},
	{
		"authorityID":"PL000000040066",
		"name":"元謀",
		"dynasty":"清",
		"long":"101.8845",
		"lat":"25.7036",
		"districtHistorical":"清_雲南",
		"districtModern":"中國-雲南省-楚雄彝族自治州-元謀縣",
		"note":null,
		"lang":"中文",
		"shortAuthorityID":"PL40066",
		"names":"",
		"pinyin":{
			"元謀":"yuán móu"
		}
	},
	{
		"authorityID":"PL000000040067",
		"name":"元謀",
		"dynasty":"明",
		"long":"101.8845",
		"lat":"25.7036",
		"districtHistorical":"明_雲南",
		"districtModern":"中國-雲南省-楚雄彝族自治州-元謀縣",
		"note":null,
		"lang":"中文",
		"shortAuthorityID":"PL40067",
		"names":"",
		"pinyin":{
			"元謀":"yuán móu"
		}
	},
	{
		"authorityID":"PL000000040068",
		"name":"元謀",
		"dynasty":"元",
		"long":"101.8845",
		"lat":"25.7036",
		"districtHistorical":"元_雲南行省",
		"districtModern":"中國-雲南省-楚雄彝族自治州-元謀縣",
		"note":null,
		"lang":"中文",
		"shortAuthorityID":"PL40068",
		"names":"",
		"pinyin":{
			"元謀":"yuán móu"
		}
	},
	{
		"authorityID":"PL000000040069",
		"name":"磨豫",
		"dynasty":"唐",
		"long":"101.8845",
		"lat":"25.7036",
		"districtHistorical":"唐_劍南道",
		"districtModern":"中國-雲南省-楚雄彝族自治州-元謀縣",
		"note":null,
		"lang":"中文",
		"shortAuthorityID":"PL40069",
		"names":"",
		"pinyin":[]
	},
	{
		"authorityID":"PL000000040070",
		"name":"甘泉",
		"dynasty":"唐",
		"long":"101.9102",
		"lat":"25.4733",
		"districtHistorical":"唐_劍南道",
		"districtModern":"中國-雲南省-楚雄彝族自治州-元謀縣",
		"note":null,
		"lang":"中文",
		"shortAuthorityID":"PL40070",
		"names":"",
		"pinyin":[]
	},
	{
		"authorityID":"PL000000040071",
		"name":"湧泉",
		"dynasty":"唐",
		"long":"101.8918",
		"lat":"25.362",
		"districtHistorical":"唐_劍南道",
		"districtModern":"中國-雲南省-楚雄彝族自治州-元謀縣",
		"note":null,
		"lang":"中文",
		"shortAuthorityID":"PL40071",
		"names":"",
		"pinyin":{
			"湧泉":"yǒng quán"
		}
	},
	{
		"authorityID":"PL000000040072",
		"name":"七部",
		"dynasty":"唐",
		"long":"101.8563",
		"lat":"25.8825",
		"districtHistorical":"唐_劍南道",
		"districtModern":"中國-雲南省-楚雄彝族自治州-元謀縣",
		"note":null,
		"lang":"中文",
		"shortAuthorityID":"PL40072",
		"names":"",
		"pinyin":[]
	},
	{
		"authorityID":"PL000000040073",
		"name":"靡州",
		"dynasty":"唐",
		"long":"101.8845",
		"lat":"25.7036",
		"districtHistorical":"唐_劍南道",
		"districtModern":"中國-雲南省-楚雄彝族自治州-元謀縣",
		"note":null,
		"lang":"中文",
		"shortAuthorityID":"PL40073",
		"names":"",
		"pinyin":[]
	},
	{
		"authorityID":"PL000000040074",
		"name":"正續寺",
		"dynasty":"元",
		"long":"102.374424",
		"lat":"25.536532",
		"districtHistorical":null,
		"districtModern":"中國-雲南省-楚雄彝族自治州-武定縣",
		"note":"在獅子山，元時建，明末重建。（明清序：211；<a target=\"_blank\" href=\"http:\/\/baike.baidu.com\/view\/186844.htm\">http:\/\/baike.baidu.com\/view\/186844.htm<\/a>，2009.07.13；<a target=\"_blank\" href=\" http:\/\/chgis.hmdc.harvard.edu\/search_details_1.php?ptid=relig_2238\"> http:\/\/chgis.hmdc.harvard.edu\/search_details_1.php?ptid=relig_2238<\/a>，2009.07.01）",
		"lang":"中文",
		"shortAuthorityID":"PL40074",
		"names":"[中文] 正續禪寺",
		"pinyin":{
			"正續寺":"zhèng xù sì"
		}
	},
	{
		"authorityID":"PL000000040075",
		"name":"環州驛",
		"dynasty":"明",
		"long":"101.99",
		"lat":"25.8797",
		"districtHistorical":"明_雲南",
		"districtModern":"中國-雲南省-楚雄彝族自治州-武定縣",
		"note":null,
		"lang":"中文",
		"shortAuthorityID":"PL40075",
		"names":"",
		"pinyin":[]
	},
	{
		"authorityID":"PL000000040076",
		"name":"環州站",
		"dynasty":"元",
		"long":"101.99",
		"lat":"25.8797",
		"districtHistorical":"元_雲南行省",
		"districtModern":"中國-雲南省-楚雄彝族自治州-武定縣",
		"note":null,
		"lang":"中文",
		"shortAuthorityID":"PL40076",
		"names":"",
		"pinyin":[]
	},
	{
		"authorityID":"PL000000040077",
		"name":"羅摩耳",
		"dynasty":"明",
		"long":"102.2428",
		"lat":"25.6701",
		"districtHistorical":"明_雲南",
		"districtModern":"中國-雲南省-楚雄彝族自治州-武定縣",
		"note":null,
		"lang":"中文",
		"shortAuthorityID":"PL40077",
		"names":"",
		"pinyin":[]
	},
	{
		"authorityID":"PL000000040078",
		"name":"虛仁驛",
		"dynasty":"清",
		"long":"102.1043",
		"lat":"25.6448",
		"districtHistorical":"清_雲南",
		"districtModern":"中國-雲南省-楚雄彝族自治州-武定縣",
		"note":null,
		"lang":"中文",
		"shortAuthorityID":"PL40078",
		"names":"",
		"pinyin":{
			"虛仁驛":"xū rén yì"
		}
	},
	{
		"authorityID":"PL000000040079",
		"name":"虛仁驛",
		"dynasty":"明",
		"long":"102.0816",
		"lat":"25.6441",
		"districtHistorical":"明_雲南",
		"districtModern":"中國-雲南省-楚雄彝族自治州-武定縣",
		"note":null,
		"lang":"中文",
		"shortAuthorityID":"PL40079",
		"names":"",
		"pinyin":{
			"虛仁驛":"xū rén yì"
		}
	},
	{
		"authorityID":"PL000000040080",
		"name":"虛仁站",
		"dynasty":"元",
		"long":"102.0816",
		"lat":"25.6441",
		"districtHistorical":"元_雲南行省",
		"districtModern":"中國-雲南省-楚雄彝族自治州-武定縣",
		"note":null,
		"lang":"中文",
		"shortAuthorityID":"PL40080",
		"names":"",
		"pinyin":[]
	},
	{
		"authorityID":"PL000000040081",
		"name":"龍街關",
		"dynasty":"明",
		"long":"102.1803",
		"lat":"25.6138",
		"districtHistorical":"明_雲南",
		"districtModern":"中國-雲南省-楚雄彝族自治州-武定縣",
		"note":null,
		"lang":"中文",
		"shortAuthorityID":"PL40081",
		"names":"",
		"pinyin":[]
	},
	{
		"authorityID":"PL000000040082",
		"name":"鞍山站",
		"dynasty":"元",
		"long":"102.1803",
		"lat":"25.6138",
		"districtHistorical":"元_雲南行省",
		"districtModern":"中國-雲南省-楚雄彝族自治州-武定縣",
		"note":null,
		"lang":"中文",
		"shortAuthorityID":"PL40082",
		"names":"",
		"pinyin":[]
	},
	{
		"authorityID":"PL000000040083",
		"name":"乾海子",
		"dynasty":"明",
		"long":"102.2447",
		"lat":"25.5903",
		"districtHistorical":"明_雲南",
		"districtModern":"中國-雲南省-楚雄彝族自治州-武定縣",
		"note":null,
		"lang":"中文",
		"shortAuthorityID":"PL40083",
		"names":"",
		"pinyin":[]
	},
	{
		"authorityID":"PL000000040084",
		"name":"武定州",
		"dynasty":"清",
		"long":"102.4062",
		"lat":"25.5354",
		"districtHistorical":"清_雲南",
		"districtModern":"中國-雲南省-楚雄彝族自治州-武定縣",
		"note":null,
		"lang":"中文",
		"shortAuthorityID":"PL40084",
		"names":"",
		"pinyin":{
			"武定州":"wǔ dìng zhōu"
		}
	},
	{
		"authorityID":"PL000000040085",
		"name":"和曲州",
		"dynasty":"明",
		"long":"102.4062",
		"lat":"25.5354",
		"districtHistorical":"明_雲南",
		"districtModern":"中國-雲南省-楚雄彝族自治州-武定縣",
		"note":null,
		"lang":"中文",
		"shortAuthorityID":"PL40085",
		"names":"",
		"pinyin":[]
	},
	{
		"authorityID":"PL000000040086",
		"name":"武定府",
		"dynasty":"明",
		"long":"102.4062",
		"lat":"25.5354",
		"districtHistorical":"明_雲南",
		"districtModern":"中國-雲南省-楚雄彝族自治州-武定縣",
		"note":null,
		"lang":"中文",
		"shortAuthorityID":"PL40086",
		"names":"",
		"pinyin":{
			"武定府":"wǔ dìng fǔ"
		}
	},
	{
		"authorityID":"PL000000040087",
		"name":"武定路",
		"dynasty":"元",
		"long":"102.4062",
		"lat":"25.5354",
		"districtHistorical":"元_雲南行省",
		"districtModern":"中國-雲南省-楚雄彝族自治州-武定縣",
		"note":null,
		"lang":"中文",
		"shortAuthorityID":"PL40087",
		"names":"",
		"pinyin":[]
	},
	{
		"authorityID":"PL000000040088",
		"name":"南甸",
		"dynasty":"元",
		"long":"102.4062",
		"lat":"25.5354",
		"districtHistorical":"元_雲南行省",
		"districtModern":"中國-雲南省-楚雄彝族自治州-武定縣",
		"note":null,
		"lang":"中文",
		"shortAuthorityID":"PL40088",
		"names":"",
		"pinyin":[]
	},
	{
		"authorityID":"PL000000040089",
		"name":"和曲州",
		"dynasty":"元",
		"long":"102.388",
		"lat":"25.5308",
		"districtHistorical":"元_雲南行省",
		"districtModern":"中國-雲南省-楚雄彝族自治州-武定縣",
		"note":null,
		"lang":"中文",
		"shortAuthorityID":"PL40089",
		"names":"",
		"pinyin":[]
	},
	{
		"authorityID":"PL000000040090",
		"name":"大麥地",
		"dynasty":"清",
		"long":"102.1603",
		"lat":"25.5052",
		"districtHistorical":"清_雲南",
		"districtModern":"中國-雲南省-楚雄彝族自治州-武定縣",
		"note":null,
		"lang":"中文",
		"shortAuthorityID":"PL40090",
		"names":"",
		"pinyin":[]
	},
	{
		"authorityID":"PL000000040091",
		"name":"小甸關",
		"dynasty":"明",
		"long":"102.4446",
		"lat":"25.4377",
		"districtHistorical":"明_雲南",
		"districtModern":"中國-雲南省-楚雄彝族自治州-武定縣",
		"note":null,
		"lang":"中文",
		"shortAuthorityID":"PL40091",
		"names":"",
		"pinyin":[]
	},
	{
		"authorityID":"PL000000040092",
		"name":"雞街",
		"dynasty":"清",
		"long":"102.4443",
		"lat":"25.3519",
		"districtHistorical":"清_雲南",
		"districtModern":"中國-雲南省-楚雄彝族自治州-武定縣",
		"note":null,
		"lang":"中文",
		"shortAuthorityID":"PL40092",
		"names":"",
		"pinyin":{
			"雞街":"jī jiē"
		}
	},
	{
		"authorityID":"PL000000040093",
		"name":"求州",
		"dynasty":"唐",
		"long":"102.1988",
		"lat":"25.5828",
		"districtHistorical":"唐_劍南道",
		"districtModern":"中國-雲南省-楚雄彝族自治州-武定縣",
		"note":null,
		"lang":"中文",
		"shortAuthorityID":"PL40093",
		"names":"",
		"pinyin":{
			"求州":"qiú zhōu"
		}
	},
	{
		"authorityID":"PL000000040094",
		"name":"建都郡",
		"dynasty":"南齊",
		"long":"102.2245",
		"lat":"25.5982",
		"districtHistorical":"南朝 齊_寧州",
		"districtModern":"中國-雲南省-楚雄彝族自治州-武定縣",
		"note":null,
		"lang":"中文",
		"shortAuthorityID":"PL40094",
		"names":"",
		"pinyin":[]
	},
	{
		"authorityID":"PL000000040095",
		"name":"建都郡",
		"dynasty":"東晉",
		"long":"102.0956",
		"lat":"25.7201",
		"districtHistorical":"東晉_寧州",
		"districtModern":"中國-雲南省-楚雄彝族自治州-武定縣",
		"note":null,
		"lang":"中文",
		"shortAuthorityID":"PL40095",
		"names":"",
		"pinyin":[]
	},
	{
		"authorityID":"PL000000040096",
		"name":"獅子口",
		"dynasty":null,
		"long":"102.214108",
		"lat":"24.969393",
		"districtHistorical":null,
		"districtModern":"中國-雲南省-楚雄彝族自治州-祿豐縣",
		"note":"位在祿豐縣東四十里老鴉關。（g084p0432；<a target=\"_blank\" href=\"http:\/\/zh.wikisource.org\/zh-hant\/%E8%AE%80%E5%8F%B2%E6%96%B9%E8%BC%BF%E7%B4%80%E8%A6%81\/%E5%8D%B7%E4%B8%80%E7%99%BE%E5%8D%81%E5%9B%9B\">http:\/\/zh.wikisource.org\/zh-hant\/%E8%AE%80%E5%8F%B2%E6%96%B9%E8%BC%BF%E7%B4%80%E8%A6%81\/%E5%8D%B7%E4%B8%80%E7%99%BE%E5%8D%81%E5%9B%9B<\/a>，2010.7.18）",
		"lang":"中文",
		"shortAuthorityID":"PL40096",
		"names":"",
		"pinyin":[]
	},
	{
		"authorityID":"PL000000040097",
		"name":"凈蓮寺",
		"dynasty":null,
		"long":"102.214108",
		"lat":"24.969393",
		"districtHistorical":null,
		"districtModern":"中國-雲南省-楚雄彝族自治州-祿豐縣",
		"note":"在祿豐縣獅子口。大千禪師建造。（g084p0432）",
		"lang":"中文",
		"shortAuthorityID":"PL40097",
		"names":"",
		"pinyin":[]
	},
	{
		"authorityID":"PL000000040098",
		"name":"黑井",
		"dynasty":"清",
		"long":"101.747",
		"lat":"25.3905",
		"districtHistorical":"清_雲南",
		"districtModern":"中國-雲南省-楚雄彝族自治州-祿豐縣",
		"note":null,
		"lang":"中文",
		"shortAuthorityID":"PL40098",
		"names":"",
		"pinyin":[]
	},
	{
		"authorityID":"PL000000040099",
		"name":"黑井",
		"dynasty":"明",
		"long":"101.7421",
		"lat":"25.3902",
		"districtHistorical":"明_雲南",
		"districtModern":"中國-雲南省-楚雄彝族自治州-祿豐縣",
		"note":null,
		"lang":"中文",
		"shortAuthorityID":"PL40099",
		"names":"",
		"pinyin":[]
	},
	{
		"authorityID":"PL000000040100",
		"name":"黑鹽井",
		"dynasty":"元",
		"long":"101.7421",
		"lat":"25.3902",
		"districtHistorical":"元_雲南行省",
		"districtModern":"中國-雲南省-楚雄彝族自治州-祿豐縣",
		"note":null,
		"lang":"中文",
		"shortAuthorityID":"PL40100",
		"names":"",
		"pinyin":[]
	},
	{
		"authorityID":"PL000000040101",
		"name":"羅次",
		"dynasty":"清",
		"long":"102.2898",
		"lat":"25.3181",
		"districtHistorical":"清_雲南",
		"districtModern":"中國-雲南省-楚雄彝族自治州-祿豐縣",
		"note":"",
		"lang":"中文",
		"shortAuthorityID":"PL40101",
		"names":"",
		"pinyin":[]
	},
	{
		"authorityID":"PL000000040102",
		"name":"羅次",
		"dynasty":"明",
		"long":"102.2919",
		"lat":"25.31",
		"districtHistorical":"明_雲南",
		"districtModern":"中國-雲南省-楚雄彝族自治州-祿豐縣",
		"note":"",
		"lang":"中文",
		"shortAuthorityID":"PL40102",
		"names":"",
		"pinyin":[]
	},
	{
		"authorityID":"PL000000040103",
		"name":"羅次",
		"dynasty":"元",
		"long":"102.2919",
		"lat":"25.31",
		"districtHistorical":"元_雲南行省",
		"districtModern":"中國-雲南省-楚雄彝族自治州-祿豐縣",
		"note":null,
		"lang":"中文",
		"shortAuthorityID":"PL40103",
		"names":"",
		"pinyin":[]
	},
	{
		"authorityID":"PL000000040104",
		"name":"沙矣",
		"dynasty":"清",
		"long":"101.9404",
		"lat":"25.2848",
		"districtHistorical":"清_雲南",
		"districtModern":"中國-雲南省-楚雄彝族自治州-祿豐縣",
		"note":null,
		"lang":"中文",
		"shortAuthorityID":"PL40104",
		"names":"",
		"pinyin":[]
	},
	{
		"authorityID":"PL000000040105",
		"name":"沙矣舊",
		"dynasty":"明",
		"long":"101.936",
		"lat":"25.2805",
		"districtHistorical":"明_雲南",
		"districtModern":"中國-雲南省-楚雄彝族自治州-祿豐縣",
		"note":null,
		"lang":"中文",
		"shortAuthorityID":"PL40105",
		"names":"",
		"pinyin":[]
	},
	{
		"authorityID":"PL000000040106",
		"name":"阿陋井",
		"dynasty":"清",
		"long":"101.8709",
		"lat":"25.2378",
		"districtHistorical":"清_雲南",
		"districtModern":"中國-雲南省-楚雄彝族自治州-祿豐縣",
		"note":"",
		"lang":"中文",
		"shortAuthorityID":"PL40106",
		"names":"",
		"pinyin":[]
	},
	{
		"authorityID":"PL000000040107",
		"name":"捨資驛",
		"dynasty":"明",
		"long":"101.9352",
		"lat":"25.2052",
		"districtHistorical":"明_雲南",
		"districtModern":"中國-雲南省-楚雄彝族自治州-祿豐縣",
		"note":null,
		"lang":"中文",
		"shortAuthorityID":"PL40107",
		"names":"",
		"pinyin":[]
	},
	{
		"authorityID":"PL000000040108",
		"name":"捨資站",
		"dynasty":"元",
		"long":"101.9352",
		"lat":"25.2052",
		"districtHistorical":"元_雲南行省",
		"districtModern":"中國-雲南省-楚雄彝族自治州-祿豐縣",
		"note":null,
		"lang":"中文",
		"shortAuthorityID":"PL40108",
		"names":"",
		"pinyin":[]
	},
	{
		"authorityID":"PL000000040109",
		"name":"南平關",
		"dynasty":"清",
		"long":"102.0431",
		"lat":"25.1929",
		"districtHistorical":"清_雲南",
		"districtModern":"中國-雲南省-楚雄彝族自治州-祿豐縣",
		"note":null,
		"lang":"中文",
		"shortAuthorityID":"PL40109",
		"names":"",
		"pinyin":[]
	},
	{
		"authorityID":"PL000000040110",
		"name":"廣通",
		"dynasty":"清",
		"long":"101.7721",
		"lat":"25.1836",
		"districtHistorical":"清_雲南",
		"districtModern":"中國-雲南省-楚雄彝族自治州-祿豐縣",
		"note":null,
		"lang":"中文",
		"shortAuthorityID":"PL40110",
		"names":"",
		"pinyin":[]
	},
	{
		"authorityID":"PL000000040111",
		"name":"廣通",
		"dynasty":"明",
		"long":"101.7612",
		"lat":"25.1782",
		"districtHistorical":"明_雲南",
		"districtModern":"中國-雲南省-楚雄彝族自治州-祿豐縣",
		"note":null,
		"lang":"中文",
		"shortAuthorityID":"PL40111",
		"names":"",
		"pinyin":[]
	},
	{
		"authorityID":"PL000000040112",
		"name":"廣通",
		"dynasty":"元",
		"long":"101.7612",
		"lat":"25.1782",
		"districtHistorical":"元_雲南行省",
		"districtModern":"中國-雲南省-楚雄彝族自治州-祿豐縣",
		"note":null,
		"lang":"中文",
		"shortAuthorityID":"PL40112",
		"names":"",
		"pinyin":[]
	},
	{
		"authorityID":"PL000000040113",
		"name":"南平關",
		"dynasty":"明",
		"long":"102.0514",
		"lat":"25.1764",
		"districtHistorical":"明_雲南",
		"districtModern":"中國-雲南省-楚雄彝族自治州-祿豐縣",
		"note":null,
		"lang":"中文",
		"shortAuthorityID":"PL40113",
		"names":"",
		"pinyin":[]
	},
	{
		"authorityID":"PL000000040114",
		"name":"回蹬關",
		"dynasty":"清",
		"long":"101.71",
		"lat":"25.1605",
		"districtHistorical":"清_雲南",
		"districtModern":"中國-雲南省-楚雄彝族自治州-祿豐縣",
		"note":null,
		"lang":"中文",
		"shortAuthorityID":"PL40114",
		"names":"",
		"pinyin":[]
	},
	{
		"authorityID":"PL000000040115",
		"name":"回蹬關",
		"dynasty":"明",
		"long":"101.7074",
		"lat":"25.1548",
		"districtHistorical":"明_雲南",
		"districtModern":"中國-雲南省-楚雄彝族自治州-祿豐縣",
		"note":null,
		"lang":"中文",
		"shortAuthorityID":"PL40115",
		"names":"",
		"pinyin":[]
	},
	{
		"authorityID":"PL000000040116",
		"name":"祿豐",
		"dynasty":"清",
		"long":"102.088",
		"lat":"25.1469",
		"districtHistorical":"清_雲南",
		"districtModern":"中國-雲南省-楚雄彝族自治州-祿豐縣",
		"note":null,
		"lang":"中文",
		"shortAuthorityID":"PL40116",
		"names":"",
		"pinyin":{
			"祿豐":"lù fēng"
		}
	},
	{
		"authorityID":"PL000000040117",
		"name":"祿豐",
		"dynasty":"明",
		"long":"102.088",
		"lat":"25.1469",
		"districtHistorical":"明_雲南",
		"districtModern":"中國-雲南省-楚雄彝族自治州-祿豐縣",
		"note":"元置祿豐縣，位於雲南省中部。（<a target=\"_blank\" href=\"http:\/\/baike.baidu.com\/view\/162499.htm\">http:\/\/baike.baidu.com\/view\/162499.htm<\/a>，2011.10.19）",
		"lang":"中文",
		"shortAuthorityID":"PL40117",
		"names":"",
		"pinyin":{
			"祿豐":"lù fēng"
		}
	},
	{
		"authorityID":"PL000000040118",
		"name":"祿豐",
		"dynasty":"元",
		"long":"102.088",
		"lat":"25.1469",
		"districtHistorical":"元_雲南行省",
		"districtModern":"中國-雲南省-楚雄彝族自治州-祿豐縣",
		"note":null,
		"lang":"中文",
		"shortAuthorityID":"PL40118",
		"names":"",
		"pinyin":{
			"祿豐":"lù fēng"
		}
	},
	{
		"authorityID":"PL000000040119",
		"name":"煉象關",
		"dynasty":"明",
		"long":"102.1317",
		"lat":"25.0297",
		"districtHistorical":"明_雲南",
		"districtModern":"中國-雲南省-楚雄彝族自治州-祿豐縣",
		"note":null,
		"lang":"中文",
		"shortAuthorityID":"PL40119",
		"names":"",
		"pinyin":[]
	},
	{
		"authorityID":"PL000000040120",
		"name":"龍和",
		"dynasty":"唐",
		"long":"102.1752",
		"lat":"25.0257",
		"districtHistorical":"唐_劍南道",
		"districtModern":"中國-雲南省-楚雄彝族自治州-祿豐縣",
		"note":null,
		"lang":"中文",
		"shortAuthorityID":"PL40120",
		"names":"",
		"pinyin":[]
	},
	{
		"authorityID":"PL000000040121",
		"name":"老鴉關",
		"dynasty":"明",
		"long":"102.2091",
		"lat":"24.9697",
		"districtHistorical":"明_雲南",
		"districtModern":"中國-雲南省-楚雄彝族自治州-祿豐縣",
		"note":null,
		"lang":"中文",
		"shortAuthorityID":"PL40121",
		"names":"",
		"pinyin":[]
	},
	{
		"authorityID":"PL000000040122",
		"name":"秦臧",
		"dynasty":"唐",
		"long":"101.9071",
		"lat":"25.0506",
		"districtHistorical":"唐_劍南道",
		"districtModern":"中國-雲南省-楚雄彝族自治州-祿豐縣",
		"note":null,
		"lang":"中文",
		"shortAuthorityID":"PL40122",
		"names":"",
		"pinyin":[]
	},
	{
		"authorityID":"PL000000040123",
		"name":"謻羅州",
		"dynasty":"唐",
		"long":"102.076",
		"lat":"25.2541",
		"districtHistorical":"唐_劍南道",
		"districtModern":"中國-雲南省-楚雄彝族自治州-祿豐縣",
		"note":null,
		"lang":"中文",
		"shortAuthorityID":"PL40123",
		"names":"",
		"pinyin":[]
	},
	{
		"authorityID":"PL000000040124",
		"name":"秦臧",
		"dynasty":"南齊",
		"long":"102.1284",
		"lat":"25.1147",
		"districtHistorical":"南朝 齊_寧州",
		"districtModern":"中國-雲南省-楚雄彝族自治州-祿豐縣",
		"note":null,
		"lang":"中文",
		"shortAuthorityID":"PL40124",
		"names":"",
		"pinyin":[]
	},
	{
		"authorityID":"PL000000040125",
		"name":"秦臧",
		"dynasty":"西晉",
		"long":"102.1622",
		"lat":"25.1203",
		"districtHistorical":"西晉_寧州",
		"districtModern":"中國-雲南省-楚雄彝族自治州-祿豐縣",
		"note":null,
		"lang":"中文",
		"shortAuthorityID":"PL40125",
		"names":"",
		"pinyin":[]
	},
	{
		"authorityID":"PL000000040126",
		"name":"秦臧",
		"dynasty":"蜀漢",
		"long":"102.1047",
		"lat":"25.164",
		"districtHistorical":"三國蜀漢_益州",
		"districtModern":"中國-雲南省-楚雄彝族自治州-祿豐縣",
		"note":null,
		"lang":"中文",
		"shortAuthorityID":"PL40126",
		"names":"",
		"pinyin":[]
	},
	{
		"authorityID":"PL000000040127",
		"name":"秦臧",
		"dynasty":"東漢",
		"long":"102.1747",
		"lat":"25.098",
		"districtHistorical":"東漢_益州刺史部",
		"districtModern":"中國-雲南省-楚雄彝族自治州-祿豐縣",
		"note":null,
		"lang":"中文",
		"shortAuthorityID":"PL40127",
		"names":"",
		"pinyin":[]
	},
	{
		"authorityID":"PL000000040128",
		"name":"秦藏",
		"dynasty":"西漢",
		"long":"102.1747",
		"lat":"25.098",
		"districtHistorical":"西漢_益州刺史部",
		"districtModern":"中國-雲南省-楚雄彝族自治州-祿豐縣",
		"note":null,
		"lang":"中文",
		"shortAuthorityID":"PL40128",
		"names":"",
		"pinyin":[]
	},
	{
		"authorityID":"PL000000040129",
		"name":"洞澡水",
		"dynasty":"唐",
		"long":"103.1814",
		"lat":"23.541",
		"districtHistorical":"唐_劍南道",
		"districtModern":"中國-雲南省-紅河哈尼族彝族自治州-個舊市",
		"note":null,
		"lang":"中文",
		"shortAuthorityID":"PL40129",
		"names":"",
		"pinyin":[]
	},
	{
		"authorityID":"PL000000040130",
		"name":"箇舊廠",
		"dynasty":"清",
		"long":"103.1634",
		"lat":"23.3566",
		"districtHistorical":"清_雲南",
		"districtModern":"中國-雲南省-紅河哈尼族彝族自治州-個舊市",
		"note":null,
		"lang":"中文",
		"shortAuthorityID":"PL40130",
		"names":"",
		"pinyin":{
			"箇舊廠":"gè jiù chǎng"
		}
	},
	{
		"authorityID":"PL000000040131",
		"name":"箇舊村",
		"dynasty":"明",
		"long":"103.1634",
		"lat":"23.3566",
		"districtHistorical":"明_雲南",
		"districtModern":"中國-雲南省-紅河哈尼族彝族自治州-個舊市",
		"note":null,
		"lang":"中文",
		"shortAuthorityID":"PL40131",
		"names":"",
		"pinyin":{
			"箇舊村":"gè jiù cūn"
		}
	},
	{
		"authorityID":"PL000000040132",
		"name":"斗岩",
		"dynasty":"清",
		"long":"102.9954",
		"lat":"23.2753",
		"districtHistorical":"清_雲南",
		"districtModern":"中國-雲南省-紅河哈尼族彝族自治州-個舊市",
		"note":null,
		"lang":"中文",
		"shortAuthorityID":"PL40132",
		"names":"",
		"pinyin":[]
	},
	{
		"authorityID":"PL000000040133",
		"name":"步頭",
		"dynasty":"唐",
		"long":"102.921",
		"lat":"23.2127",
		"districtHistorical":"唐_劍南道",
		"districtModern":"中國-雲南省-紅河哈尼族彝族自治州-個舊市",
		"note":null,
		"lang":"中文",
		"shortAuthorityID":"PL40133",
		"names":"",
		"pinyin":[]
	},
	{
		"authorityID":"PL000000040134",
		"name":"菁口關",
		"dynasty":"明",
		"long":"103.1747",
		"lat":"23.2115",
		"districtHistorical":"明_雲南",
		"districtModern":"中國-雲南省-紅河哈尼族彝族自治州-個舊市",
		"note":null,
		"lang":"中文",
		"shortAuthorityID":"PL40134",
		"names":"",
		"pinyin":[]
	},
	{
		"authorityID":"PL000000040135",
		"name":"斗母閣",
		"dynasty":"清",
		"long":"103.1804",
		"lat":"23.1357",
		"districtHistorical":"清_雲南",
		"districtModern":"中國-雲南省-紅河哈尼族彝族自治州-個舊市",
		"note":null,
		"lang":"中文",
		"shortAuthorityID":"PL40135",
		"names":"",
		"pinyin":[]
	},
	{
		"authorityID":"PL000000040136",
		"name":"曼耗",
		"dynasty":"清",
		"long":"103.3613",
		"lat":"23.0417",
		"districtHistorical":"清_雲南",
		"districtModern":"中國-雲南省-紅河哈尼族彝族自治州-個舊市",
		"note":null,
		"lang":"中文",
		"shortAuthorityID":"PL40136",
		"names":"",
		"pinyin":[]
	},
	{
		"authorityID":"PL000000040137",
		"name":"梨花驛",
		"dynasty":"明",
		"long":"103.3989",
		"lat":"23.0115",
		"districtHistorical":"明_雲南",
		"districtModern":"中國-雲南省-紅河哈尼族彝族自治州-個舊市",
		"note":null,
		"lang":"中文",
		"shortAuthorityID":"PL40137",
		"names":"",
		"pinyin":{
			"梨花驛":"lí huā yì"
		}
	},
	{
		"authorityID":"PL000000040138",
		"name":"矣馬洞驛",
		"dynasty":"明",
		"long":"103.5416",
		"lat":"23.7903",
		"districtHistorical":"明_雲南",
		"districtModern":"中國-雲南省-紅河哈尼族彝族自治州-開遠市",
		"note":null,
		"lang":"中文",
		"shortAuthorityID":"PL40138",
		"names":"",
		"pinyin":[]
	},
	{
		"authorityID":"PL000000040139",
		"name":"矣馬澗站",
		"dynasty":"元",
		"long":"103.5416",
		"lat":"23.7903",
		"districtHistorical":"元_雲南行省",
		"districtModern":"中國-雲南省-紅河哈尼族彝族自治州-開遠市",
		"note":null,
		"lang":"中文",
		"shortAuthorityID":"PL40139",
		"names":"",
		"pinyin":[]
	},
	{
		"authorityID":"PL000000040140",
		"name":"東山口",
		"dynasty":"明",
		"long":"103.4288",
		"lat":"23.7366",
		"districtHistorical":"明_雲南",
		"districtModern":"中國-雲南省-紅河哈尼族彝族自治州-開遠市",
		"note":null,
		"lang":"中文",
		"shortAuthorityID":"PL40140",
		"names":"",
		"pinyin":{
			"東山口":"dōng shān kǒu"
		}
	},
	{
		"authorityID":"PL000000040141",
		"name":"阿迷州",
		"dynasty":"清",
		"long":"103.2417",
		"lat":"23.7143",
		"districtHistorical":"清_雲南",
		"districtModern":"中國-雲南省-紅河哈尼族彝族自治州-開遠市",
		"note":null,
		"lang":"中文",
		"shortAuthorityID":"PL40141",
		"names":"",
		"pinyin":[]
	},
	{
		"authorityID":"PL000000040142",
		"name":"阿迷州",
		"dynasty":"明",
		"long":"103.2417",
		"lat":"23.7143",
		"districtHistorical":"明_雲南",
		"districtModern":"中國-雲南省-紅河哈尼族彝族自治州-開遠市",
		"note":null,
		"lang":"中文",
		"shortAuthorityID":"PL40142",
		"names":"",
		"pinyin":[]
	},
	{
		"authorityID":"PL000000040143",
		"name":"阿迷州",
		"dynasty":"元",
		"long":"103.2417",
		"lat":"23.7143",
		"districtHistorical":"元_雲南行省",
		"districtModern":"中國-雲南省-紅河哈尼族彝族自治州-開遠市",
		"note":null,
		"lang":"中文",
		"shortAuthorityID":"PL40143",
		"names":"",
		"pinyin":[]
	},
	{
		"authorityID":"PL000000040144",
		"name":"梁水",
		"dynasty":"南齊",
		"long":"103.3063",
		"lat":"23.6266",
		"districtHistorical":"南朝齊_寧州",
		"districtModern":"中國-雲南省-紅河哈尼族彝族自治州-開遠市",
		"note":null,
		"lang":"中文",
		"shortAuthorityID":"PL40144",
		"names":"",
		"pinyin":{
			"梁水":"liáng shuǐ"
		}
	},
	{
		"authorityID":"PL000000040145",
		"name":"梁水郡",
		"dynasty":"南齊",
		"long":"103.2634",
		"lat":"23.709",
		"districtHistorical":"南朝齊_寧州",
		"districtModern":"中國-雲南省-紅河哈尼族彝族自治州-開遠市",
		"note":null,
		"lang":"中文",
		"shortAuthorityID":"PL40145",
		"names":"",
		"pinyin":{
			"梁水郡":"liáng shuǐ jùn"
		}
	},
	{
		"authorityID":"PL000000040146",
		"name":"梁水郡",
		"dynasty":"東晉",
		"long":"103.2604",
		"lat":"23.6088",
		"districtHistorical":"東晉_寧州",
		"districtModern":"中國-雲南省-紅河哈尼族彝族自治州-開遠市",
		"note":null,
		"lang":"中文",
		"shortAuthorityID":"PL40146",
		"names":"",
		"pinyin":{
			"梁水郡":"liáng shuǐ jùn"
		}
	},
	{
		"authorityID":"PL000000040147",
		"name":"鹿苑寺",
		"dynasty":"元",
		"long":"103.386725",
		"lat":"23.304499",
		"districtHistorical":null,
		"districtModern":"中國-雲南省-紅河哈尼族彝族自治州-蒙自縣",
		"note":"在蒙自縣治南，元泰定中建，明嘉靖中重建。（明清序：201；<a target=\"_blank\" href=\" http:\/\/chgis.hmdc.harvard.edu\/search_details_1.php?ptid=relig_2171\"> http:\/\/chgis.hmdc.harvard.edu\/search_details_1.php?ptid=relig_2171<\/a>，2009.07.01；四部續．嘉慶一統志．臨安府：19）",
		"lang":"中文",
		"shortAuthorityID":"PL40147",
		"names":"",
		"pinyin":{
			"鹿苑寺":"lù yuàn sì"
		}
	},
	{
		"authorityID":"PL000000040148",
		"name":"蒙自",
		"dynasty":"清",
		"long":"103.4004",
		"lat":"23.3693",
		"districtHistorical":"清_雲南",
		"districtModern":"中國-雲南省-紅河哈尼族彝族自治州-蒙自縣",
		"note":null,
		"lang":"中文",
		"shortAuthorityID":"PL40148",
		"names":"",
		"pinyin":[]
	},
	{
		"authorityID":"PL000000040149",
		"name":"蒙自",
		"dynasty":"明",
		"long":"103.4004",
		"lat":"23.3693",
		"districtHistorical":"明_雲南",
		"districtModern":"中國-雲南省-紅河哈尼族彝族自治州-蒙自縣",
		"note":null,
		"lang":"中文",
		"shortAuthorityID":"PL40149",
		"names":"",
		"pinyin":[]
	},
	{
		"authorityID":"PL000000040150",
		"name":"八平城",
		"dynasty":"唐",
		"long":"103.4004",
		"lat":"23.3693",
		"districtHistorical":"唐_劍南道",
		"districtModern":"中國-雲南省-紅河哈尼族彝族自治州-蒙自縣",
		"note":null,
		"lang":"中文",
		"shortAuthorityID":"PL40150",
		"names":"",
		"pinyin":[]
	},
	{
		"authorityID":"PL000000040151",
		"name":"安南司",
		"dynasty":"明",
		"long":"103.7936",
		"lat":"23.3431",
		"districtHistorical":"明_雲南",
		"districtModern":"中國-雲南省-紅河哈尼族彝族自治州-蒙自縣",
		"note":null,
		"lang":"中文",
		"shortAuthorityID":"PL40151",
		"names":"",
		"pinyin":[]
	},
	{
		"authorityID":"PL000000040152",
		"name":"舍資千戶",
		"dynasty":"元",
		"long":"103.7936",
		"lat":"23.3431",
		"districtHistorical":"元_雲南行省",
		"districtModern":"中國-雲南省-紅河哈尼族彝族自治州-蒙自縣",
		"note":null,
		"lang":"中文",
		"shortAuthorityID":"PL40152",
		"names":"",
		"pinyin":[]
	},
	{
		"authorityID":"PL000000040153",
		"name":"安南里",
		"dynasty":"清",
		"long":"103.7923",
		"lat":"23.3417",
		"districtHistorical":"清_雲南",
		"districtModern":"中國-雲南省-紅河哈尼族彝族自治州-蒙自縣",
		"note":null,
		"lang":"中文",
		"shortAuthorityID":"PL40153",
		"names":"",
		"pinyin":[]
	},
	{
		"authorityID":"PL000000040154",
		"name":"賁古",
		"dynasty":"東晉",
		"long":"103.4031",
		"lat":"23.3314",
		"districtHistorical":"東晉_寧州",
		"districtModern":"中國-雲南省-紅河哈尼族彝族自治州-蒙自縣",
		"note":null,
		"lang":"中文",
		"shortAuthorityID":"PL40154",
		"names":"",
		"pinyin":[]
	},
	{
		"authorityID":"PL000000040155",
		"name":"新豐",
		"dynasty":"南齊",
		"long":"103.4237",
		"lat":"23.3275",
		"districtHistorical":"南朝齊_寧州",
		"districtModern":"中國-雲南省-紅河哈尼族彝族自治州-蒙自縣",
		"note":null,
		"lang":"中文",
		"shortAuthorityID":"PL40155",
		"names":"",
		"pinyin":{
			"新豐":"xīn fēng"
		}
	},
	{
		"authorityID":"PL000000040156",
		"name":"戃遲頓",
		"dynasty":"唐",
		"long":"103.4404",
		"lat":"23.3258",
		"districtHistorical":"唐_劍南道",
		"districtModern":"中國-雲南省-紅河哈尼族彝族自治州-蒙自縣",
		"note":null,
		"lang":"中文",
		"shortAuthorityID":"PL40156",
		"names":"",
		"pinyin":[]
	},
	{
		"authorityID":"PL000000040157",
		"name":"賁古",
		"dynasty":"東漢",
		"long":"103.4315",
		"lat":"23.3257",
		"districtHistorical":"東漢_益州刺史部",
		"districtModern":"中國-雲南省-紅河哈尼族彝族自治州-蒙自縣",
		"note":null,
		"lang":"中文",
		"shortAuthorityID":"PL40157",
		"names":"",
		"pinyin":[]
	},
	{
		"authorityID":"PL000000040158",
		"name":"賁古",
		"dynasty":"西漢",
		"long":"103.4315",
		"lat":"23.3257",
		"districtHistorical":"西漢_益州刺史部",
		"districtModern":"中國-雲南省-紅河哈尼族彝族自治州-蒙自縣",
		"note":null,
		"lang":"中文",
		"shortAuthorityID":"PL40158",
		"names":"",
		"pinyin":[]
	},
	{
		"authorityID":"PL000000040159",
		"name":"賁古",
		"dynasty":"西晉",
		"long":"103.4502",
		"lat":"23.3163",
		"districtHistorical":"西晉_寧州",
		"districtModern":"中國-雲南省-紅河哈尼族彝族自治州-蒙自縣",
		"note":null,
		"lang":"中文",
		"shortAuthorityID":"PL40159",
		"names":"",
		"pinyin":[]
	},
	{
		"authorityID":"PL000000040160",
		"name":"賁古",
		"dynasty":"蜀漢",
		"long":"103.4502",
		"lat":"23.3163",
		"districtHistorical":"三國蜀漢_益州",
		"districtModern":"中國-雲南省-紅河哈尼族彝族自治州-蒙自縣",
		"note":null,
		"lang":"中文",
		"shortAuthorityID":"PL40160",
		"names":"",
		"pinyin":[]
	},
	{
		"authorityID":"PL000000040161",
		"name":"蒙自",
		"dynasty":"元",
		"long":"103.3413",
		"lat":"23.3059",
		"districtHistorical":"元_雲南行省",
		"districtModern":"中國-雲南省-紅河哈尼族彝族自治州-蒙自縣",
		"note":null,
		"lang":"中文",
		"shortAuthorityID":"PL40161",
		"names":"",
		"pinyin":[]
	},
	{
		"authorityID":"PL000000040162",
		"name":"新安所",
		"dynasty":"明",
		"long":"103.4397",
		"lat":"23.3194",
		"districtHistorical":"明_雲南",
		"districtModern":"中國-雲南省-紅河哈尼族彝族自治州-蒙自縣",
		"note":null,
		"lang":"中文",
		"shortAuthorityID":"PL40162",
		"names":"",
		"pinyin":{
			"新安所":"xīn ān suǒ"
		}
	},
	{
		"authorityID":"PL000000040163",
		"name":"樂農里",
		"dynasty":"清",
		"long":"103.5366",
		"lat":"23.1584",
		"districtHistorical":"清_雲南",
		"districtModern":"中國-雲南省-紅河哈尼族彝族自治州-屏邊苗族自治縣",
		"note":null,
		"lang":"中文",
		"shortAuthorityID":"PL40163",
		"names":"",
		"pinyin":[]
	},
	{
		"authorityID":"PL000000040164",
		"name":"龍武州",
		"dynasty":"唐",
		"long":"103.5485",
		"lat":"23.1527",
		"districtHistorical":"唐_嶺南道",
		"districtModern":"中國-雲南省-紅河哈尼族彝族自治州-屏邊苗族自治縣",
		"note":null,
		"lang":"中文",
		"shortAuthorityID":"PL40164",
		"names":"",
		"pinyin":[]
	},
	{
		"authorityID":"PL000000040165",
		"name":"強現",
		"dynasty":"明",
		"long":"103.566",
		"lat":"23.1384",
		"districtHistorical":"明_雲南",
		"districtModern":"中國-雲南省-紅河哈尼族彝族自治州-屏邊苗族自治縣",
		"note":null,
		"lang":"中文",
		"shortAuthorityID":"PL40165",
		"names":"",
		"pinyin":{
			"強現":"qiáng xiàn"
		}
	},
	{
		"authorityID":"PL000000040166",
		"name":"祿索州",
		"dynasty":"唐",
		"long":"103.5859",
		"lat":"23.0912",
		"districtHistorical":"唐_嶺南道",
		"districtModern":"中國-雲南省-紅河哈尼族彝族自治州-屏邊苗族自治縣",
		"note":null,
		"lang":"中文",
		"shortAuthorityID":"PL40166",
		"names":"",
		"pinyin":{
			"祿索州":"lù suǒ zhōu"
		}
	},
	{
		"authorityID":"PL000000040167",
		"name":"大窩關",
		"dynasty":"清",
		"long":"103.687",
		"lat":"22.9855",
		"districtHistorical":"清_雲南",
		"districtModern":"中國-雲南省-紅河哈尼族彝族自治州-屏邊苗族自治縣",
		"note":null,
		"lang":"中文",
		"shortAuthorityID":"PL40167",
		"names":"",
		"pinyin":[]
	},
	{
		"authorityID":"PL000000040168",
		"name":"大窩關",
		"dynasty":"明",
		"long":"103.687",
		"lat":"22.9855",
		"districtHistorical":"明_雲南",
		"districtModern":"中國-雲南省-紅河哈尼族彝族自治州-屏邊苗族自治縣",
		"note":null,
		"lang":"中文",
		"shortAuthorityID":"PL40168",
		"names":"",
		"pinyin":[]
	},
	{
		"authorityID":"PL000000040169",
		"name":"湯泉州",
		"dynasty":"唐",
		"long":"103.6387",
		"lat":"22.9808",
		"districtHistorical":"唐_嶺南道",
		"districtModern":"中國-雲南省-紅河哈尼族彝族自治州-屏邊苗族自治縣",
		"note":null,
		"lang":"中文",
		"shortAuthorityID":"PL40169",
		"names":"",
		"pinyin":[]
	},
	{
		"authorityID":"PL000000040170",
		"name":"進乘",
		"dynasty":"蜀漢",
		"long":"103.7202",
		"lat":"22.9139",
		"districtHistorical":"三國 蜀漢_益州",
		"districtModern":"中國-雲南省-紅河哈尼族彝族自治州-屏邊苗族自治縣",
		"note":null,
		"lang":"中文",
		"shortAuthorityID":"PL40170",
		"names":"",
		"pinyin":[]
	},
	{
		"authorityID":"PL000000040171",
		"name":"進乘",
		"dynasty":"東漢",
		"long":"103.7619",
		"lat":"22.9726",
		"districtHistorical":"東漢_益州刺史部",
		"districtModern":"中國-雲南省-紅河哈尼族彝族自治州-屏邊苗族自治縣",
		"note":null,
		"lang":"中文",
		"shortAuthorityID":"PL40171",
		"names":"",
		"pinyin":[]
	},
	{
		"authorityID":"PL000000040172",
		"name":"進桑",
		"dynasty":"西漢",
		"long":"103.7619",
		"lat":"22.9726",
		"districtHistorical":"西漢_益州刺史部",
		"districtModern":"中國-雲南省-紅河哈尼族彝族自治州-屏邊苗族自治縣",
		"note":null,
		"lang":"中文",
		"shortAuthorityID":"PL40172",
		"names":"",
		"pinyin":{
			"進桑":"jìn sāng"
		}
	},
	{
		"authorityID":"PL000000040173",
		"name":"指林寺",
		"dynasty":null,
		"long":"102.821231",
		"lat":"23.61308",
		"districtHistorical":null,
		"districtModern":"中國-雲南省-紅河哈尼族彝族自治州-建水縣",
		"note":"在建水縣西。相傳宋季有人見一鹿，止林木中，率眾跡之。俄有人出，指其林曰，鹿處此久矣，無庸逐。言畢不見，眾異之，因建寺以祀。（明清序：283；四部續．嘉慶一統志．臨安府：19）",
		"lang":"中文",
		"shortAuthorityID":"PL40173",
		"names":"",
		"pinyin":{
			"指林寺":"zhǐ lín sì"
		}
	},
	{
		"authorityID":"PL000000040174",
		"name":"曲江",
		"dynasty":"清",
		"long":"102.8036",
		"lat":"23.9578",
		"districtHistorical":"清_雲南",
		"districtModern":"中國-雲南省-紅河哈尼族彝族自治州-建水縣",
		"note":null,
		"lang":"中文",
		"shortAuthorityID":"PL40174",
		"names":"",
		"pinyin":{
			"曲江":"qū jiāng"
		}
	},
	{
		"authorityID":"PL000000040175",
		"name":"曲江",
		"dynasty":"明",
		"long":"102.8069",
		"lat":"23.9576",
		"districtHistorical":"明_雲南",
		"districtModern":"中國-雲南省-紅河哈尼族彝族自治州-建水縣",
		"note":"位於雲南省紅河州建水縣西北部。（<a target=\"_blank\" href=\"http:\/\/www.hudong.com\/wiki\/%E6%9B%B2%E6%B1%9F%E9%95%87\">http:\/\/www.hudong.com\/wiki\/%E6%9B%B2%E6%B1%9F%E9%95%87<\/a>，2011.10.18）",
		"lang":"中文",
		"shortAuthorityID":"PL40175",
		"names":"",
		"pinyin":{
			"曲江":"qū jiāng"
		}
	},
	{
		"authorityID":"PL000000040176",
		"name":"曲江",
		"dynasty":"唐",
		"long":"102.7943",
		"lat":"23.9508",
		"districtHistorical":"唐_劍南道",
		"districtModern":"中國-雲南省-紅河哈尼族彝族自治州-建水縣",
		"note":null,
		"lang":"中文",
		"shortAuthorityID":"PL40176",
		"names":"",
		"pinyin":{
			"曲江":"qū jiāng"
		}
	},
	{
		"authorityID":"PL000000040177",
		"name":"建水",
		"dynasty":"清",
		"long":"102.8301",
		"lat":"23.624",
		"districtHistorical":"清_雲南",
		"districtModern":"中國-雲南省-紅河哈尼族彝族自治州-建水縣",
		"note":null,
		"lang":"中文",
		"shortAuthorityID":"PL40177",
		"names":"",
		"pinyin":{
			"建水":"jiàn shuǐ"
		}
	},
	{
		"authorityID":"PL000000040178",
		"name":"臨安府",
		"dynasty":"清",
		"long":"102.8301",
		"lat":"23.624",
		"districtHistorical":"清_雲南",
		"districtModern":"中國-雲南省-紅河哈尼族彝族自治州-建水縣",
		"note":"清初，臨安府隸永昌道，後改隸分巡迤東道。清乾隆二十四年（1759），增設迤南道（駐普洱城）轄四府，改臨安府隸之。三十五年（1770），改建水州為建水縣，仍為臨安府治。光緒十一年，（1886），添設臨安開廣兵備道駐蒙自城，又改臨安府隸之。（<a target=\"_blank\" href=\"http:\/\/baike.baidu.com\/view\/1985509.htm\">http:\/\/baike.baidu.com\/view\/1985509.htm<\/a>，2011.10.19）",
		"lang":"中文",
		"shortAuthorityID":"PL40178",
		"names":"",
		"pinyin":[]
	},
	{
		"authorityID":"PL000000040179",
		"name":"建水州",
		"dynasty":"明",
		"long":"102.8301",
		"lat":"23.624",
		"districtHistorical":"明_雲南",
		"districtModern":"中國-雲南省-紅河哈尼族彝族自治州-建水縣",
		"note":null,
		"lang":"中文",
		"shortAuthorityID":"PL40179",
		"names":"",
		"pinyin":{
			"建水州":"jiàn shuǐ zhōu"
		}
	},
	{
		"authorityID":"PL000000040180",
		"name":"臨安府",
		"dynasty":"明",
		"long":"102.8301",
		"lat":"23.624",
		"districtHistorical":"明_雲南",
		"districtModern":"中國-雲南省-紅河哈尼族彝族自治州-建水縣",
		"note":"洪武十五年（1382），改臨安路為臨安府，府治由通海移遷建水州（今云南建水縣），屬雲南布政使司。（<a target=\"_blank\" href=\"http:\/\/baike.baidu.com\/view\/1985509.htm\">http:\/\/baike.baidu.com\/view\/1985509.htm<\/a>，2011.10.19）",
		"lang":"中文",
		"shortAuthorityID":"PL40180",
		"names":"",
		"pinyin":[]
	},
	{
		"authorityID":"PL000000040181",
		"name":"建水州",
		"dynasty":"元",
		"long":"102.8301",
		"lat":"23.624",
		"districtHistorical":"元_雲南行省",
		"districtModern":"中國-雲南省-紅河哈尼族彝族自治州-建水縣",
		"note":null,
		"lang":"中文",
		"shortAuthorityID":"PL40181",
		"names":"",
		"pinyin":{
			"建水州":"jiàn shuǐ zhōu"
		}
	},
	{
		"authorityID":"PL000000040182",
		"name":"南亭",
		"dynasty":"唐",
		"long":"102.8301",
		"lat":"23.624",
		"districtHistorical":"唐_劍南道",
		"districtModern":"中國-雲南省-紅河哈尼族彝族自治州-建水縣",
		"note":null,
		"lang":"中文",
		"shortAuthorityID":"PL40182",
		"names":"",
		"pinyin":[]
	},
	{
		"authorityID":"PL000000040183",
		"name":"納樓茶甸司",
		"dynasty":"明",
		"long":"102.7425",
		"lat":"23.4064",
		"districtHistorical":"明_雲南",
		"districtModern":"中國-雲南省-紅河哈尼族彝族自治州-建水縣",
		"note":null,
		"lang":"中文",
		"shortAuthorityID":"PL40183",
		"names":"",
		"pinyin":[]
	},
	{
		"authorityID":"PL000000040184",
		"name":"納樓千戶",
		"dynasty":"元",
		"long":"102.7425",
		"lat":"23.4064",
		"districtHistorical":"元_雲南行省",
		"districtModern":"中國-雲南省-紅河哈尼族彝族自治州-建水縣",
		"note":null,
		"lang":"中文",
		"shortAuthorityID":"PL40184",
		"names":"",
		"pinyin":[]
	},
	{
		"authorityID":"PL000000040185",
		"name":"那樓茶甸司",
		"dynasty":"清",
		"long":"102.7372",
		"lat":"23.3888",
		"districtHistorical":"清_雲南",
		"districtModern":"中國-雲南省-紅河哈尼族彝族自治州-建水縣",
		"note":null,
		"lang":"中文",
		"shortAuthorityID":"PL40185",
		"names":"",
		"pinyin":[]
	},
	{
		"authorityID":"PL000000040186",
		"name":"阿土",
		"dynasty":"清",
		"long":"102.862",
		"lat":"23.2938",
		"districtHistorical":"清_雲南",
		"districtModern":"中國-雲南省-紅河哈尼族彝族自治州-建水縣",
		"note":null,
		"lang":"中文",
		"shortAuthorityID":"PL40186",
		"names":"",
		"pinyin":[]
	},
	{
		"authorityID":"PL000000040187",
		"name":"毋棳",
		"dynasty":"南齊",
		"long":"102.8305",
		"lat":"24.0119",
		"districtHistorical":"南朝齊_寧州",
		"districtModern":"中國-雲南省-紅河哈尼族彝族自治州-建水縣",
		"note":null,
		"lang":"中文",
		"shortAuthorityID":"PL40187",
		"names":"",
		"pinyin":[]
	},
	{
		"authorityID":"PL000000040188",
		"name":"建安",
		"dynasty":"南齊",
		"long":"102.7551",
		"lat":"23.6558",
		"districtHistorical":"南朝齊_寧州",
		"districtModern":"中國-雲南省-紅河哈尼族彝族自治州-建水縣",
		"note":null,
		"lang":"中文",
		"shortAuthorityID":"PL40188",
		"names":"",
		"pinyin":{
			"建安":"jiàn ān"
		}
	},
	{
		"authorityID":"PL000000040189",
		"name":"毋棳",
		"dynasty":"西晉",
		"long":"102.8273",
		"lat":"24.0164",
		"districtHistorical":"西晉_寧州",
		"districtModern":"中國-雲南省-紅河哈尼族彝族自治州-建水縣",
		"note":null,
		"lang":"中文",
		"shortAuthorityID":"PL40189",
		"names":"",
		"pinyin":[]
	},
	{
		"authorityID":"PL000000040190",
		"name":"西豐",
		"dynasty":"蜀漢",
		"long":"102.8083",
		"lat":"23.99",
		"districtHistorical":"三國蜀漢_益州",
		"districtModern":"中國-雲南省-紅河哈尼族彝族自治州-建水縣",
		"note":null,
		"lang":"中文",
		"shortAuthorityID":"PL40190",
		"names":"",
		"pinyin":{
			"西豐":"xī fēng"
		}
	},
	{
		"authorityID":"PL000000040191",
		"name":"毋棳",
		"dynasty":"東漢",
		"long":"102.9411",
		"lat":"24.0378",
		"districtHistorical":"東漢_益州刺史部",
		"districtModern":"中國-雲南省-紅河哈尼族彝族自治州-建水縣",
		"note":null,
		"lang":"中文",
		"shortAuthorityID":"PL40191",
		"names":"",
		"pinyin":[]
	},
	{
		"authorityID":"PL000000040192",
		"name":"毋棳",
		"dynasty":"西漢",
		"long":"102.832",
		"lat":"24.0183",
		"districtHistorical":"西漢_益州刺史部",
		"districtModern":"中國-雲南省-紅河哈尼族彝族自治州-建水縣",
		"note":null,
		"lang":"中文",
		"shortAuthorityID":"PL40192",
		"names":"",
		"pinyin":[]
	},
	{
		"authorityID":"PL000000040193",
		"name":"石空山",
		"dynasty":"西漢",
		"long":"103.1679",
		"lat":"23.9384",
		"districtHistorical":"西漢_益州刺史部",
		"districtModern":"中國-雲南省-紅河哈尼族彝族自治州-建水縣",
		"note":null,
		"lang":"中文",
		"shortAuthorityID":"PL40193",
		"names":"",
		"pinyin":[]
	},
	{
		"authorityID":"PL000000040194",
		"name":"三寶廠",
		"dynasty":"清",
		"long":"102.5539",
		"lat":"23.8827",
		"districtHistorical":"清_雲南",
		"districtModern":"中國-雲南省-紅河哈尼族彝族自治州-石屏縣",
		"note":null,
		"lang":"中文",
		"shortAuthorityID":"PL40194",
		"names":"",
		"pinyin":{
			"三寶廠":"sān bǎo chǎng"
		}
	},
	{
		"authorityID":"PL000000040195",
		"name":"寶秀關",
		"dynasty":"清",
		"long":"102.3928",
		"lat":"23.7721",
		"districtHistorical":"清_雲南",
		"districtModern":"中國-雲南省-紅河哈尼族彝族自治州-石屏縣",
		"note":null,
		"lang":"中文",
		"shortAuthorityID":"PL40195",
		"names":"",
		"pinyin":[]
	},
	{
		"authorityID":"PL000000040196",
		"name":"寶秀驛",
		"dynasty":"明",
		"long":"102.3928",
		"lat":"23.7695",
		"districtHistorical":"明_雲南",
		"districtModern":"中國-雲南省-紅河哈尼族彝族自治州-石屏縣",
		"note":null,
		"lang":"中文",
		"shortAuthorityID":"PL40196",
		"names":"",
		"pinyin":{
			"寶秀驛":"bǎo xiù yì"
		}
	},
	{
		"authorityID":"PL000000040197",
		"name":"石屏州",
		"dynasty":"清",
		"long":"102.4961",
		"lat":"23.7185",
		"districtHistorical":"清_雲南",
		"districtModern":"中國-雲南省-紅河哈尼族彝族自治州-石屏縣",
		"note":null,
		"lang":"中文",
		"shortAuthorityID":"PL40197",
		"names":"",
		"pinyin":[]
	},
	{
		"authorityID":"PL000000040198",
		"name":"石屏州",
		"dynasty":"明",
		"long":"102.4961",
		"lat":"23.7185",
		"districtHistorical":"明_雲南",
		"districtModern":"中國-雲南省-紅河哈尼族彝族自治州-石屏縣",
		"note":null,
		"lang":"中文",
		"shortAuthorityID":"PL40198",
		"names":"",
		"pinyin":[]
	},
	{
		"authorityID":"PL000000040199",
		"name":"石平州",
		"dynasty":"元",
		"long":"102.4961",
		"lat":"23.7185",
		"districtHistorical":"元_雲南行省",
		"districtModern":"中國-雲南省-紅河哈尼族彝族自治州-石屏縣",
		"note":null,
		"lang":"中文",
		"shortAuthorityID":"PL40199",
		"names":"",
		"pinyin":[]
	},
	{
		"authorityID":"PL000000040200",
		"name":"革泥關",
		"dynasty":"清",
		"long":"103.4294",
		"lat":"24.5525",
		"districtHistorical":"清_雲南",
		"districtModern":"中國-雲南省-紅河哈尼族彝族自治州-彌勒縣",
		"note":null,
		"lang":"中文",
		"shortAuthorityID":"PL40200",
		"names":"",
		"pinyin":[]
	},
	{
		"authorityID":"PL000000040201",
		"name":"革泥關",
		"dynasty":"明",
		"long":"103.4035",
		"lat":"24.5233",
		"districtHistorical":"明_雲南",
		"districtModern":"中國-雲南省-紅河哈尼族彝族自治州-彌勒縣",
		"note":null,
		"lang":"中文",
		"shortAuthorityID":"PL40201",
		"names":"",
		"pinyin":[]
	},
	{
		"authorityID":"PL000000040202",
		"name":"彌勒",
		"dynasty":"清",
		"long":"103.4411",
		"lat":"24.4088",
		"districtHistorical":"清_雲南",
		"districtModern":"中國-雲南省-紅河哈尼族彝族自治州-彌勒縣",
		"note":null,
		"lang":"中文",
		"shortAuthorityID":"PL40202",
		"names":"",
		"pinyin":[]
	},
	{
		"authorityID":"PL000000040203",
		"name":"彌勒州",
		"dynasty":"明",
		"long":"103.4411",
		"lat":"24.4088",
		"districtHistorical":"明_雲南",
		"districtModern":"中國-雲南省-紅河哈尼族彝族自治州-彌勒縣",
		"note":null,
		"lang":"中文",
		"shortAuthorityID":"PL40203",
		"names":"",
		"pinyin":[]
	},
	{
		"authorityID":"PL000000040204",
		"name":"彌勒州",
		"dynasty":"元",
		"long":"103.4411",
		"lat":"24.4088",
		"districtHistorical":"元_雲南行省",
		"districtModern":"中國-雲南省-紅河哈尼族彝族自治州-彌勒縣",
		"note":null,
		"lang":"中文",
		"shortAuthorityID":"PL40204",
		"names":"",
		"pinyin":[]
	},
	{
		"authorityID":"PL000000040205",
		"name":"竹園村",
		"dynasty":"清",
		"long":"103.4192",
		"lat":"24.1134",
		"districtHistorical":"清_雲南",
		"districtModern":"中國-雲南省-紅河哈尼族彝族自治州-彌勒縣",
		"note":null,
		"lang":"中文",
		"shortAuthorityID":"PL40205",
		"names":"",
		"pinyin":{
			"竹園村":"zhú yuán cūn"
		}
	},
	{
		"authorityID":"PL000000040206",
		"name":"十八寨所",
		"dynasty":"明",
		"long":"103.3392",
		"lat":"24.107",
		"districtHistorical":"明_雲南",
		"districtModern":"中國-雲南省-紅河哈尼族彝族自治州-彌勒縣",
		"note":null,
		"lang":"中文",
		"shortAuthorityID":"PL40206",
		"names":"",
		"pinyin":[]
	},
	{
		"authorityID":"PL000000040207",
		"name":"西爨",
		"dynasty":"隋",
		"long":"103.1914",
		"lat":"24.1195",
		"districtHistorical":"隋_南寧州總管府",
		"districtModern":"中國-雲南省-紅河哈尼族彝族自治州-彌勒縣",
		"note":null,
		"lang":"中文",
		"shortAuthorityID":"PL40207",
		"names":"",
		"pinyin":{
			"西爨":"xī cuàn"
		}
	},
	{
		"authorityID":"PL000000040208",
		"name":"同并",
		"dynasty":"南齊",
		"long":"103.3388",
		"lat":"24.4571",
		"districtHistorical":"南朝齊_寧州",
		"districtModern":"中國-雲南省-紅河哈尼族彝族自治州-彌勒縣",
		"note":null,
		"lang":"中文",
		"shortAuthorityID":"PL40208",
		"names":"",
		"pinyin":[]
	},
	{
		"authorityID":"PL000000040209",
		"name":"律高",
		"dynasty":"南齊",
		"long":"103.3079",
		"lat":"24.0188",
		"districtHistorical":"南朝齊_寧州",
		"districtModern":"中國-雲南省-紅河哈尼族彝族自治州-彌勒縣",
		"note":null,
		"lang":"中文",
		"shortAuthorityID":"PL40209",
		"names":"",
		"pinyin":[]
	},
	{
		"authorityID":"PL000000040210",
		"name":"脩雲",
		"dynasty":"西晉",
		"long":"103.3674",
		"lat":"24.2518",
		"districtHistorical":"西晉_寧州",
		"districtModern":"中國-雲南省-紅河哈尼族彝族自治州-彌勒縣",
		"note":null,
		"lang":"中文",
		"shortAuthorityID":"PL40210",
		"names":"",
		"pinyin":[]
	},
	{
		"authorityID":"PL000000040211",
		"name":"律高",
		"dynasty":"西晉",
		"long":"103.2318",
		"lat":"24.016",
		"districtHistorical":"西晉_寧州",
		"districtModern":"中國-雲南省-紅河哈尼族彝族自治州-彌勒縣",
		"note":null,
		"lang":"中文",
		"shortAuthorityID":"PL40211",
		"names":"",
		"pinyin":[]
	},
	{
		"authorityID":"PL000000040212",
		"name":"興古郡",
		"dynasty":"西晉",
		"long":"103.2318",
		"lat":"24.016",
		"districtHistorical":"西晉_寧州",
		"districtModern":"中國-雲南省-紅河哈尼族彝族自治州-彌勒縣",
		"note":null,
		"lang":"中文",
		"shortAuthorityID":"PL40212",
		"names":"",
		"pinyin":[]
	},
	{
		"authorityID":"PL000000040213",
		"name":"同并",
		"dynasty":"蜀漢",
		"long":"103.3445",
		"lat":"24.483",
		"districtHistorical":"三國蜀漢_益州",
		"districtModern":"中國-雲南省-紅河哈尼族彝族自治州-彌勒縣",
		"note":null,
		"lang":"中文",
		"shortAuthorityID":"PL40213",
		"names":"",
		"pinyin":[]
	},
	{
		"authorityID":"PL000000040214",
		"name":"脩雲",
		"dynasty":"蜀漢",
		"long":"103.2928",
		"lat":"24.2443",
		"districtHistorical":"三國蜀漢_益州",
		"districtModern":"中國-雲南省-紅河哈尼族彝族自治州-彌勒縣",
		"note":null,
		"lang":"中文",
		"shortAuthorityID":"PL40214",
		"names":"",
		"pinyin":[]
	},
	{
		"authorityID":"PL000000040215",
		"name":"律高",
		"dynasty":"東漢",
		"long":"103.2614",
		"lat":"23.9205",
		"districtHistorical":"東漢_益州刺史部",
		"districtModern":"中國-雲南省-紅河哈尼族彝族自治州-彌勒縣",
		"note":null,
		"lang":"中文",
		"shortAuthorityID":"PL40215",
		"names":"",
		"pinyin":[]
	},
	{
		"authorityID":"PL000000040216",
		"name":"律高",
		"dynasty":"西漢",
		"long":"103.2614",
		"lat":"23.9205",
		"districtHistorical":"西漢_益州刺史部",
		"districtModern":"中國-雲南省-紅河哈尼族彝族自治州-彌勒縣",
		"note":null,
		"lang":"中文",
		"shortAuthorityID":"PL40216",
		"names":"",
		"pinyin":[]
	},
	{
		"authorityID":"PL000000040217",
		"name":"同并",
		"dynasty":"西漢",
		"long":"103.4382",
		"lat":"24.3075",
		"districtHistorical":"西漢_益州刺史部",
		"districtModern":"中國-雲南省-紅河哈尼族彝族自治州-彌勒縣",
		"note":null,
		"lang":"中文",
		"shortAuthorityID":"PL40217",
		"names":"",
		"pinyin":[]
	},
	{
		"authorityID":"PL000000040218",
		"name":"同並",
		"dynasty":"東漢",
		"long":"103.4382",
		"lat":"24.3075",
		"districtHistorical":"東漢_益州刺史部",
		"districtModern":"中國-雲南省-紅河哈尼族彝族自治州-彌勒縣",
		"note":"",
		"lang":"中文",
		"shortAuthorityID":"PL40218",
		"names":"",
		"pinyin":[]
	},
	{
		"authorityID":"PL000000040219",
		"name":"廣西州",
		"dynasty":"清",
		"long":"103.7707",
		"lat":"24.5314",
		"districtHistorical":"清_雲南",
		"districtModern":"中國-雲南省-紅河哈尼族彝族自治州-瀘西縣",
		"note":null,
		"lang":"中文",
		"shortAuthorityID":"PL40219",
		"names":"",
		"pinyin":[]
	},
	{
		"authorityID":"PL000000040220",
		"name":"廣西府",
		"dynasty":"明",
		"long":"103.7707",
		"lat":"24.5314",
		"districtHistorical":"明_雲南",
		"districtModern":"中國-雲南省-紅河哈尼族彝族自治州-瀘西縣",
		"note":"元至元十二年（1275）置廣西路，後置宣撫司，又廢。大德四年（1300）維摩州改屬廣西路。明洪武十五年（1382）改置廣西府，轄彌勒、師宗、維摩（今丘北）三州及18寨，隸屬雲南布政司。（<a target=\"_blank\" href=\"http:\/\/www.xzqh.org\/html\/show.php?contentid=19924\">http:\/\/www.xzqh.org\/html\/show.php?contentid=19924<\/a>，2011.10.19）",
		"lang":"中文",
		"shortAuthorityID":"PL40220",
		"names":"",
		"pinyin":[]
	},
	{
		"authorityID":"PL000000040221",
		"name":"廣西路",
		"dynasty":"元",
		"long":"103.7707",
		"lat":"24.5314",
		"districtHistorical":"元_雲南行省",
		"districtModern":"中國-雲南省-紅河哈尼族彝族自治州-瀘西縣",
		"note":null,
		"lang":"中文",
		"shortAuthorityID":"PL40221",
		"names":"",
		"pinyin":[]
	},
	{
		"authorityID":"PL000000040222",
		"name":"甫雙站",
		"dynasty":"元",
		"long":"103.8815",
		"lat":"24.4626",
		"districtHistorical":"元_雲南行省",
		"districtModern":"中國-雲南省-紅河哈尼族彝族自治州-瀘西縣",
		"note":null,
		"lang":"中文",
		"shortAuthorityID":"PL40222",
		"names":"",
		"pinyin":[]
	},
	{
		"authorityID":"PL000000040223",
		"name":"漏江",
		"dynasty":"南齊",
		"long":"103.6294",
		"lat":"24.4464",
		"districtHistorical":"南朝齊_寧州",
		"districtModern":"中國-雲南省-紅河哈尼族彝族自治州-瀘西縣",
		"note":null,
		"lang":"中文",
		"shortAuthorityID":"PL40223",
		"names":"",
		"pinyin":[]
	},
	{
		"authorityID":"PL000000040224",
		"name":"漏江",
		"dynasty":"西晉",
		"long":"103.6882",
		"lat":"24.6034",
		"districtHistorical":"西晉_寧州",
		"districtModern":"中國-雲南省-紅河哈尼族彝族自治州-瀘西縣",
		"note":null,
		"lang":"中文",
		"shortAuthorityID":"PL40224",
		"names":"",
		"pinyin":[]
	},
	{
		"authorityID":"PL000000040225",
		"name":"漏江",
		"dynasty":"東漢",
		"long":"103.8613",
		"lat":"24.5022",
		"districtHistorical":"東漢_益州刺史部",
		"districtModern":"中國-雲南省-紅河哈尼族彝族自治州-瀘西縣",
		"note":null,
		"lang":"中文",
		"shortAuthorityID":"PL40225",
		"names":"",
		"pinyin":[]
	},
	{
		"authorityID":"PL000000040226",
		"name":"漏江",
		"dynasty":"西漢",
		"long":"103.8613",
		"lat":"24.5022",
		"districtHistorical":"西漢_益州刺史部",
		"districtModern":"中國-雲南省-紅河哈尼族彝族自治州-瀘西縣",
		"note":null,
		"lang":"中文",
		"shortAuthorityID":"PL40226",
		"names":"",
		"pinyin":[]
	},
	{
		"authorityID":"PL000000040227",
		"name":"慢車",
		"dynasty":"清",
		"long":"102.6054",
		"lat":"23.2645",
		"districtHistorical":"清_雲南",
		"districtModern":"中國-雲南省-紅河哈尼族彝族自治州-元陽縣",
		"note":null,
		"lang":"中文",
		"shortAuthorityID":"PL40227",
		"names":"",
		"pinyin":[]
	},
	{
		"authorityID":"PL000000040228",
		"name":"新街",
		"dynasty":"清",
		"long":"102.7505",
		"lat":"23.1674",
		"districtHistorical":"清_雲南",
		"districtModern":"中國-雲南省-紅河哈尼族彝族自治州-元陽縣",
		"note":null,
		"lang":"中文",
		"shortAuthorityID":"PL40228",
		"names":"",
		"pinyin":{
			"新街":"xīn jiē"
		}
	},
	{
		"authorityID":"PL000000040229",
		"name":"五畝",
		"dynasty":"清",
		"long":"102.8699",
		"lat":"23.1633",
		"districtHistorical":"清_雲南",
		"districtModern":"中國-雲南省-紅河哈尼族彝族自治州-元陽縣",
		"note":null,
		"lang":"中文",
		"shortAuthorityID":"PL40229",
		"names":"",
		"pinyin":[]
	},
	{
		"authorityID":"PL000000040230",
		"name":"水塘",
		"dynasty":"清",
		"long":"102.9313",
		"lat":"23.1422",
		"districtHistorical":"清_雲南",
		"districtModern":"中國-雲南省-紅河哈尼族彝族自治州-元陽縣",
		"note":null,
		"lang":"中文",
		"shortAuthorityID":"PL40230",
		"names":"",
		"pinyin":{
			"水塘":"shuǐ táng"
		}
	},
	{
		"authorityID":"PL000000040231",
		"name":"五邦",
		"dynasty":"清",
		"long":"103.0242",
		"lat":"23.13",
		"districtHistorical":"清_雲南",
		"districtModern":"中國-雲南省-紅河哈尼族彝族自治州-元陽縣",
		"note":null,
		"lang":"中文",
		"shortAuthorityID":"PL40231",
		"names":"",
		"pinyin":{
			"五邦":"wǔ bāng"
		}
	},
	{
		"authorityID":"PL000000040232",
		"name":"稿吾卡",
		"dynasty":"清",
		"long":"103.1452",
		"lat":"23.076",
		"districtHistorical":"清_雲南",
		"districtModern":"中國-雲南省-紅河哈尼族彝族自治州-元陽縣",
		"note":null,
		"lang":"中文",
		"shortAuthorityID":"PL40232",
		"names":"",
		"pinyin":[]
	},
	{
		"authorityID":"PL000000040233",
		"name":"瓦遮",
		"dynasty":"清",
		"long":"102.9343",
		"lat":"23.0412",
		"districtHistorical":"清_雲南",
		"districtModern":"中國-雲南省-紅河哈尼族彝族自治州-元陽縣",
		"note":null,
		"lang":"中文",
		"shortAuthorityID":"PL40233",
		"names":"",
		"pinyin":[]
	},
	{
		"authorityID":"PL000000040234",
		"name":"宗哈",
		"dynasty":"清",
		"long":"103.0116",
		"lat":"23.0372",
		"districtHistorical":"清_雲南",
		"districtModern":"中國-雲南省-紅河哈尼族彝族自治州-元陽縣",
		"note":null,
		"lang":"中文",
		"shortAuthorityID":"PL40234",
		"names":"",
		"pinyin":[]
	},
	{
		"authorityID":"PL000000040235",
		"name":"逢春嶺",
		"dynasty":"清",
		"long":"103.1201",
		"lat":"23.0146",
		"districtHistorical":"清_雲南",
		"districtModern":"中國-雲南省-紅河哈尼族彝族自治州-元陽縣",
		"note":null,
		"lang":"中文",
		"shortAuthorityID":"PL40235",
		"names":"",
		"pinyin":[]
	},
	{
		"authorityID":"PL000000040236",
		"name":"納更山",
		"dynasty":"明",
		"long":"103.0601",
		"lat":"22.9988",
		"districtHistorical":"明_雲南",
		"districtModern":"中國-雲南省-紅河哈尼族彝族自治州-元陽縣",
		"note":null,
		"lang":"中文",
		"shortAuthorityID":"PL40236",
		"names":"",
		"pinyin":[]
	},
	{
		"authorityID":"PL000000040237",
		"name":"納更",
		"dynasty":"清",
		"long":"103.0369",
		"lat":"22.9677",
		"districtHistorical":"清_雲南",
		"districtModern":"中國-雲南省-紅河哈尼族彝族自治州-元陽縣",
		"note":null,
		"lang":"中文",
		"shortAuthorityID":"PL40237",
		"names":"",
		"pinyin":[]
	},
	{
		"authorityID":"PL000000040238",
		"name":"和蠻部",
		"dynasty":"唐",
		"long":"102.6051",
		"lat":"22.9835",
		"districtHistorical":"唐_嶺南道",
		"districtModern":"中國-雲南省-紅河哈尼族彝族自治州-元陽縣",
		"note":null,
		"lang":"中文",
		"shortAuthorityID":"PL40238",
		"names":"",
		"pinyin":[]
	},
	{
		"authorityID":"PL000000040239",
		"name":"西隨",
		"dynasty":"東漢",
		"long":"103.0953",
		"lat":"22.9455",
		"districtHistorical":"東漢_益州刺史部",
		"districtModern":"中國-雲南省-紅河哈尼族彝族自治州-元陽縣",
		"note":null,
		"lang":"中文",
		"shortAuthorityID":"PL40239",
		"names":"",
		"pinyin":{
			"西隨":"xī suí"
		}
	},
	{
		"authorityID":"PL000000040240",
		"name":"西隨",
		"dynasty":"西漢",
		"long":"103.0953",
		"lat":"22.9455",
		"districtHistorical":"西漢_益州刺史部",
		"districtModern":"中國-雲南省-紅河哈尼族彝族自治州-元陽縣",
		"note":null,
		"lang":"中文",
		"shortAuthorityID":"PL40240",
		"names":"",
		"pinyin":{
			"西隨":"xī suí"
		}
	},
	{
		"authorityID":"PL000000040241",
		"name":"河底",
		"dynasty":"明",
		"long":"102.4771",
		"lat":"23.3737",
		"districtHistorical":"明_雲南",
		"districtModern":"中國-雲南省-紅河哈尼族彝族自治州-紅河縣",
		"note":null,
		"lang":"中文",
		"shortAuthorityID":"PL40241",
		"names":"",
		"pinyin":[]
	},
	{
		"authorityID":"PL000000040242",
		"name":"虧容甸司",
		"dynasty":"明",
		"long":"102.5661",
		"lat":"23.3179",
		"districtHistorical":"明_雲南",
		"districtModern":"中國-雲南省-紅河哈尼族彝族自治州-紅河縣",
		"note":null,
		"lang":"中文",
		"shortAuthorityID":"PL40242",
		"names":"",
		"pinyin":[]
	},
	{
		"authorityID":"PL000000040243",
		"name":"虧容甸司",
		"dynasty":"清",
		"long":"102.5688",
		"lat":"23.3148",
		"districtHistorical":"清_雲南",
		"districtModern":"中國-雲南省-紅河哈尼族彝族自治州-紅河縣",
		"note":null,
		"lang":"中文",
		"shortAuthorityID":"PL40243",
		"names":"",
		"pinyin":[]
	},
	{
		"authorityID":"PL000000040244",
		"name":"思陀甸司",
		"dynasty":"清",
		"long":"102.2101",
		"lat":"23.3141",
		"districtHistorical":"清_雲南",
		"districtModern":"中國-雲南省-紅河哈尼族彝族自治州-紅河縣",
		"note":null,
		"lang":"中文",
		"shortAuthorityID":"PL40244",
		"names":"",
		"pinyin":[]
	},
	{
		"authorityID":"PL000000040245",
		"name":"思陀甸司",
		"dynasty":"明",
		"long":"102.2082",
		"lat":"23.3129",
		"districtHistorical":"明_雲南",
		"districtModern":"中國-雲南省-紅河哈尼族彝族自治州-紅河縣",
		"note":null,
		"lang":"中文",
		"shortAuthorityID":"PL40245",
		"names":"",
		"pinyin":[]
	},
	{
		"authorityID":"PL000000040246",
		"name":"和泥路",
		"dynasty":"元",
		"long":"102.2082",
		"lat":"23.3129",
		"districtHistorical":"元_雲南行省",
		"districtModern":"中國-雲南省-紅河哈尼族彝族自治州-紅河縣",
		"note":null,
		"lang":"中文",
		"shortAuthorityID":"PL40246",
		"names":"",
		"pinyin":[]
	},
	{
		"authorityID":"PL000000040247",
		"name":"思陀部",
		"dynasty":"元",
		"long":"102.2082",
		"lat":"23.3129",
		"districtHistorical":"元_雲南行省",
		"districtModern":"中國-雲南省-紅河哈尼族彝族自治州-紅河縣",
		"note":null,
		"lang":"中文",
		"shortAuthorityID":"PL40247",
		"names":"",
		"pinyin":[]
	},
	{
		"authorityID":"PL000000040248",
		"name":"落恐甸司",
		"dynasty":"清",
		"long":"102.2398",
		"lat":"23.2587",
		"districtHistorical":"清_雲南",
		"districtModern":"中國-雲南省-紅河哈尼族彝族自治州-紅河縣",
		"note":null,
		"lang":"中文",
		"shortAuthorityID":"PL40248",
		"names":"",
		"pinyin":[]
	},
	{
		"authorityID":"PL000000040249",
		"name":"落恐甸司",
		"dynasty":"明",
		"long":"102.237",
		"lat":"23.2558",
		"districtHistorical":"明_雲南",
		"districtModern":"中國-雲南省-紅河哈尼族彝族自治州-紅河縣",
		"note":null,
		"lang":"中文",
		"shortAuthorityID":"PL40249",
		"names":"",
		"pinyin":[]
	},
	{
		"authorityID":"PL000000040250",
		"name":"伴溪部",
		"dynasty":"元",
		"long":"102.237",
		"lat":"23.2558",
		"districtHistorical":"元_雲南行省",
		"districtModern":"中國-雲南省-紅河哈尼族彝族自治州-紅河縣",
		"note":null,
		"lang":"中文",
		"shortAuthorityID":"PL40250",
		"names":"",
		"pinyin":[]
	},
	{
		"authorityID":"PL000000040251",
		"name":"溪處甸司",
		"dynasty":"明",
		"long":"102.4537",
		"lat":"23.2356",
		"districtHistorical":"明_雲南",
		"districtModern":"中國-雲南省-紅河哈尼族彝族自治州-紅河縣",
		"note":null,
		"lang":"中文",
		"shortAuthorityID":"PL40251",
		"names":"",
		"pinyin":[]
	},
	{
		"authorityID":"PL000000040252",
		"name":"七溪部",
		"dynasty":"元",
		"long":"102.4537",
		"lat":"23.2356",
		"districtHistorical":"元_雲南行省",
		"districtModern":"中國-雲南省-紅河哈尼族彝族自治州-紅河縣",
		"note":null,
		"lang":"中文",
		"shortAuthorityID":"PL40252",
		"names":"",
		"pinyin":[]
	},
	{
		"authorityID":"PL000000040253",
		"name":"溪處",
		"dynasty":"清",
		"long":"102.4565",
		"lat":"23.2286",
		"districtHistorical":"清_雲南",
		"districtModern":"中國-雲南省-紅河哈尼族彝族自治州-紅河縣",
		"note":null,
		"lang":"中文",
		"shortAuthorityID":"PL40253",
		"names":"",
		"pinyin":[]
	},
	{
		"authorityID":"PL000000040254",
		"name":"左能寨司",
		"dynasty":"明",
		"long":"102.2532",
		"lat":"23.2249",
		"districtHistorical":"明_雲南",
		"districtModern":"中國-雲南省-紅河哈尼族彝族自治州-紅河縣",
		"note":null,
		"lang":"中文",
		"shortAuthorityID":"PL40254",
		"names":"",
		"pinyin":[]
	},
	{
		"authorityID":"PL000000040255",
		"name":"左能寨司",
		"dynasty":"清",
		"long":"102.2578",
		"lat":"23.2233",
		"districtHistorical":"清_雲南",
		"districtModern":"中國-雲南省-紅河哈尼族彝族自治州-紅河縣",
		"note":null,
		"lang":"中文",
		"shortAuthorityID":"PL40255",
		"names":"",
		"pinyin":[]
	},
	{
		"authorityID":"PL000000040256",
		"name":"(孟力)弄",
		"dynasty":"清",
		"long":"102.5721",
		"lat":"23.1564",
		"districtHistorical":"清_雲南",
		"districtModern":"中國-雲南省-紅河哈尼族彝族自治州-紅河縣",
		"note":null,
		"lang":"中文",
		"shortAuthorityID":"PL40256",
		"names":"",
		"pinyin":[]
	},
	{
		"authorityID":"PL000000040257",
		"name":"(孟力)丁",
		"dynasty":"清",
		"long":"102.85",
		"lat":"22.9459",
		"districtHistorical":"清_雲南",
		"districtModern":"中國-雲南省-紅河哈尼族彝族自治州-金平苗族瑤族傣族自治縣",
		"note":null,
		"lang":"中文",
		"shortAuthorityID":"PL40257",
		"names":"",
		"pinyin":[]
	},
	{
		"authorityID":"PL000000040258",
		"name":"王布田",
		"dynasty":"清",
		"long":"103.23",
		"lat":"22.7867",
		"districtHistorical":"清_雲南",
		"districtModern":"中國-雲南省-紅河哈尼族彝族自治州-金平苗族瑤族傣族自治縣",
		"note":null,
		"lang":"中文",
		"shortAuthorityID":"PL40258",
		"names":"",
		"pinyin":[]
	},
	{
		"authorityID":"PL000000040259",
		"name":"者米",
		"dynasty":"清",
		"long":"102.7621",
		"lat":"22.7446",
		"districtHistorical":"清_雲南",
		"districtModern":"中國-雲南省-紅河哈尼族彝族自治州-金平苗族瑤族傣族自治縣",
		"note":null,
		"lang":"中文",
		"shortAuthorityID":"PL40259",
		"names":"",
		"pinyin":{
			"者米":"zhě mǐ"
		}
	},
	{
		"authorityID":"PL000000040260",
		"name":"茨通壩",
		"dynasty":"清",
		"long":"102.8826",
		"lat":"22.723",
		"districtHistorical":"清_雲南",
		"districtModern":"中國-雲南省-紅河哈尼族彝族自治州-金平苗族瑤族傣族自治縣",
		"note":null,
		"lang":"中文",
		"shortAuthorityID":"PL40260",
		"names":"",
		"pinyin":{
			"茨通壩":"cí tōng bà"
		}
	},
	{
		"authorityID":"PL000000040261",
		"name":"地洗白",
		"dynasty":"清",
		"long":"103.5373",
		"lat":"22.7015",
		"districtHistorical":"清_雲南",
		"districtModern":"中國-雲南省-紅河哈尼族彝族自治州-金平苗族瑤族傣族自治縣",
		"note":null,
		"lang":"中文",
		"shortAuthorityID":"PL40261",
		"names":"",
		"pinyin":[]
	},
	{
		"authorityID":"PL000000040262",
		"name":"(孟力)喇",
		"dynasty":"清",
		"long":"103.0875",
		"lat":"22.6657",
		"districtHistorical":"清_雲南",
		"districtModern":"中國-雲南省-紅河哈尼族彝族自治州-金平苗族瑤族傣族自治縣",
		"note":null,
		"lang":"中文",
		"shortAuthorityID":"PL40262",
		"names":"",
		"pinyin":[]
	},
	{
		"authorityID":"PL000000040263",
		"name":"西隨",
		"dynasty":"南齊",
		"long":"103.0742",
		"lat":"22.6973",
		"districtHistorical":"南朝 齊_寧州",
		"districtModern":"中國-雲南省-紅河哈尼族彝族自治州-金平苗族瑤族傣族自治縣",
		"note":null,
		"lang":"中文",
		"shortAuthorityID":"PL40263",
		"names":"",
		"pinyin":{
			"西隨":"xī suí"
		}
	},
	{
		"authorityID":"PL000000040264",
		"name":"西隨",
		"dynasty":"東晉",
		"long":"102.7989",
		"lat":"22.6393",
		"districtHistorical":"東晉_寧州",
		"districtModern":"中國-雲南省-紅河哈尼族彝族自治州-金平苗族瑤族傣族自治縣",
		"note":null,
		"lang":"中文",
		"shortAuthorityID":"PL40264",
		"names":"",
		"pinyin":{
			"西隨":"xī suí"
		}
	},
	{
		"authorityID":"PL000000040265",
		"name":"西隨",
		"dynasty":"西晉",
		"long":"103.0584",
		"lat":"22.6596",
		"districtHistorical":"西晉_寧州",
		"districtModern":"中國-雲南省-紅河哈尼族彝族自治州-金平苗族瑤族傣族自治縣",
		"note":null,
		"lang":"中文",
		"shortAuthorityID":"PL40265",
		"names":"",
		"pinyin":{
			"西隨":"xī suí"
		}
	},
	{
		"authorityID":"PL000000040266",
		"name":"西隨",
		"dynasty":"蜀漢",
		"long":"103.0353",
		"lat":"22.6657",
		"districtHistorical":"三國 蜀漢_益州",
		"districtModern":"中國-雲南省-紅河哈尼族彝族自治州-金平苗族瑤族傣族自治縣",
		"note":null,
		"lang":"中文",
		"shortAuthorityID":"PL40266",
		"names":"",
		"pinyin":{
			"西隨":"xī suí"
		}
	},
	{
		"authorityID":"PL000000040267",
		"name":"老寨汛",
		"dynasty":"清",
		"long":"103.6939",
		"lat":"22.8304",
		"districtHistorical":"清_雲南",
		"districtModern":"中國-雲南省-紅河哈尼族彝族自治州-河口瑤族自治縣",
		"note":null,
		"lang":"中文",
		"shortAuthorityID":"PL40267",
		"names":"",
		"pinyin":[]
	},
	{
		"authorityID":"PL000000040268",
		"name":"新店",
		"dynasty":"清",
		"long":"104.0659",
		"lat":"22.7834",
		"districtHistorical":"清_雲南",
		"districtModern":"中國-雲南省-紅河哈尼族彝族自治州-河口瑤族自治縣",
		"note":null,
		"lang":"中文",
		"shortAuthorityID":"PL40268",
		"names":"",
		"pinyin":{
			"新店":"xīn diàn"
		}
	},
	{
		"authorityID":"PL000000040269",
		"name":"田房",
		"dynasty":"清",
		"long":"103.7615",
		"lat":"22.7128",
		"districtHistorical":"清_雲南",
		"districtModern":"中國-雲南省-紅河哈尼族彝族自治州-河口瑤族自治縣",
		"note":null,
		"lang":"中文",
		"shortAuthorityID":"PL40269",
		"names":"",
		"pinyin":[]
	},
	{
		"authorityID":"PL000000040270",
		"name":"壩灑汛",
		"dynasty":"清",
		"long":"103.8335",
		"lat":"22.6368",
		"districtHistorical":"清_雲南",
		"districtModern":"中國-雲南省-紅河哈尼族彝族自治州-河口瑤族自治縣",
		"note":null,
		"lang":"中文",
		"shortAuthorityID":"PL40270",
		"names":"",
		"pinyin":[]
	},
	{
		"authorityID":"PL000000040271",
		"name":"漫峨",
		"dynasty":"清",
		"long":"103.8935",
		"lat":"22.5899",
		"districtHistorical":"清_雲南",
		"districtModern":"中國-雲南省-紅河哈尼族彝族自治州-河口瑤族自治縣",
		"note":null,
		"lang":"中文",
		"shortAuthorityID":"PL40271",
		"names":"",
		"pinyin":{
			"漫峨":"màn é"
		}
	},
	{
		"authorityID":"PL000000040272",
		"name":"河口",
		"dynasty":"清",
		"long":"103.967",
		"lat":"22.518",
		"districtHistorical":"清_雲南",
		"districtModern":"中國-雲南省-紅河哈尼族彝族自治州-河口瑤族自治縣",
		"note":null,
		"lang":"中文",
		"shortAuthorityID":"PL40272",
		"names":"",
		"pinyin":{
			"河口":"hé kǒu"
		}
	},
	{
		"authorityID":"PL000000040273",
		"name":"郎茫州",
		"dynasty":"唐",
		"long":"103.6971",
		"lat":"22.7624",
		"districtHistorical":"唐_嶺南道",
		"districtModern":"中國-雲南省-紅河哈尼族彝族自治州-河口瑤族自治縣",
		"note":null,
		"lang":"中文",
		"shortAuthorityID":"PL40273",
		"names":"",
		"pinyin":[]
	},
	{
		"authorityID":"PL000000040274",
		"name":"進乘",
		"dynasty":"西晉",
		"long":"103.6517",
		"lat":"22.8714",
		"districtHistorical":"西晉_寧州",
		"districtModern":"中國-雲南省-紅河哈尼族彝族自治州-河口瑤族自治縣",
		"note":null,
		"lang":"中文",
		"shortAuthorityID":"PL40274",
		"names":"",
		"pinyin":[]
	},
	{
		"authorityID":"PL000000040275",
		"name":"吉祥庵",
		"dynasty":null,
		"long":"104.212331",
		"lat":"23.359382",
		"districtHistorical":null,
		"districtModern":"中國-雲南省-文山壯族苗族自治州-文山縣",
		"note":"（明清序：264）",
		"lang":"中文",
		"shortAuthorityID":"PL40275",
		"names":"",
		"pinyin":[]
	},
	{
		"authorityID":"PL000000040276",
		"name":"樂龍塘",
		"dynasty":"清",
		"long":"103.9149",
		"lat":"23.5513",
		"districtHistorical":"清_雲南",
		"districtModern":"中國-雲南省-文山壯族苗族自治州-文山縣",
		"note":null,
		"lang":"中文",
		"shortAuthorityID":"PL40276",
		"names":"",
		"pinyin":[]
	},
	{
		"authorityID":"PL000000040277",
		"name":"馬塘",
		"dynasty":"清",
		"long":"104.161",
		"lat":"23.5284",
		"districtHistorical":"清_雲南",
		"districtModern":"中國-雲南省-文山壯族苗族自治州-文山縣",
		"note":null,
		"lang":"中文",
		"shortAuthorityID":"PL40277",
		"names":"",
		"pinyin":{
			"馬塘":"mǎ táng"
		}
	},
	{
		"authorityID":"PL000000040278",
		"name":"天生橋",
		"dynasty":"清",
		"long":"104.1411",
		"lat":"23.4514",
		"districtHistorical":"清_雲南",
		"districtModern":"中國-雲南省-文山壯族苗族自治州-文山縣",
		"note":null,
		"lang":"中文",
		"shortAuthorityID":"PL40278",
		"names":"",
		"pinyin":[]
	},
	{
		"authorityID":"PL000000040279",
		"name":"王弄里",
		"dynasty":"清",
		"long":"103.9662",
		"lat":"23.4208",
		"districtHistorical":"清_雲南",
		"districtModern":"中國-雲南省-文山壯族苗族自治州-文山縣",
		"note":null,
		"lang":"中文",
		"shortAuthorityID":"PL40279",
		"names":"",
		"pinyin":[]
	},
	{
		"authorityID":"PL000000040280",
		"name":"玉弄山部",
		"dynasty":"元",
		"long":"103.9589",
		"lat":"23.383",
		"districtHistorical":"元_雲南行省",
		"districtModern":"中國-雲南省-文山壯族苗族自治州-文山縣",
		"note":null,
		"lang":"中文",
		"shortAuthorityID":"PL40280",
		"names":"",
		"pinyin":[]
	},
	{
		"authorityID":"PL000000040281",
		"name":"文山",
		"dynasty":"清",
		"long":"104.2434",
		"lat":"23.3755",
		"districtHistorical":"清_雲南",
		"districtModern":"中國-雲南省-文山壯族苗族自治州-文山縣",
		"note":null,
		"lang":"中文",
		"shortAuthorityID":"PL40281",
		"names":"",
		"pinyin":{
			"文山":"wén shān"
		}
	},
	{
		"authorityID":"PL000000040282",
		"name":"安平廳",
		"dynasty":"清",
		"long":"104.2434",
		"lat":"23.3755",
		"districtHistorical":"清_雲南",
		"districtModern":"中國-雲南省-文山壯族苗族自治州-文山縣",
		"note":null,
		"lang":"中文",
		"shortAuthorityID":"PL40282",
		"names":"",
		"pinyin":[]
	},
	{
		"authorityID":"PL000000040283",
		"name":"開化府",
		"dynasty":"清",
		"long":"104.2434",
		"lat":"23.3755",
		"districtHistorical":"清_雲南",
		"districtModern":"中國-雲南省-文山壯族苗族自治州-文山縣",
		"note":null,
		"lang":"中文",
		"shortAuthorityID":"PL40283",
		"names":"",
		"pinyin":[]
	},
	{
		"authorityID":"PL000000040284",
		"name":"教化三部司",
		"dynasty":"明",
		"long":"104.2377",
		"lat":"23.3447",
		"districtHistorical":"明_雲南",
		"districtModern":"中國-雲南省-文山壯族苗族自治州-文山縣",
		"note":null,
		"lang":"中文",
		"shortAuthorityID":"PL40284",
		"names":"",
		"pinyin":[]
	},
	{
		"authorityID":"PL000000040285",
		"name":"教合三部",
		"dynasty":"元",
		"long":"104.2377",
		"lat":"23.3447",
		"districtHistorical":"元_雲南行省",
		"districtModern":"中國-雲南省-文山壯族苗族自治州-文山縣",
		"note":null,
		"lang":"中文",
		"shortAuthorityID":"PL40285",
		"names":"",
		"pinyin":[]
	},
	{
		"authorityID":"PL000000040286",
		"name":"王弄山司",
		"dynasty":"明",
		"long":"103.976",
		"lat":"23.3446",
		"districtHistorical":"明_雲南",
		"districtModern":"中國-雲南省-文山壯族苗族自治州-文山縣",
		"note":null,
		"lang":"中文",
		"shortAuthorityID":"PL40286",
		"names":"",
		"pinyin":[]
	},
	{
		"authorityID":"PL000000040287",
		"name":"黃草壩",
		"dynasty":"清",
		"long":"104.0517",
		"lat":"23.2969",
		"districtHistorical":"清_雲南",
		"districtModern":"中國-雲南省-文山壯族苗族自治州-文山縣",
		"note":null,
		"lang":"中文",
		"shortAuthorityID":"PL40287",
		"names":"",
		"pinyin":[]
	},
	{
		"authorityID":"PL000000040288",
		"name":"逢春里",
		"dynasty":"清",
		"long":"104.283",
		"lat":"23.2593",
		"districtHistorical":"清_雲南",
		"districtModern":"中國-雲南省-文山壯族苗族自治州-文山縣",
		"note":null,
		"lang":"中文",
		"shortAuthorityID":"PL40288",
		"names":"",
		"pinyin":[]
	},
	{
		"authorityID":"PL000000040289",
		"name":"古木",
		"dynasty":"明",
		"long":"104.2866",
		"lat":"23.2572",
		"districtHistorical":"明_雲南",
		"districtModern":"中國-雲南省-文山壯族苗族自治州-文山縣",
		"note":null,
		"lang":"中文",
		"shortAuthorityID":"PL40289",
		"names":"",
		"pinyin":[]
	},
	{
		"authorityID":"PL000000040290",
		"name":"西中",
		"dynasty":"南齊",
		"long":"104.364",
		"lat":"23.2787",
		"districtHistorical":"南朝齊_寧州",
		"districtModern":"中國-雲南省-文山壯族苗族自治州-文山縣",
		"note":null,
		"lang":"中文",
		"shortAuthorityID":"PL40290",
		"names":"",
		"pinyin":[]
	},
	{
		"authorityID":"PL000000040291",
		"name":"興古郡",
		"dynasty":"南齊",
		"long":"104.3007",
		"lat":"23.3681",
		"districtHistorical":"南朝齊_寧州",
		"districtModern":"中國-雲南省-文山壯族苗族自治州-文山縣",
		"note":null,
		"lang":"中文",
		"shortAuthorityID":"PL40291",
		"names":"",
		"pinyin":[]
	},
	{
		"authorityID":"PL000000040292",
		"name":"都唐",
		"dynasty":"東晉",
		"long":"104.3918",
		"lat":"23.2893",
		"districtHistorical":"東晉_寧州",
		"districtModern":"中國-雲南省-文山壯族苗族自治州-文山縣",
		"note":null,
		"lang":"中文",
		"shortAuthorityID":"PL40292",
		"names":"",
		"pinyin":[]
	},
	{
		"authorityID":"PL000000040293",
		"name":"都唐",
		"dynasty":"西晉",
		"long":"104.1223",
		"lat":"23.2371",
		"districtHistorical":"西晉_寧州",
		"districtModern":"中國-雲南省-文山壯族苗族自治州-文山縣",
		"note":null,
		"lang":"中文",
		"shortAuthorityID":"PL40293",
		"names":"",
		"pinyin":[]
	},
	{
		"authorityID":"PL000000040294",
		"name":"都夢",
		"dynasty":"西漢",
		"long":"104.3747",
		"lat":"23.3473",
		"districtHistorical":"西漢_益州刺史部",
		"districtModern":"中國-雲南省-文山壯族苗族自治州-文山縣",
		"note":null,
		"lang":"中文",
		"shortAuthorityID":"PL40294",
		"names":"",
		"pinyin":[]
	},
	{
		"authorityID":"PL000000040295",
		"name":"曲部驛",
		"dynasty":"明",
		"long":"104.2886",
		"lat":"23.7951",
		"districtHistorical":"明_雲南",
		"districtModern":"中國-雲南省-文山壯族苗族自治州-硯山縣",
		"note":null,
		"lang":"中文",
		"shortAuthorityID":"PL40295",
		"names":"",
		"pinyin":[]
	},
	{
		"authorityID":"PL000000040296",
		"name":"維摩州",
		"dynasty":"明",
		"long":"104.2886",
		"lat":"23.7951",
		"districtHistorical":"明_雲南",
		"districtModern":"中國-雲南省-文山壯族苗族自治州-硯山縣",
		"note":null,
		"lang":"中文",
		"shortAuthorityID":"PL40296",
		"names":"",
		"pinyin":[]
	},
	{
		"authorityID":"PL000000040297",
		"name":"維摩州",
		"dynasty":"元",
		"long":"104.2886",
		"lat":"23.7951",
		"districtHistorical":"元_雲南行省",
		"districtModern":"中國-雲南省-文山壯族苗族自治州-硯山縣",
		"note":null,
		"lang":"中文",
		"shortAuthorityID":"PL40297",
		"names":"",
		"pinyin":[]
	},
	{
		"authorityID":"PL000000040298",
		"name":"阿母驛",
		"dynasty":"明",
		"long":"104.5709",
		"lat":"23.7668",
		"districtHistorical":"明_雲南",
		"districtModern":"中國-雲南省-文山壯族苗族自治州-硯山縣",
		"note":null,
		"lang":"中文",
		"shortAuthorityID":"PL40298",
		"names":"",
		"pinyin":[]
	},
	{
		"authorityID":"PL000000040299",
		"name":"羅臺驛",
		"dynasty":"明",
		"long":"103.8444",
		"lat":"23.7431",
		"districtHistorical":"明_雲南",
		"districtModern":"中國-雲南省-文山壯族苗族自治州-硯山縣",
		"note":null,
		"lang":"中文",
		"shortAuthorityID":"PL40299",
		"names":"",
		"pinyin":[]
	},
	{
		"authorityID":"PL000000040300",
		"name":"落捉站",
		"dynasty":"元",
		"long":"103.8444",
		"lat":"23.7431",
		"districtHistorical":"元_雲南行省",
		"districtModern":"中國-雲南省-文山壯族苗族自治州-硯山縣",
		"note":null,
		"lang":"中文",
		"shortAuthorityID":"PL40300",
		"names":"",
		"pinyin":[]
	},
	{
		"authorityID":"PL000000040301",
		"name":"六詔",
		"dynasty":"清",
		"long":"104.578",
		"lat":"23.6842",
		"districtHistorical":"清_雲南",
		"districtModern":"中國-雲南省-文山壯族苗族自治州-硯山縣",
		"note":null,
		"lang":"中文",
		"shortAuthorityID":"PL40301",
		"names":"",
		"pinyin":[]
	},
	{
		"authorityID":"PL000000040302",
		"name":"江那里",
		"dynasty":"清",
		"long":"104.3401",
		"lat":"23.6124",
		"districtHistorical":"清_雲南",
		"districtModern":"中國-雲南省-文山壯族苗族自治州-硯山縣",
		"note":null,
		"lang":"中文",
		"shortAuthorityID":"PL40302",
		"names":"",
		"pinyin":[]
	},
	{
		"authorityID":"PL000000040303",
		"name":"宛暖",
		"dynasty":"南齊",
		"long":"104.2301",
		"lat":"23.7369",
		"districtHistorical":"南朝齊_寧州",
		"districtModern":"中國-雲南省-文山壯族苗族自治州-硯山縣",
		"note":null,
		"lang":"中文",
		"shortAuthorityID":"PL40303",
		"names":"",
		"pinyin":[]
	},
	{
		"authorityID":"PL000000040304",
		"name":"鐔封",
		"dynasty":"南齊",
		"long":"103.7174",
		"lat":"23.6747",
		"districtHistorical":"南朝齊_寧州",
		"districtModern":"中國-雲南省-文山壯族苗族自治州-硯山縣",
		"note":null,
		"lang":"中文",
		"shortAuthorityID":"PL40304",
		"names":"",
		"pinyin":[]
	},
	{
		"authorityID":"PL000000040305",
		"name":"宛暖",
		"dynasty":"東晉",
		"long":"104.1563",
		"lat":"23.661",
		"districtHistorical":"東晉_寧州",
		"districtModern":"中國-雲南省-文山壯族苗族自治州-硯山縣",
		"note":null,
		"lang":"中文",
		"shortAuthorityID":"PL40305",
		"names":"",
		"pinyin":[]
	},
	{
		"authorityID":"PL000000040306",
		"name":"興古郡",
		"dynasty":"東晉",
		"long":"104.1563",
		"lat":"23.661",
		"districtHistorical":"東晉_寧州",
		"districtModern":"中國-雲南省-文山壯族苗族自治州-硯山縣",
		"note":null,
		"lang":"中文",
		"shortAuthorityID":"PL40306",
		"names":"",
		"pinyin":[]
	},
	{
		"authorityID":"PL000000040307",
		"name":"宛溫",
		"dynasty":"西晉",
		"long":"104.1934",
		"lat":"23.7778",
		"districtHistorical":"西晉_寧州",
		"districtModern":"中國-雲南省-文山壯族苗族自治州-硯山縣",
		"note":null,
		"lang":"中文",
		"shortAuthorityID":"PL40307",
		"names":"",
		"pinyin":[]
	},
	{
		"authorityID":"PL000000040308",
		"name":"鐔封",
		"dynasty":"西晉",
		"long":"103.7388",
		"lat":"23.7635",
		"districtHistorical":"西晉_寧州",
		"districtModern":"中國-雲南省-文山壯族苗族自治州-硯山縣",
		"note":null,
		"lang":"中文",
		"shortAuthorityID":"PL40308",
		"names":"",
		"pinyin":[]
	},
	{
		"authorityID":"PL000000040309",
		"name":"鐔封",
		"dynasty":"蜀漢",
		"long":"103.796",
		"lat":"23.7654",
		"districtHistorical":"三國蜀漢_益州",
		"districtModern":"中國-雲南省-文山壯族苗族自治州-硯山縣",
		"note":null,
		"lang":"中文",
		"shortAuthorityID":"PL40309",
		"names":"",
		"pinyin":[]
	},
	{
		"authorityID":"PL000000040310",
		"name":"興古郡",
		"dynasty":"蜀漢",
		"long":"104.1341",
		"lat":"23.7542",
		"districtHistorical":"三國蜀漢_益州",
		"districtModern":"中國-雲南省-文山壯族苗族自治州-硯山縣",
		"note":null,
		"lang":"中文",
		"shortAuthorityID":"PL40310",
		"names":"",
		"pinyin":[]
	},
	{
		"authorityID":"PL000000040311",
		"name":"宛溫",
		"dynasty":"蜀漢",
		"long":"104.1341",
		"lat":"23.7542",
		"districtHistorical":"三國蜀漢_益州",
		"districtModern":"中國-雲南省-文山壯族苗族自治州-硯山縣",
		"note":null,
		"lang":"中文",
		"shortAuthorityID":"PL40311",
		"names":"",
		"pinyin":[]
	},
	{
		"authorityID":"PL000000040312",
		"name":"鐔封",
		"dynasty":"東漢",
		"long":"103.7212",
		"lat":"23.7548",
		"districtHistorical":"東漢_益州刺史部",
		"districtModern":"中國-雲南省-文山壯族苗族自治州-硯山縣",
		"note":null,
		"lang":"中文",
		"shortAuthorityID":"PL40312",
		"names":"",
		"pinyin":[]
	},
	{
		"authorityID":"PL000000040313",
		"name":"鐔封",
		"dynasty":"西漢",
		"long":"103.7212",
		"lat":"23.7548",
		"districtHistorical":"西漢_益州刺史部",
		"districtModern":"中國-雲南省-文山壯族苗族自治州-硯山縣",
		"note":null,
		"lang":"中文",
		"shortAuthorityID":"PL40313",
		"names":"",
		"pinyin":[]
	},
	{
		"authorityID":"PL000000040314",
		"name":"東安里",
		"dynasty":"清",
		"long":"104.6764",
		"lat":"23.442",
		"districtHistorical":"清_雲南",
		"districtModern":"中國-雲南省-文山壯族苗族自治州-西疇縣",
		"note":null,
		"lang":"中文",
		"shortAuthorityID":"PL40314",
		"names":"",
		"pinyin":{
			"東安里":"dōng ān lǐ"
		}
	},
	{
		"authorityID":"PL000000040315",
		"name":"牛羊汛",
		"dynasty":"清",
		"long":"104.6401",
		"lat":"23.2345",
		"districtHistorical":"清_雲南",
		"districtModern":"中國-雲南省-文山壯族苗族自治州-西疇縣",
		"note":null,
		"lang":"中文",
		"shortAuthorityID":"PL40315",
		"names":"",
		"pinyin":{
			"牛羊汛":"niú yáng xùn"
		}
	},
	{
		"authorityID":"PL000000040316",
		"name":"牛羊",
		"dynasty":"明",
		"long":"104.6363",
		"lat":"23.1871",
		"districtHistorical":"明_雲南",
		"districtModern":"中國-雲南省-文山壯族苗族自治州-西疇縣",
		"note":null,
		"lang":"中文",
		"shortAuthorityID":"PL40316",
		"names":"",
		"pinyin":{
			"牛羊":"niú yáng"
		}
	},
	{
		"authorityID":"PL000000040317",
		"name":"馬街子",
		"dynasty":"清",
		"long":"104.5248",
		"lat":"23.1688",
		"districtHistorical":"清_雲南",
		"districtModern":"中國-雲南省-文山壯族苗族自治州-西疇縣",
		"note":null,
		"lang":"中文",
		"shortAuthorityID":"PL40317",
		"names":"",
		"pinyin":[]
	},
	{
		"authorityID":"PL000000040318",
		"name":"董乾",
		"dynasty":"清",
		"long":"105.1586",
		"lat":"23.3448",
		"districtHistorical":"清_雲南",
		"districtModern":"中國-雲南省-文山壯族苗族自治州-麻栗坡縣",
		"note":null,
		"lang":"中文",
		"shortAuthorityID":"PL40318",
		"names":"",
		"pinyin":[]
	},
	{
		"authorityID":"PL000000040319",
		"name":"蔑弄",
		"dynasty":"清",
		"long":"105.2189",
		"lat":"23.3338",
		"districtHistorical":"清_雲南",
		"districtModern":"中國-雲南省-文山壯族苗族自治州-麻栗坡縣",
		"note":null,
		"lang":"中文",
		"shortAuthorityID":"PL40319",
		"names":"",
		"pinyin":[]
	},
	{
		"authorityID":"PL000000040320",
		"name":"新草房街",
		"dynasty":"清",
		"long":"104.6994",
		"lat":"23.1215",
		"districtHistorical":"清_雲南",
		"districtModern":"中國-雲南省-文山壯族苗族自治州-麻栗坡縣",
		"note":null,
		"lang":"中文",
		"shortAuthorityID":"PL40320",
		"names":"",
		"pinyin":[]
	},
	{
		"authorityID":"PL000000040321",
		"name":"南狼",
		"dynasty":"明",
		"long":"104.6526",
		"lat":"22.9993",
		"districtHistorical":"明_雲南",
		"districtModern":"中國-雲南省-文山壯族苗族自治州-麻栗坡縣",
		"note":null,
		"lang":"中文",
		"shortAuthorityID":"PL40321",
		"names":"",
		"pinyin":[]
	},
	{
		"authorityID":"PL000000040322",
		"name":"(孟力)峒",
		"dynasty":"越南",
		"long":"104.7412",
		"lat":"22.9187",
		"districtHistorical":"越南",
		"districtModern":"中國-雲南省-文山壯族苗族自治州-麻栗坡縣",
		"note":null,
		"lang":"中文",
		"shortAuthorityID":"PL40322",
		"names":"",
		"pinyin":[]
	},
	{
		"authorityID":"PL000000040323",
		"name":"山車塘",
		"dynasty":"清",
		"long":"104.4638",
		"lat":"23.1909",
		"districtHistorical":"清_雲南",
		"districtModern":"中國-雲南省-文山壯族苗族自治州-馬關縣",
		"note":null,
		"lang":"中文",
		"shortAuthorityID":"PL40323",
		"names":"",
		"pinyin":[]
	},
	{
		"authorityID":"PL000000040324",
		"name":"來龍寨",
		"dynasty":"元",
		"long":"104.1847",
		"lat":"23.1188",
		"districtHistorical":"元_雲南行省",
		"districtModern":"中國-雲南省-文山壯族苗族自治州-馬關縣",
		"note":null,
		"lang":"中文",
		"shortAuthorityID":"PL40324",
		"names":"",
		"pinyin":[]
	},
	{
		"authorityID":"PL000000040325",
		"name":"馬街汛",
		"dynasty":"清",
		"long":"104.5331",
		"lat":"23.0674",
		"districtHistorical":"清_雲南",
		"districtModern":"中國-雲南省-文山壯族苗族自治州-馬關縣",
		"note":null,
		"lang":"中文",
		"shortAuthorityID":"PL40325",
		"names":"",
		"pinyin":{
			"馬街汛":"mǎ jiē xùn"
		}
	},
	{
		"authorityID":"PL000000040326",
		"name":"馬白關",
		"dynasty":"清",
		"long":"104.3957",
		"lat":"23.0122",
		"districtHistorical":"清_雲南",
		"districtModern":"中國-雲南省-文山壯族苗族自治州-馬關縣",
		"note":null,
		"lang":"中文",
		"shortAuthorityID":"PL40326",
		"names":"",
		"pinyin":[]
	},
	{
		"authorityID":"PL000000040327",
		"name":"八寨司",
		"dynasty":"明",
		"long":"104.0748",
		"lat":"23.0051",
		"districtHistorical":"明_雲南",
		"districtModern":"中國-雲南省-文山壯族苗族自治州-馬關縣",
		"note":null,
		"lang":"中文",
		"shortAuthorityID":"PL40327",
		"names":"",
		"pinyin":[]
	},
	{
		"authorityID":"PL000000040328",
		"name":"永平里",
		"dynasty":"清",
		"long":"104.0665",
		"lat":"22.9991",
		"districtHistorical":"清_雲南",
		"districtModern":"中國-雲南省-文山壯族苗族自治州-馬關縣",
		"note":null,
		"lang":"中文",
		"shortAuthorityID":"PL40328",
		"names":"",
		"pinyin":[]
	},
	{
		"authorityID":"PL000000040329",
		"name":"都龍",
		"dynasty":"越南",
		"long":"104.5548",
		"lat":"22.9154",
		"districtHistorical":"越南",
		"districtModern":"中國-雲南省-文山壯族苗族自治州-馬關縣",
		"note":null,
		"lang":"中文",
		"shortAuthorityID":"PL40329",
		"names":"",
		"pinyin":[]
	},
	{
		"authorityID":"PL000000040330",
		"name":"老卡",
		"dynasty":"清",
		"long":"104.2062",
		"lat":"22.8716",
		"districtHistorical":"清_雲南",
		"districtModern":"中國-雲南省-文山壯族苗族自治州-馬關縣",
		"note":null,
		"lang":"中文",
		"shortAuthorityID":"PL40330",
		"names":"",
		"pinyin":[]
	},
	{
		"authorityID":"PL000000040331",
		"name":"必勒龍站",
		"dynasty":"元",
		"long":"104.0565",
		"lat":"24.2444",
		"districtHistorical":"元_雲南行省",
		"districtModern":"中國-雲南省-文山壯族苗族自治州-丘北縣",
		"note":null,
		"lang":"中文",
		"shortAuthorityID":"PL40331",
		"names":"",
		"pinyin":[]
	},
	{
		"authorityID":"PL000000040332",
		"name":"五嶆",
		"dynasty":"清",
		"long":"104.0486",
		"lat":"24.2407",
		"districtHistorical":"清_雲南",
		"districtModern":"中國-雲南省-文山壯族苗族自治州-丘北縣",
		"note":null,
		"lang":"中文",
		"shortAuthorityID":"PL40332",
		"names":"",
		"pinyin":{
			"五嶆":"wǔ cáo"
		}
	},
	{
		"authorityID":"PL000000040333",
		"name":"馬者龍站",
		"dynasty":"元",
		"long":"104.2195",
		"lat":"24.1427",
		"districtHistorical":"元_雲南行省",
		"districtModern":"中國-雲南省-文山壯族苗族自治州-丘北縣",
		"note":null,
		"lang":"中文",
		"shortAuthorityID":"PL40333",
		"names":"",
		"pinyin":[]
	},
	{
		"authorityID":"PL000000040334",
		"name":"曰者",
		"dynasty":"清",
		"long":"103.9838",
		"lat":"24.1218",
		"districtHistorical":"清_雲南",
		"districtModern":"中國-雲南省-文山壯族苗族自治州-丘北縣",
		"note":null,
		"lang":"中文",
		"shortAuthorityID":"PL40334",
		"names":"",
		"pinyin":{
			"曰者":"yuē zhě"
		}
	},
	{
		"authorityID":"PL000000040335",
		"name":"丘北縣",
		"dynasty":"清",
		"long":"104.2003",
		"lat":"24.0483",
		"districtHistorical":"清_雲南",
		"districtModern":"中國-雲南省-文山壯族苗族自治州-丘北縣",
		"note":null,
		"lang":"中文",
		"shortAuthorityID":"PL40335",
		"names":"",
		"pinyin":[]
	},
	{
		"authorityID":"PL000000040336",
		"name":"小江口",
		"dynasty":"清",
		"long":"103.652",
		"lat":"24.0193",
		"districtHistorical":"清_雲南",
		"districtModern":"中國-雲南省-文山壯族苗族自治州-丘北縣",
		"note":null,
		"lang":"中文",
		"shortAuthorityID":"PL40336",
		"names":"",
		"pinyin":{
			"小江口":"xiǎo jiāng kǒu"
		}
	},
	{
		"authorityID":"PL000000040337",
		"name":"彌勒灣",
		"dynasty":"清",
		"long":"104.3217",
		"lat":"23.9424",
		"districtHistorical":"清_雲南",
		"districtModern":"中國-雲南省-文山壯族苗族自治州-丘北縣",
		"note":null,
		"lang":"中文",
		"shortAuthorityID":"PL40337",
		"names":"",
		"pinyin":[]
	},
	{
		"authorityID":"PL000000040338",
		"name":"架哈",
		"dynasty":"清",
		"long":"103.8877",
		"lat":"23.8397",
		"districtHistorical":"清_雲南",
		"districtModern":"中國-雲南省-文山壯族苗族自治州-丘北縣",
		"note":null,
		"lang":"中文",
		"shortAuthorityID":"PL40338",
		"names":"",
		"pinyin":[]
	},
	{
		"authorityID":"PL000000040339",
		"name":"興古郡",
		"dynasty":"蜀漢",
		"long":"104.0696",
		"lat":"23.833",
		"districtHistorical":"三國蜀漢_益州",
		"districtModern":"中國-雲南省-文山壯族苗族自治州-丘北縣",
		"note":null,
		"lang":"中文",
		"shortAuthorityID":"PL40339",
		"names":"",
		"pinyin":[]
	},