[
	{
		"authorityID":"PL000000015001",
		"name":"松陽",
		"dynasty":"北宋",
		"long":"119.5046",
		"lat":"28.4541",
		"districtHistorical":"北宋_兩浙路",
		"districtModern":"中國-浙江省-麗水市-松陽縣",
		"note":"位於浙西南山區、麗水腹地，因地處長松山之南，故名松陽。（<a target=\"_blank\" href=\"http:\/\/paper.wenweipo.com\/2011\/11\/11\/zt1111110021.htm\">http:\/\/paper.wenweipo.com\/浙南「桃源勝地」松陽掘金生態旅遊<\/a>，2012.08.22）",
		"lang":"中文",
		"shortAuthorityID":"PL15001",
		"names":"",
		"pinyin":{
			"松陽":"sōng yáng"
		}
	},
	{
		"authorityID":"PL000000015002",
		"name":"松陽",
		"dynasty":"清",
		"long":"119.5098",
		"lat":"28.4521",
		"districtHistorical":"清_浙江",
		"districtModern":"中國-浙江省-麗水市-松陽縣",
		"note":null,
		"lang":"中文",
		"shortAuthorityID":"PL15002",
		"names":"",
		"pinyin":{
			"松陽":"sōng yáng"
		}
	},
	{
		"authorityID":"PL000000015003",
		"name":"龍虎坳",
		"dynasty":"清",
		"long":"119.2358",
		"lat":"28.3888",
		"districtHistorical":"清_浙江",
		"districtModern":"中國-浙江省-麗水市-松陽縣",
		"note":null,
		"lang":"中文",
		"shortAuthorityID":"PL15003",
		"names":"",
		"pinyin":[]
	},
	{
		"authorityID":"PL000000015004",
		"name":"武溪隘",
		"dynasty":"清",
		"long":"119.411",
		"lat":"28.1713",
		"districtHistorical":"清_浙江",
		"districtModern":"中國-浙江省-麗水市-雲和縣",
		"note":null,
		"lang":"中文",
		"shortAuthorityID":"PL15004",
		"names":"",
		"pinyin":[]
	},
	{
		"authorityID":"PL000000015005",
		"name":"雲和",
		"dynasty":"清",
		"long":"119.5724",
		"lat":"28.111",
		"districtHistorical":"清_浙江",
		"districtModern":"中國-浙江省-麗水市-雲和縣",
		"note":null,
		"lang":"中文",
		"shortAuthorityID":"PL15005",
		"names":"",
		"pinyin":[]
	},
	{
		"authorityID":"PL000000015006",
		"name":"雲和",
		"dynasty":"明",
		"long":"119.5724",
		"lat":"28.111",
		"districtHistorical":"明_浙江",
		"districtModern":"中國-浙江省-麗水市-雲和縣",
		"note":null,
		"lang":"中文",
		"shortAuthorityID":"PL15006",
		"names":"",
		"pinyin":[]
	},
	{
		"authorityID":"PL000000015007",
		"name":"竹口",
		"dynasty":"元",
		"long":"118.9562",
		"lat":"27.6766",
		"districtHistorical":"元_江浙行省",
		"districtModern":"中國-浙江省-麗水市-慶元縣",
		"note":null,
		"lang":"中文",
		"shortAuthorityID":"PL15007",
		"names":"",
		"pinyin":{
			"竹口":"zhú kǒu"
		}
	},
	{
		"authorityID":"PL000000015008",
		"name":"慶元",
		"dynasty":"南宋",
		"long":"119.0576",
		"lat":"27.6217",
		"districtHistorical":"南宋_兩浙東路",
		"districtModern":"中國-浙江省-麗水市-慶元縣",
		"note":null,
		"lang":"中文",
		"shortAuthorityID":"PL15008",
		"names":"",
		"pinyin":[]
	},
	{
		"authorityID":"PL000000015009",
		"name":"慶元",
		"dynasty":"明",
		"long":"119.0717",
		"lat":"27.6144",
		"districtHistorical":"明_浙江",
		"districtModern":"中國-浙江省-麗水市-慶元縣",
		"note":"浙江省西南部。北臨龍泉市 、 景寧畬族自治縣 ，東、西、南三面分別與福建省壽寧縣 、 松溪縣 、 政和縣交界。地勢自東北向西南傾斜，大部分為山。（<a target=\"_blank\" href=\"http:\/\/zh.wikipedia.org\/wiki\/%E5%BA%86%E5%85%83%E5%8E%BF\">http:\/\/zh.wikipedia.org\/wiki\/%E5%BA%86%E5%85%83%E5%8E%BF<\/a>，2009.06.17）",
		"lang":"中文",
		"shortAuthorityID":"PL15009",
		"names":"",
		"pinyin":[]
	},
	{
		"authorityID":"PL000000015010",
		"name":"慶元",
		"dynasty":"元",
		"long":"119.0717",
		"lat":"27.6144",
		"districtHistorical":"元_江浙行省",
		"districtModern":"中國-浙江省-麗水市-慶元縣",
		"note":"宋慶元三年（1197）年，析龍泉之松源鄉及延慶鄉部分地置慶元縣。明洪武三年（1370），慶元縣併入，洪武十三年十一月復置慶元縣。（<a target=\"_blank\" href=\"http:\/\/www.longquan.gov.cn\/jclq\/lqgl\/lqls\/\">http:\/\/www.longquan.gov.cn\/jclq\/lqgl\/lqls\/<\/a>，2010.05.07；<a target=\"_blank\" href=\"http:\/\/baike.baidu.com\/view\/331308.htm\">http:\/\/baike.baidu.com\/view\/331308.htm<\/a>，2011.06.14）",
		"lang":"中文",
		"shortAuthorityID":"PL15010",
		"names":"[中文] 松源",
		"pinyin":{
			"松源":"sōng yuán"
		}
	},
	{
		"authorityID":"PL000000015011",
		"name":"慶元",
		"dynasty":"清",
		"long":"119.0705",
		"lat":"27.6048",
		"districtHistorical":"清_浙江",
		"districtModern":"中國-浙江省-麗水市-慶元縣",
		"note":null,
		"lang":"中文",
		"shortAuthorityID":"PL15011",
		"names":"",
		"pinyin":[]
	},
	{
		"authorityID":"PL000000015012",
		"name":"梅坳隘",
		"dynasty":"清",
		"long":"119.3374",
		"lat":"27.5335",
		"districtHistorical":"清_浙江",
		"districtModern":"中國-浙江省-麗水市-慶元縣",
		"note":null,
		"lang":"中文",
		"shortAuthorityID":"PL15012",
		"names":"",
		"pinyin":[]
	},
	{
		"authorityID":"PL000000015013",
		"name":"景寧",
		"dynasty":"清",
		"long":"119.6441",
		"lat":"27.9648",
		"districtHistorical":"清_浙江",
		"districtModern":"中國-浙江省-麗水市-景寧畬族自治縣",
		"note":null,
		"lang":"中文",
		"shortAuthorityID":"PL15013",
		"names":"",
		"pinyin":[]
	},
	{
		"authorityID":"PL000000015014",
		"name":"景寧",
		"dynasty":"明",
		"long":"119.6549",
		"lat":"27.9647",
		"districtHistorical":"明_浙江",
		"districtModern":"中國-浙江省-麗水市-景寧畬族自治縣",
		"note":null,
		"lang":"中文",
		"shortAuthorityID":"PL15014",
		"names":"",
		"pinyin":[]
	},
	{
		"authorityID":"PL000000015015",
		"name":"梧桐隘",
		"dynasty":"清",
		"long":"119.528",
		"lat":"27.8477",
		"districtHistorical":"清_浙江",
		"districtModern":"中國-浙江省-麗水市-景寧畬族自治縣",
		"note":null,
		"lang":"中文",
		"shortAuthorityID":"PL15015",
		"names":"",
		"pinyin":[]
	},
	{
		"authorityID":"PL000000015016",
		"name":"大漈",
		"dynasty":"明",
		"long":"119.6309",
		"lat":"27.8196",
		"districtHistorical":"明_浙江",
		"districtModern":"中國-浙江省-麗水市-景寧畬族自治縣",
		"note":null,
		"lang":"中文",
		"shortAuthorityID":"PL15016",
		"names":"",
		"pinyin":[]
	},
	{
		"authorityID":"PL000000015017",
		"name":"大漈",
		"dynasty":"清",
		"long":"119.6296",
		"lat":"27.8176",
		"districtHistorical":"清_浙江",
		"districtModern":"中國-浙江省-麗水市-景寧畬族自治縣",
		"note":null,
		"lang":"中文",
		"shortAuthorityID":"PL15017",
		"names":"",
		"pinyin":[]
	},
	{
		"authorityID":"PL000000015018",
		"name":"青草隘",
		"dynasty":"清",
		"long":"119.595",
		"lat":"27.6852",
		"districtHistorical":"清_浙江",
		"districtModern":"中國-浙江省-麗水市-景寧畬族自治縣",
		"note":null,
		"lang":"中文",
		"shortAuthorityID":"PL15018",
		"names":"",
		"pinyin":[]
	},
	{
		"authorityID":"PL000000015019",
		"name":"大賽山",
		"dynasty":null,
		"long":"119.13615",
		"lat":"28.078152",
		"districtHistorical":null,
		"districtModern":"中國-浙江省-麗水市-龍泉市",
		"note":"位於縉雲龍泉，釋有緣於乾符三年，至此立院。（X85n1590_p0200c08；宋僧索引：808）",
		"lang":"中文",
		"shortAuthorityID":"PL15019",
		"names":"",
		"pinyin":[]
	},
	{
		"authorityID":"PL000000015020",
		"name":"崇仁寺",
		"dynasty":"五代十國",
		"long":"119.134031",
		"lat":"28.050888",
		"districtHistorical":null,
		"districtModern":"中國-浙江省-麗水市-龍泉市",
		"note":"（唐寺考：204）",
		"lang":"中文",
		"shortAuthorityID":"PL15020",
		"names":"",
		"pinyin":[]
	},
	{
		"authorityID":"PL000000015021",
		"name":"大明寺",
		"dynasty":"唐",
		"long":"119.136601",
		"lat":"28.074014",
		"districtHistorical":null,
		"districtModern":"中國-浙江省-麗水市-龍泉市",
		"note":"（唐寺考：204）",
		"lang":"中文",
		"shortAuthorityID":"PL15021",
		"names":"",
		"pinyin":[]
	},
	{
		"authorityID":"PL000000015022",
		"name":"龍安院",
		"dynasty":null,
		"long":"119.13615",
		"lat":"28.078152",
		"districtHistorical":null,
		"districtModern":"中國-浙江省-麗水市-龍泉市",
		"note":"位於龍泉，乾符三年，釋有緣於至縉雲龍泉大賽山立院。因奏祠部給額，號龍安。勅度七僧，住十八載。（X85n1590_p0200c08、T50n2061_p0781c17）",
		"lang":"中文",
		"shortAuthorityID":"PL15022",
		"names":"",
		"pinyin":[]
	},
	{
		"authorityID":"PL000000015023",
		"name":"坑西隘",
		"dynasty":"清",
		"long":"118.9119",
		"lat":"28.2625",
		"districtHistorical":"清_浙江",
		"districtModern":"中國-浙江省-麗水市-龍泉市",
		"note":null,
		"lang":"中文",
		"shortAuthorityID":"PL15023",
		"names":"",
		"pinyin":[]
	},
	{
		"authorityID":"PL000000015024",
		"name":"龍泉",
		"dynasty":"清",
		"long":"119.1296",
		"lat":"28.0812",
		"districtHistorical":"清_浙江",
		"districtModern":"中國-浙江省-麗水市-龍泉市",
		"note":null,
		"lang":"中文",
		"shortAuthorityID":"PL15024",
		"names":"",
		"pinyin":[]
	},
	{
		"authorityID":"PL000000015025",
		"name":"龍泉",
		"dynasty":"明",
		"long":"119.1296",
		"lat":"28.0812",
		"districtHistorical":"明_浙江",
		"districtModern":"中國-浙江省-麗水市-龍泉市",
		"note":null,
		"lang":"中文",
		"shortAuthorityID":"PL15025",
		"names":"",
		"pinyin":[]
	},
	{
		"authorityID":"PL000000015026",
		"name":"龍泉",
		"dynasty":"元",
		"long":"119.1296",
		"lat":"28.0812",
		"districtHistorical":"元_江浙行省",
		"districtModern":"中國-浙江省-麗水市-龍泉市",
		"note":"位於浙江省西南部。東晉太寧元年（323），屬永嘉郡松陽縣，建置龍淵鄉。宋徽宗宣和三年（1121），詔天下縣鎮凡有龍字者皆避，因改名為劍川縣。宋紹興元年（1131），復名龍泉縣。宋慶元三年（1197），析龍泉之松源鄉及延慶鄉部份地置慶元縣。（<a target=\"_blank\" href=\"http:\/\/baike.baidu.com\/view\/68508.htm\">http:\/\/baike.baidu.com\/view\/68508.htm<\/a>，2011.11.24）",
		"lang":"中文",
		"shortAuthorityID":"PL15026",
		"names":"",
		"pinyin":[]
	},
	{
		"authorityID":"PL000000015027",
		"name":"龍泉",
		"dynasty":"南宋",
		"long":"119.1296",
		"lat":"28.0812",
		"districtHistorical":"南宋_兩浙東路",
		"districtModern":"中國-浙江省-麗水市-龍泉市",
		"note":"位於浙江省西南部、甌江上游。唐乾元二年（759），建立龍泉縣，縣治地黃鶴鎮（今龍淵鎮）。（<a target=\"_blank\" href=\"http:\/\/zh.wikipedia.org\/wiki\/%E9%BE%99%E6%B3%89%E5%B8%82\">http:\/\/zh.wikipedia.org\/wiki\/龍泉市<\/a>，2012.02.16）",
		"lang":"中文",
		"shortAuthorityID":"PL15027",
		"names":"",
		"pinyin":{
			"龍泉":"lóng quán"
		}
	},
	{
		"authorityID":"PL000000015028",
		"name":"龍泉",
		"dynasty":"北宋",
		"long":"119.1296",
		"lat":"28.0812",
		"districtHistorical":"北宋_兩浙路",
		"districtModern":"中國-浙江省-麗水市-龍泉市",
		"note":null,
		"lang":"中文",
		"shortAuthorityID":"PL15028",
		"names":"",
		"pinyin":[]
	},
	{
		"authorityID":"PL000000015029",
		"name":"龍泉縣",
		"dynasty":"唐",
		"long":"119.1296",
		"lat":"28.0812",
		"districtHistorical":"唐_江南東道",
		"districtModern":"中國-浙江省-麗水市-龍泉市",
		"note":"東晉太守元年（323），屬揚州永嘉郡松陽縣龍淵鄉。唐武德三年（620），因避高祖李淵諱，改龍淵鄉為龍泉鄉。乾元二年（759），分松陽縣龍泉鄉和遂昌縣部分地置龍泉縣，治黃鶴鎮（今浙江龍泉市龍淵鎮），屬括州。 （<a target=\"_blank\" href=\"http:\/\/baike.baidu.com\/view\/3225758.htm\">http:\/\/baike.baidu.com\/龍泉縣<\/a>，2012.07.25）",
		"lang":"中文",
		"shortAuthorityID":"PL15029",
		"names":"",
		"pinyin":{
			"龍泉縣":"lóng quán xiàn"
		}
	},
	{
		"authorityID":"PL000000015030",
		"name":"安仁庄",
		"dynasty":"清",
		"long":"119.3472",
		"lat":"28.0782",
		"districtHistorical":"清_浙江",
		"districtModern":"中國-浙江省-麗水市-龍泉市",
		"note":null,
		"lang":"中文",
		"shortAuthorityID":"PL15030",
		"names":"",
		"pinyin":[]
	},
	{
		"authorityID":"PL000000015031",
		"name":"查田市",
		"dynasty":"明",
		"long":"119.0035",
		"lat":"27.8663",
		"districtHistorical":"明_浙江",
		"districtModern":"中國-浙江省-麗水市-龍泉市",
		"note":null,
		"lang":"中文",
		"shortAuthorityID":"PL15031",
		"names":"",
		"pinyin":[]
	},
	{
		"authorityID":"PL000000015032",
		"name":"查田市",
		"dynasty":"清",
		"long":"119.0033",
		"lat":"27.866",
		"districtHistorical":"清_浙江",
		"districtModern":"中國-浙江省-麗水市-龍泉市",
		"note":null,
		"lang":"中文",
		"shortAuthorityID":"PL15032",
		"names":"",
		"pinyin":[]
	},
	{
		"authorityID":"PL000000015033",
		"name":"小梅隘",
		"dynasty":"清",
		"long":"118.9945",
		"lat":"27.8193",
		"districtHistorical":"清_浙江",
		"districtModern":"中國-浙江省-麗水市-龍泉市",
		"note":null,
		"lang":"中文",
		"shortAuthorityID":"PL15033",
		"names":"",
		"pinyin":[]
	},
	{
		"authorityID":"PL000000015034",
		"name":"青峭彎",
		"dynasty":"慣用名",
		"long":"117.841159",
		"lat":"30.517685",
		"districtHistorical":null,
		"districtModern":"中國-安徽省-池州市-青陽縣",
		"note":"安徽九華山二灣之一，在天柱、五老峯之西南。在東有琉璃灘，水流澄澈，光若凝冰。（g077p0120 、 g077p0121）",
		"lang":"中文",
		"shortAuthorityID":"PL15034",
		"names":"",
		"pinyin":[]
	},
	{
		"authorityID":"PL000000015035",
		"name":"安徽",
		"dynasty":"慣用名",
		"long":"117.28481",
		"lat":"31.861633",
		"districtHistorical":null,
		"districtModern":"中國-安徽省",
		"note":"簡稱皖。位於中國東南部，居華東腹地。（<a target=\"_blank\" href=\"http:\/\/baike.baidu.com\/view\/38072.htm\">http:\/\/baike.baidu.com\/view\/38072.htm<\/a>，2009.04.23）",
		"lang":"中文",
		"shortAuthorityID":"PL15035",
		"names":"[中文] 皖",
		"pinyin":{
			"安徽":"ān huī"
		}
	},
	{
		"authorityID":"PL000000015036",
		"name":"皖江",
		"dynasty":null,
		"long":"117.649812",
		"lat":"30.779558",
		"districtHistorical":null,
		"districtModern":"中國-安徽省",
		"note":"皖江地區是指長江流域安徽段兩岸地區，覆蓋地域涉及現行行政區劃的沿江8市：安慶、池州、銅陵、蕪湖、馬鞍山、巢湖、宣城（除績溪縣）和滁州市東部。（<a target=\"_blank\" href=\"http:\/\/baike.baidu.com\/view\/1170557.htm\">http:\/\/baike.baidu.com\/view\/1170557.htm<\/a>，2009.10.30）",
		"lang":"中文",
		"shortAuthorityID":"PL15036",
		"names":"",
		"pinyin":[]
	},
	{
		"authorityID":"PL000000015037",
		"name":"安徽省",
		"dynasty":"清",
		"long":"117.0435",
		"lat":"30.5112",
		"districtHistorical":"清_安徽省",
		"districtModern":"中國-安徽省",
		"note":"禹貢揚及徐、豫三州之域。……。（康熙）六年，改左布政為安徽布政使司。……。東至江蘇溧水；西至湖北麻城；南至江西彭澤、浙江遂安；北至河南鹿邑。（清史稿．卷五十九．地理六：2001；<a target=\"_blank\" href=\"http:\/\/zh.wikipedia.org\/zh-tw\/%E5%AE%89%E5%BE%BD\">http:\/\/zh.wikipedia.org\/zh-tw\/%E5%AE%89%E5%BE%BD<\/a>，2009.11.25）",
		"lang":"中文",
		"shortAuthorityID":"PL15037",
		"names":"",
		"pinyin":{
			"安徽省":"ān huī shěng"
		}
	},
	{
		"authorityID":"PL000000015038",
		"name":"大通河",
		"dynasty":"慣用名",
		"long":"117.750689",
		"lat":"30.800706",
		"districtHistorical":null,
		"districtModern":"中國-安徽省",
		"note":"大通河跨南陵、涇縣、青陽、貴池、銅陵等五縣。東界順安河，西鄰九華河，南依九華山脈，北臨長江。上游主要支流有二：一是青通河，二是七星河。（<a target=\"_blank\" href=\"http:\/\/baike.baidu.com\/view\/350361.htm\">http:\/\/baike.baidu.com\/view\/350361.htm<\/a>，2009.05.04）",
		"lang":"中文",
		"shortAuthorityID":"PL15038",
		"names":"",
		"pinyin":[]
	},
	{
		"authorityID":"PL000000015039",
		"name":"江淮",
		"dynasty":"慣用名",
		"long":"117.195574",
		"lat":"32.210747",
		"districtHistorical":null,
		"districtModern":false,
		"note":"江淮，顧名思義，指江（長江）、淮（淮河）一帶，廣義上指江南、淮南地區，此屬於廣義的江南範圍。江淮狹義上指長江、淮河之間的地區，特指今江蘇、安徽的中部地區。位於江蘇省、安徽省的淮河以南、長江下游一帶地區主要由長江、淮河沖積而成。地勢低窪，海拔一般在10米以下，水網交織，湖泊眾多。（<a target=\"_blank\" href=\"http:\/\/baike.baidu.com\/view\/89633.htm\">http:\/\/baike.baidu.com\/view\/89633.htm<\/a>，2012.02.21）",
		"lang":"中文",
		"shortAuthorityID":"PL15039",
		"names":"[中文] 兩淮,淮南,准南",
		"pinyin":{
			"江淮":"jiāng huái"
		}
	},
	{
		"authorityID":"PL000000015040",
		"name":"成孝鄉",
		"dynasty":null,
		"long":"117.22195",
		"lat":"31.822415",
		"districtHistorical":null,
		"districtModern":"中國-安徽省-合肥市",
		"note":"位於合肥。（X88n1646_p0204b14 ）",
		"lang":"中文",
		"shortAuthorityID":"PL15040",
		"names":"",
		"pinyin":[]
	},
	{
		"authorityID":"PL000000015041",
		"name":"肥水",
		"dynasty":null,
		"long":"117.410311",
		"lat":"31.703358",
		"districtHistorical":null,
		"districtModern":"中國-安徽省-合肥市",
		"note":"又名施水。即今安徽合肥市之南肥河。《寰宇記》卷126合肥縣：\"肥水出縣西南八十里蘭家山，東南流入巢湖。\"《梁書．韋叡傳》：\"右軍司馬胡略等至合肥，久未能下……乃堰肥水。\"即此。（歷地史：1620）",
		"lang":"中文",
		"shortAuthorityID":"PL15041",
		"names":"[中文] 施水,南肥河",
		"pinyin":[]
	},
	{
		"authorityID":"PL000000015042",
		"mergeTo":null,
		"names":"",
		"pinyin":[]
	},
	{
		"authorityID":"PL000000015043",
		"name":"假資料一",
		"dynasty":"慣用名",
		"long":"119.7162",
		"lat":"30.261",
		"districtHistorical":"",
		"districtModern":"中國-安徽省-合肥市-市轄區",
		"note":"這是2009.06.17地名規範資料改碼後的測試。（<a target=\"_blank\" href=\"http:\/\/jinglu.cbeta.org\/cgi-bin\/jinglu.pl\">http:\/\/jinglu.cbeta.org\/cgi-bin\/jinglu.pl<\/a>，2009.06.17）",
		"lang":"中文",
		"shortAuthorityID":"PL15043",
		"names":"",
		"pinyin":[]
	},
	{
		"authorityID":"PL000000015044",
		"name":"梁靜寺",
		"dynasty":"隋",
		"long":"0",
		"lat":"0",
		"districtHistorical":null,
		"districtModern":"中國-安徽省-合肥市-廬陽區",
		"note":"",
		"lang":"中文",
		"shortAuthorityID":"PL15044",
		"names":"",
		"pinyin":[]
	},
	{
		"authorityID":"PL000000015045",
		"name":"福泉寺",
		"dynasty":"唐",
		"long":"117.271062",
		"lat":"31.863133",
		"districtHistorical":null,
		"districtModern":"中國-安徽省-合肥市-廬陽區",
		"note":"在府城内。明統志，唐羅珦微時，在寺隨眾僧飯，後官守鄉郡。題詩僧房壁。（唐寺考：149；<a target=\"_blank\" href=\" http:\/\/chgis.hmdc.harvard.edu\/search_details_1.php?ptid=relig_991\"> http:\/\/chgis.hmdc.harvard.edu\/search_details_1.php?ptid=relig_991<\/a>，2009.06.22；淵四．大清一統志．卷八十五：31；四部續．嘉慶一統志．廬州府二： 11）",
		"lang":"中文",
		"shortAuthorityID":"PL15045",
		"names":"",
		"pinyin":{
			"福泉寺":"fú quán sì"
		}
	},
	{
		"authorityID":"PL000000015046",
		"name":"明教台寺",
		"dynasty":"南梁",
		"long":"117.290393",
		"lat":"31.866734",
		"districtHistorical":null,
		"districtModern":"中國-安徽省-合肥市-廬陽區",
		"note":"（唐寺考：150；<a target=\"_blank\" href=\"http:\/\/baike.baidu.com\/view\/565841.htm\">http:\/\/baike.baidu.com\/view\/565841.htm<\/a>，2009.04.23）",
		"lang":"中文",
		"shortAuthorityID":"PL15046",
		"names":"[中文] 鐵佛寺,明教院,明教寺",
		"pinyin":[]
	},
	{
		"authorityID":"PL000000015047",
		"name":"天王寺",
		"dynasty":"唐",
		"long":"117.279852",
		"lat":"31.859115",
		"districtHistorical":null,
		"districtModern":"中國-安徽省-合肥市-廬陽區",
		"note":"在府城内。唐建，明正統丁夘重建。（唐寺考：150；<a target=\"_blank\" href=\" http:\/\/chgis.hmdc.harvard.edu\/search_details_1.php?ptid=relig_333\"> http:\/\/chgis.hmdc.harvard.edu\/search_details_1.php?ptid=relig_333<\/a>，2009.06.22；淵四．大清一統志．卷八十五：31；四部續．嘉慶一統志．廬州府二： 11）",
		"lang":"中文",
		"shortAuthorityID":"PL15047",
		"names":"",
		"pinyin":{
			"天王寺":"tiān wáng sì"
		}
	},
	{
		"authorityID":"PL000000015048",
		"name":"萬壽寺",
		"dynasty":"唐",
		"long":"117.278745",
		"lat":"31.859537",
		"districtHistorical":null,
		"districtModern":"中國-安徽省-合肥市-廬陽區",
		"note":"在府城内。唐武德中建。（唐寺考：150；淵四．大清一統志．卷八十五：31；四部續．嘉慶一統志．廬州府二：\r\n11）",
		"lang":"中文",
		"shortAuthorityID":"PL15048",
		"names":"",
		"pinyin":{
			"萬壽寺":"wàn shòu sì"
		}
	},
	{
		"authorityID":"PL000000015049",
		"name":"地藏寺",
		"dynasty":null,
		"long":"117.275071",
		"lat":"31.870522",
		"districtHistorical":null,
		"districtModern":"中國-安徽省-合肥市-廬陽區",
		"note":"宋淳熙八年建。（明清序：266）",
		"lang":"中文",
		"shortAuthorityID":"PL15049",
		"names":"",
		"pinyin":[]
	},
	{
		"authorityID":"PL000000015050",
		"name":"浮槎寺",
		"dynasty":"沒有給定朝代",
		"long":"117.653449",
		"lat":"31.843383",
		"districtHistorical":null,
		"districtModern":"中國-安徽省-合肥市-肥東縣",
		"note":"位於廬州肥東縣浮槎山頂上。乾隆一統志，在浮槎山，亦名福巖寺。碑略云，梁武帝女夢入一山為尼，帝取名山圖，展得此山。以天監三年，創道林，寺成祝髪號名持大師。有梁女墓，在殿東百餘步。（宋僧索引：472；<a target=\"_blank\" href=\"http:\/\/baike.baidu.com\/view\/5781033.htm\">http:\/\/baike.baidu.com\/view\/5781033.htm<\/a>，2012.01.31；淵四．大清一統志．卷八十五：31；四部續．嘉慶一統志．廬州府二： 11）",
		"lang":"中文",
		"shortAuthorityID":"PL15050",
		"names":"[中文] 道林寺,浮查寺,福巖寺",
		"pinyin":{
			"浮槎寺":"fú chá sì",
			"道林寺":"dào lín sì",
			"浮查寺":"fú chá sì",
			"福巖寺":"fú yán sì"
		}
	},
	{
		"authorityID":"PL000000015051",
		"name":"合肥",
		"dynasty":"清",
		"long":"117.2854",
		"lat":"31.8633",
		"districtHistorical":"清_安徽",
		"districtModern":"中國-安徽省-合肥市-廬陽區",
		"note":"中華人民共和國安徽省省會，地處長江中下游江淮丘陵地區中部，江淮分水嶺南測，巢湖之濱，淝水穿流而過，素有「淮右襟喉，江南唇齒」之稱。清為江南省廬州府治。（<a target=\"_blank\" href=\"http:\/\/zh.wikipedia.org\/wiki\/%E5%90%88%E8%82%A5\">http:\/\/zh.wikipedia.org\/合肥市<\/a>，2012.03.21）",
		"lang":"中文",
		"shortAuthorityID":"PL15051",
		"names":"[中文] 合淝,廬州,廬陽",
		"pinyin":[]
	},
	{
		"authorityID":"PL000000015052",
		"name":"廬州府",
		"dynasty":"清",
		"long":"117.2854",
		"lat":"31.8633",
		"districtHistorical":"清_安徽",
		"districtModern":"中國-安徽省-合肥市-廬陽區",
		"note":null,
		"lang":"中文",
		"shortAuthorityID":"PL15052",
		"names":"",
		"pinyin":[]
	},
	{
		"authorityID":"PL000000015053",
		"name":"合肥",
		"dynasty":"明",
		"long":"117.2854",
		"lat":"31.8633",
		"districtHistorical":"明_南京",
		"districtModern":"中國-安徽省-合肥市-廬陽區",
		"note":"位於安徽中部，長江淮河之間、巢湖之濱，素有「江南之首，中原之喉」、「淮右襟喉，江南唇齒」之稱。秦漢之交，合肥正式建立「合肥縣」，屬九江郡。明清時為廬州府治，故又別稱為「廬州」。（<a target=\"_blank\" href=\"http:\/\/baike.baidu.com\/view\/7504.htm\">http:\/\/baike.baidu.com\/合肥<\/a>，2012.06.18）",
		"lang":"中文",
		"shortAuthorityID":"PL15053",
		"names":"",
		"pinyin":{
			"合肥":"hé féi"
		}
	},
	{
		"authorityID":"PL000000015054",
		"name":"廬州府",
		"dynasty":"明",
		"long":"117.2854",
		"lat":"31.8633",
		"districtHistorical":"明_南京",
		"districtModern":"中國-安徽省-合肥市-廬陽區",
		"note":null,
		"lang":"中文",
		"shortAuthorityID":"PL15054",
		"names":"",
		"pinyin":[]
	},
	{
		"authorityID":"PL000000015055",
		"name":"合肥",
		"dynasty":"元",
		"long":"117.2854",
		"lat":"31.8633",
		"districtHistorical":"元_河南江北行省",
		"districtModern":"中國-安徽省-合肥市-廬陽區",
		"note":null,
		"lang":"中文",
		"shortAuthorityID":"PL15055",
		"names":"",
		"pinyin":[]
	},
	{
		"authorityID":"PL000000015056",
		"name":"廬州路",
		"dynasty":"元",
		"long":"117.2854",
		"lat":"31.8633",
		"districtHistorical":"元_河南江北行省",
		"districtModern":"中國-安徽省-合肥市-廬陽區",
		"note":null,
		"lang":"中文",
		"shortAuthorityID":"PL15056",
		"names":"",
		"pinyin":[]
	},
	{
		"authorityID":"PL000000015057",
		"name":"合肥",
		"dynasty":"南宋",
		"long":"117.2854",
		"lat":"31.8633",
		"districtHistorical":"南宋_淮南西路",
		"districtModern":"中國-安徽省-合肥市-廬陽區",
		"note":null,
		"lang":"中文",
		"shortAuthorityID":"PL15057",
		"names":"",
		"pinyin":[]
	},
	{
		"authorityID":"PL000000015058",
		"name":"淮南西路",
		"dynasty":"南宋",
		"long":"117.2854",
		"lat":"31.8633",
		"districtHistorical":"",
		"districtModern":"中國-安徽省-合肥市-廬陽區",
		"note":"西路。……。南渡後，府二：安慶、壽春，州六：廬、蘄、和、濠、光、黃，軍四：安豐、鎮巢、懷遠、六安，為淮西路。（淵四．宋史．卷八十八：12；<a target=\"_blank\" href=\"http:\/\/zh.wikipedia.org\/zh-tw\/%E6%B7%AE%E5%8D%97%E8%A5%BF%E8%B7%AF\">http:\/\/zh.wikipedia.org\/zh-tw\/%E6%B7%AE%E5%8D%97%E8%A5%BF%E8%B7%AF<\/a>，2009.12.22）",
		"lang":"中文",
		"shortAuthorityID":"PL15058",
		"names":"",
		"pinyin":[]
	},
	{
		"authorityID":"PL000000015059",
		"name":"廬州",
		"dynasty":"南宋",
		"long":"117.2854",
		"lat":"31.8633",
		"districtHistorical":"南宋_淮南西路",
		"districtModern":"中國-安徽省-合肥市-廬陽區",
		"note":null,
		"lang":"中文",
		"shortAuthorityID":"PL15059",
		"names":"",
		"pinyin":[]
	},
	{
		"authorityID":"PL000000015060",
		"name":"合肥",
		"dynasty":"北宋",
		"long":"117.2854",
		"lat":"31.8633",
		"districtHistorical":"北宋_淮南西路",
		"districtModern":"中國-安徽省-合肥市-廬陽區",
		"note":null,
		"lang":"中文",
		"shortAuthorityID":"PL15060",
		"names":"",
		"pinyin":[]
	},
	{
		"authorityID":"PL000000015061",
		"name":"廬州",
		"dynasty":"北宋",
		"long":"117.2854",
		"lat":"31.8633",
		"districtHistorical":"北宋_淮南西路",
		"districtModern":"中國-安徽省-合肥市-廬陽區",
		"note":"隋置 古廬子國，又巢伯國。春秋時舒國及群舒諸國。隋開皇三年（583），改合州為廬州。宋初，仍沿舊制，廬州仍治合肥縣，改屬淮南道。至道三年（997），改屬淮南路。熙寧五年（1072），分淮南路為東、西兩路，西路治壽州（今壽縣城關鎮），廬州改屬淮南西路。（<a target=\"_blank\" href=\"http:\/\/baike.baidu.com\/view\/740734.htm\">http:\/\/baike.baidu.com\/廬州<\/a>，2012.06.05）",
		"lang":"中文",
		"shortAuthorityID":"PL15061",
		"names":"",
		"pinyin":{
			"廬州":"lú zhōu"
		}
	},
	{
		"authorityID":"PL000000015062",
		"name":"廬州",
		"dynasty":"五代十國",
		"long":"117.2854",
		"lat":"31.8633",
		"districtHistorical":"五代十國_南唐",
		"districtModern":"中國-安徽省-合肥市-廬陽區",
		"note":null,
		"lang":"中文",
		"shortAuthorityID":"PL15062",
		"names":"",
		"pinyin":[]
	},
	{
		"authorityID":"PL000000015063",
		"name":"合肥",
		"dynasty":"唐",
		"long":"117.2854",
		"lat":"31.8633",
		"districtHistorical":"唐_淮南道",
		"districtModern":"中國-安徽省-合肥市-廬陽區",
		"note":null,
		"lang":"中文",
		"shortAuthorityID":"PL15063",
		"names":"",
		"pinyin":[]
	},
	{
		"authorityID":"PL000000015064",
		"name":"廬州",
		"dynasty":"唐",
		"long":"117.2854",
		"lat":"31.8633",
		"districtHistorical":"唐_淮南道",
		"districtModern":"中國-安徽省-合肥市-廬陽區",
		"note":"隋廬江郡 。武德三年，改為廬州，領合肥、廬江、慎三縣。七年，廢巢州為巢縣來屬。天寶元年，改為廬江郡。乾元元年，復為廬州。（<a target=\"_blank\" href=\"http:\/\/zh.wikisource.org\/zh-hant\/%E8%88%8A%E5%94%90%E6%9B%B8\/%E5%8D%B740\">http:\/\/zh.wikisource.org\/zh-hant\/%E8%88%8A%E5%94%90%E6%9B%B8\/%E5%8D%B740<\/a>，2012.05.29）",
		"lang":"中文",
		"shortAuthorityID":"PL15064",
		"names":"[中文] 廬江郡",
		"pinyin":{
			"廬州":"lú zhōu",
			"廬江郡":"lú jiāng jùn"
		}
	},
	{
		"authorityID":"PL000000015065",
		"name":"合肥",
		"dynasty":"隋",
		"long":"117.2854",
		"lat":"31.8633",
		"districtHistorical":"隋_廬江郡",
		"districtModern":"中國-安徽省-合肥市-廬陽區",
		"note":null,
		"lang":"中文",
		"shortAuthorityID":"PL15065",
		"names":"",
		"pinyin":[]
	},
	{
		"authorityID":"PL000000015066",
		"name":"廬江郡",
		"dynasty":"隋",
		"long":"117.2854",
		"lat":"31.8633",
		"districtHistorical":"隋_廬江郡",
		"districtModern":"中國-安徽省-合肥市-廬陽區",
		"note":null,
		"lang":"中文",
		"shortAuthorityID":"PL15066",
		"names":"",
		"pinyin":[]
	},
	{
		"authorityID":"PL000000015067",
		"name":"汝陰",
		"dynasty":"南齊",
		"long":"117.2854",
		"lat":"31.8633",
		"districtHistorical":"南朝 齊_豫州",
		"districtModern":"中國-安徽省-合肥市-廬陽區",
		"note":null,
		"lang":"中文",
		"shortAuthorityID":"PL15067",
		"names":"",
		"pinyin":[]
	},
	{
		"authorityID":"PL000000015068",
		"name":"南汝陰郡",
		"dynasty":"南齊",
		"long":"117.2854",
		"lat":"31.8633",
		"districtHistorical":"南朝 齊_豫州",
		"districtModern":"中國-安徽省-合肥市-廬陽區",
		"note":null,
		"lang":"中文",
		"shortAuthorityID":"PL15068",
		"names":"",
		"pinyin":[]
	},
	{
		"authorityID":"PL000000015069",
		"name":"合肥",
		"dynasty":"東晉",
		"long":"117.2854",
		"lat":"31.8633",
		"districtHistorical":"東晉_揚州",
		"districtModern":"中國-安徽省-合肥市-廬陽區",
		"note":null,
		"lang":"中文",
		"shortAuthorityID":"PL15069",
		"names":"",
		"pinyin":[]
	},
	{
		"authorityID":"PL000000015070",
		"name":"合肥",
		"dynasty":"西晉",
		"long":"117.2854",
		"lat":"31.8633",
		"districtHistorical":"西晉_揚州",
		"districtModern":"中國-安徽省-合肥市-廬陽區",
		"note":null,
		"lang":"中文",
		"shortAuthorityID":"PL15070",
		"names":"",
		"pinyin":[]
	},
	{
		"authorityID":"PL000000015071",
		"name":"合肥舊城",
		"dynasty":"孫吳",
		"long":"117.2854",
		"lat":"31.8633",
		"districtHistorical":"三國 吳_揚州",
		"districtModern":"中國-安徽省-合肥市-廬陽區",
		"note":null,
		"lang":"中文",
		"shortAuthorityID":"PL15071",
		"names":"",
		"pinyin":[]
	},
	{
		"authorityID":"PL000000015072",
		"name":"逍遙津",
		"dynasty":"孫吳",
		"long":"117.2854",
		"lat":"31.8633",
		"districtHistorical":"三國 吳_揚州",
		"districtModern":"中國-安徽省-合肥市-廬陽區",
		"note":null,
		"lang":"中文",
		"shortAuthorityID":"PL15072",
		"names":"",
		"pinyin":{
			"逍遙津":"xiāo yáo jīn"
		}
	},
	{
		"authorityID":"PL000000015073",
		"name":"合肥",
		"dynasty":"東漢",
		"long":"117.2854",
		"lat":"31.8633",
		"districtHistorical":"東漢_揚州刺史部",
		"districtModern":"中國-安徽省-合肥市-廬陽區",
		"note":null,
		"lang":"中文",
		"shortAuthorityID":"PL15073",
		"names":"",
		"pinyin":[]
	},
	{
		"authorityID":"PL000000015074",
		"name":"合肥",
		"dynasty":"西漢",
		"long":"117.2854",
		"lat":"31.8633",
		"districtHistorical":"西漢_揚州刺史部",
		"districtModern":"中國-安徽省-合肥市-廬陽區",
		"note":null,
		"lang":"中文",
		"shortAuthorityID":"PL15074",
		"names":"",
		"pinyin":[]
	},
	{
		"authorityID":"PL000000015075",
		"name":"段寨鎮",
		"dynasty":"北宋",
		"long":"117.1278",
		"lat":"31.9341",
		"districtHistorical":"北宋_淮南西路",
		"districtModern":"中國-安徽省-合肥市-廬陽區",
		"note":null,
		"lang":"中文",
		"shortAuthorityID":"PL15075",
		"names":"",
		"pinyin":[]
	},
	{
		"authorityID":"PL000000015076",
		"name":"合肥",
		"dynasty":"孫吳",
		"long":"117.1232",
		"lat":"31.9239",
		"districtHistorical":"三國 吳_揚州",
		"districtModern":"中國-安徽省-合肥市-廬陽區",
		"note":null,
		"lang":"中文",
		"shortAuthorityID":"PL15076",
		"names":"",
		"pinyin":[]
	},
	{
		"authorityID":"PL000000015077",
		"name":"淮南郡",
		"dynasty":"曹魏",
		"long":"117.1232",
		"lat":"31.9239",
		"districtHistorical":"三國 魏_揚州",
		"districtModern":"中國-安徽省-合肥市-廬陽區",
		"note":null,
		"lang":"中文",
		"shortAuthorityID":"PL15077",
		"names":"",
		"pinyin":[]
	},
	{
		"authorityID":"PL000000015078",
		"name":"史源鎮",
		"dynasty":"北宋",
		"long":"117.049",
		"lat":"32.4571",
		"districtHistorical":"北宋_淮南西路",
		"districtModern":"中國-安徽省-合肥市-長豐縣",
		"note":null,
		"lang":"中文",
		"shortAuthorityID":"PL15078",
		"names":"",
		"pinyin":[]
	},
	{
		"authorityID":"PL000000015079",
		"name":"夏塘鎮",
		"dynasty":"北宋",
		"long":"117.2012",
		"lat":"32.2224",
		"districtHistorical":"北宋_淮南西路",
		"districtModern":"中國-安徽省-合肥市-長豐縣",
		"note":null,
		"lang":"中文",
		"shortAuthorityID":"PL15079",
		"names":"",
		"pinyin":[]
	},
	{
		"authorityID":"PL000000015080",
		"name":"合寨鎮",
		"dynasty":"北宋",
		"long":"117.1247",
		"lat":"32.1397",
		"districtHistorical":"北宋_淮南西路",
		"districtModern":"中國-安徽省-合肥市-長豐縣",
		"note":null,
		"lang":"中文",
		"shortAuthorityID":"PL15080",
		"names":"",
		"pinyin":[]
	},
	{
		"authorityID":"PL000000015081",
		"name":"定林站",
		"dynasty":"元",
		"long":"117.1097",
		"lat":"31.9706",
		"districtHistorical":"元_河南江北行省",
		"districtModern":"中國-安徽省-合肥市-長豐縣",
		"note":null,
		"lang":"中文",
		"shortAuthorityID":"PL15081",
		"names":"",
		"pinyin":[]
	},
	{
		"authorityID":"PL000000015082",
		"name":"北譙",
		"dynasty":"南齊",
		"long":"117.0127",
		"lat":"32.5156",
		"districtHistorical":"南朝 齊_豫州",
		"districtModern":"中國-安徽省-合肥市-長豐縣",
		"note":null,
		"lang":"中文",
		"shortAuthorityID":"PL15082",
		"names":"",
		"pinyin":[]
	},
	{
		"authorityID":"PL000000015083",
		"name":"死虎",
		"dynasty":"南齊",
		"long":"116.9184",
		"lat":"32.4108",
		"districtHistorical":"南朝 齊_豫州",
		"districtModern":"中國-安徽省-合肥市-長豐縣",
		"note":null,
		"lang":"中文",
		"shortAuthorityID":"PL15083",
		"names":"",
		"pinyin":[]
	},
	{
		"authorityID":"PL000000015084",
		"name":"梁郡",
		"dynasty":"東晉",
		"long":"117.777",
		"lat":"32.1148",
		"districtHistorical":"東晉_揚州",
		"districtModern":"中國-安徽省-合肥市-肥東縣",
		"note":null,
		"lang":"中文",
		"shortAuthorityID":"PL15084",
		"names":"",
		"pinyin":{
			"梁郡":"liáng jùn"
		}
	},
	{
		"authorityID":"PL000000015085",
		"name":"謢城鎮",
		"dynasty":"清",
		"long":"117.5777",
		"lat":"32.0596",
		"districtHistorical":"清_安徽",
		"districtModern":"中國-安徽省-合肥市-肥東縣",
		"note":null,
		"lang":"中文",
		"shortAuthorityID":"PL15085",
		"names":"",
		"pinyin":[]
	},
	{
		"authorityID":"PL000000015086",
		"name":"石梁鎮",
		"dynasty":"明",
		"long":"117.8096",
		"lat":"32.0393",
		"districtHistorical":"明_南京",
		"districtModern":"中國-安徽省-合肥市-肥東縣",
		"note":null,
		"lang":"中文",
		"shortAuthorityID":"PL15086",
		"names":"",
		"pinyin":[]
	},
	{
		"authorityID":"PL000000015087",
		"name":"梁縣",
		"dynasty":"元",
		"long":"117.5625",
		"lat":"32.0041",
		"districtHistorical":"元_河南江北行省",
		"districtModern":"中國-安徽省-合肥市-肥東縣",
		"note":null,
		"lang":"中文",
		"shortAuthorityID":"PL15087",
		"names":"",
		"pinyin":[]
	},
	{
		"authorityID":"PL000000015088",
		"name":"梁縣",
		"dynasty":"南宋",
		"long":"117.5626",
		"lat":"32.0016",
		"districtHistorical":"南宋_淮南西路",
		"districtModern":"中國-安徽省-合肥市-肥東縣",
		"note":null,
		"lang":"中文",
		"shortAuthorityID":"PL15088",
		"names":"",
		"pinyin":[]
	},
	{
		"authorityID":"PL000000015089",
		"name":"慎縣",
		"dynasty":"北宋",
		"long":"117.5574",
		"lat":"31.9974",
		"districtHistorical":"北宋_淮南西路",
		"districtModern":"中國-安徽省-合肥市-肥東縣",
		"note":null,
		"lang":"中文",
		"shortAuthorityID":"PL15089",
		"names":"",
		"pinyin":[]
	},
	{
		"authorityID":"PL000000015090",
		"name":"慎縣",
		"dynasty":"南齊",
		"long":"117.5615",
		"lat":"31.9972",
		"districtHistorical":"南朝 齊_豫州",
		"districtModern":"中國-安徽省-合肥市-肥東縣",
		"note":null,
		"lang":"中文",
		"shortAuthorityID":"PL15090",
		"names":"",
		"pinyin":[]
	},
	{
		"authorityID":"PL000000015091",
		"name":"梁園",
		"dynasty":"清",
		"long":"117.5599",
		"lat":"31.9966",
		"districtHistorical":"清_安徽",
		"districtModern":"中國-安徽省-合肥市-肥東縣",
		"note":null,
		"lang":"中文",
		"shortAuthorityID":"PL15091",
		"names":"",
		"pinyin":{
			"梁園":"liáng yuán"
		}
	},
	{
		"authorityID":"PL000000015092",
		"name":"慎縣",
		"dynasty":"隋",
		"long":"117.5535",
		"lat":"31.9959",
		"districtHistorical":"隋_廬江郡",
		"districtModern":"中國-安徽省-合肥市-肥東縣",
		"note":null,
		"lang":"中文",
		"shortAuthorityID":"PL15092",
		"names":"",
		"pinyin":[]
	},
	{
		"authorityID":"PL000000015093",
		"name":"慎縣",
		"dynasty":"唐",
		"long":"117.5462",
		"lat":"31.9898",
		"districtHistorical":"唐_淮南道",
		"districtModern":"中國-安徽省-合肥市-肥東縣",
		"note":"漢逡遒縣，屬九江郡。古城在今縣南。隋為慎縣。（<a target=\"_blank\" href=\"http:\/\/zh.wikisource.org\/zh-hant\/%E8%88%8A%E5%94%90%E6%9B%B8\/%E5%8D%B740\">http:\/\/zh.wikisource.org\/zh-hant\/%E8%88%8A%E5%94%90%E6%9B%B8\/%E5%8D%B740<\/a>，2012.05.30）",
		"lang":"中文",
		"shortAuthorityID":"PL15093",
		"names":"",
		"pinyin":{
			"慎縣":"shèn xiàn"
		}
	},
	{
		"authorityID":"PL000000015094",
		"name":"永安鎮",
		"dynasty":"北宋",
		"long":"117.4697",
		"lat":"31.9621",
		"districtHistorical":"北宋_淮南西路",
		"districtModern":"中國-安徽省-合肥市-肥東縣",
		"note":null,
		"lang":"中文",
		"shortAuthorityID":"PL15094",
		"names":"",
		"pinyin":[]
	},
	{
		"authorityID":"PL000000015095",
		"name":"浚遒",
		"dynasty":"東漢",
		"long":"117.5635",
		"lat":"31.9035",
		"districtHistorical":"東漢_揚州刺史部",
		"districtModern":"中國-安徽省-合肥市-肥東縣",
		"note":null,
		"lang":"中文",
		"shortAuthorityID":"PL15095",
		"names":"",
		"pinyin":[]
	},
	{
		"authorityID":"PL000000015096",
		"name":"浚遒",
		"dynasty":"西漢",
		"long":"117.5635",
		"lat":"31.9035",
		"districtHistorical":"西漢_揚州刺史部",
		"districtModern":"中國-安徽省-合肥市-肥東縣",
		"note":null,
		"lang":"中文",
		"shortAuthorityID":"PL15096",
		"names":"",
		"pinyin":[]
	},
	{
		"authorityID":"PL000000015097",
		"name":"浚迺道",
		"dynasty":"孫吳",
		"long":"117.5803",
		"lat":"31.8886",
		"districtHistorical":"三國 吳_揚州",
		"districtModern":"中國-安徽省-合肥市-肥東縣",
		"note":null,
		"lang":"中文",
		"shortAuthorityID":"PL15097",
		"names":"",
		"pinyin":[]
	},
	{
		"authorityID":"PL000000015098",
		"name":"店埠鎮",
		"dynasty":"清",
		"long":"117.4803",
		"lat":"31.8866",
		"districtHistorical":"清_安徽",
		"districtModern":"中國-安徽省-合肥市-肥東縣",
		"note":null,
		"lang":"中文",
		"shortAuthorityID":"PL15098",
		"names":"",
		"pinyin":[]
	},
	{
		"authorityID":"PL000000015099",
		"name":"浚遒",
		"dynasty":"西晉",
		"long":"117.5567",
		"lat":"31.8839",
		"districtHistorical":"西晉_揚州",
		"districtModern":"中國-安徽省-合肥市-肥東縣",
		"note":null,
		"lang":"中文",
		"shortAuthorityID":"PL15099",
		"names":"",
		"pinyin":[]
	},
	{
		"authorityID":"PL000000015100",
		"name":"大興集",
		"dynasty":"清",
		"long":"117.3855",
		"lat":"31.8462",
		"districtHistorical":"清_安徽",
		"districtModern":"中國-安徽省-合肥市-肥東縣",
		"note":null,
		"lang":"中文",
		"shortAuthorityID":"PL15100",
		"names":"",
		"pinyin":[]
	},
	{
		"authorityID":"PL000000015101",
		"name":"撮城鎮",
		"dynasty":"清",
		"long":"117.4839",
		"lat":"31.8268",
		"districtHistorical":"清_安徽",
		"districtModern":"中國-安徽省-合肥市-肥東縣",
		"note":null,
		"lang":"中文",
		"shortAuthorityID":"PL15101",
		"names":"",
		"pinyin":[]
	},
	{
		"authorityID":"PL000000015102",
		"name":"青陽鎮",
		"dynasty":"北宋",
		"long":"117.5499",
		"lat":"31.7156",
		"districtHistorical":"北宋_淮南西路",
		"districtModern":"中國-安徽省-合肥市-肥東縣",
		"note":null,
		"lang":"中文",
		"shortAuthorityID":"PL15102",
		"names":"",
		"pinyin":[]
	},
	{
		"authorityID":"PL000000015103",
		"name":"越家坊",
		"dynasty":"南宋",
		"long":"117.6823",
		"lat":"32.22",
		"districtHistorical":"南宋_淮南西路",
		"districtModern":"中國-安徽省-合肥市-肥東縣",
		"note":null,
		"lang":"中文",
		"shortAuthorityID":"PL15103",
		"names":"",
		"pinyin":[]
	},
	{
		"authorityID":"PL000000015104",
		"name":"園鎮",
		"dynasty":"清",
		"long":"117.3984",
		"lat":"32.0846",
		"districtHistorical":"清_安徽",
		"districtModern":"中國-安徽省-合肥市-肥東縣",
		"note":null,
		"lang":"中文",
		"shortAuthorityID":"PL15104",
		"names":"",
		"pinyin":[]
	},
	{
		"authorityID":"PL000000015105",
		"name":"長城鎮",
		"dynasty":"清",
		"long":"116.891",
		"lat":"31.857",
		"districtHistorical":"清_安徽",
		"districtModern":"中國-安徽省-合肥市-肥西縣",
		"note":null,
		"lang":"中文",
		"shortAuthorityID":"PL15105",
		"names":"",
		"pinyin":[]
	},
	{
		"authorityID":"PL000000015106",
		"name":"蒙縣",
		"dynasty":"南齊",
		"long":"116.7969",
		"lat":"31.7987",
		"districtHistorical":"南朝 齊_豫州",
		"districtModern":"中國-安徽省-合肥市-肥西縣",
		"note":null,
		"lang":"中文",
		"shortAuthorityID":"PL15106",
		"names":"",
		"pinyin":[]
	},
	{
		"authorityID":"PL000000015107",
		"name":"官亭",
		"dynasty":"清",
		"long":"116.8724",
		"lat":"31.7969",
		"districtHistorical":"清_安徽",
		"districtModern":"中國-安徽省-合肥市-肥西縣",
		"note":null,
		"lang":"中文",
		"shortAuthorityID":"PL15107",
		"names":"",
		"pinyin":{
			"官亭":"guān tíng"
		}
	},
	{
		"authorityID":"PL000000015108",
		"name":"二十里鋪",
		"dynasty":"清",
		"long":"117.2259",
		"lat":"31.7792",
		"districtHistorical":"清_安徽",
		"districtModern":"中國-安徽省-合肥市-肥西縣",
		"note":null,
		"lang":"中文",
		"shortAuthorityID":"PL15108",
		"names":"",
		"pinyin":[]
	},
	{
		"authorityID":"PL000000015109",
		"name":"上派河",
		"dynasty":"清",
		"long":"117.1667",
		"lat":"31.7158",
		"districtHistorical":"清_安徽",
		"districtModern":"中國-安徽省-合肥市-肥西縣",
		"note":null,
		"lang":"中文",
		"shortAuthorityID":"PL15109",
		"names":"",
		"pinyin":[]
	},
	{
		"authorityID":"PL000000015110",
		"name":"山南鎮",
		"dynasty":"北宋",
		"long":"116.8812",
		"lat":"31.6386",
		"districtHistorical":"北宋_淮南西路",
		"districtModern":"中國-安徽省-合肥市-肥西縣",
		"note":null,
		"lang":"中文",
		"shortAuthorityID":"PL15110",
		"names":"",
		"pinyin":[]
	},
	{
		"authorityID":"PL000000015111",
		"name":"桃城鎮",
		"dynasty":"南宋",
		"long":"116.9862",
		"lat":"31.576",
		"districtHistorical":"南宋_淮南西路",
		"districtModern":"中國-安徽省-合肥市-肥西縣",
		"note":null,
		"lang":"中文",
		"shortAuthorityID":"PL15111",
		"names":"",
		"pinyin":[]
	},
	{
		"authorityID":"PL000000015112",
		"name":"桃城鎮",
		"dynasty":"北宋",
		"long":"116.9862",
		"lat":"31.576",
		"districtHistorical":"北宋_淮南西路",
		"districtModern":"中國-安徽省-合肥市-肥西縣",
		"note":null,
		"lang":"中文",
		"shortAuthorityID":"PL15112",
		"names":"",
		"pinyin":[]
	},
	{
		"authorityID":"PL000000015113",
		"name":"新倉",
		"dynasty":"清",
		"long":"117.0998",
		"lat":"31.5627",
		"districtHistorical":"清_安徽",
		"districtModern":"中國-安徽省-合肥市-肥西縣",
		"note":null,
		"lang":"中文",
		"shortAuthorityID":"PL15113",
		"names":"",
		"pinyin":[]
	},
	{
		"authorityID":"PL000000015114",
		"name":"新倉鎮",
		"dynasty":"北宋",
		"long":"117.098",
		"lat":"31.5627",
		"districtHistorical":"北宋_淮南西路",
		"districtModern":"中國-安徽省-合肥市-肥西縣",
		"note":null,
		"lang":"中文",
		"shortAuthorityID":"PL15114",
		"names":"",
		"pinyin":[]
	},
	{
		"authorityID":"PL000000015115",
		"mergeTo":"PL000000015129",
		"names":"",
		"pinyin":[]
	},
	{
		"authorityID":"PL000000015116",
		"name":"興國",
		"dynasty":"沒有給定朝代",
		"long":"118.372458",
		"lat":"31.334163",
		"districtHistorical":null,
		"districtModern":"中國-安徽省-蕪湖市-鏡湖區",
		"note":"（明清序：294）",
		"lang":"中文",
		"shortAuthorityID":"PL15116",
		"names":"",
		"pinyin":[]
	},
	{
		"authorityID":"PL000000015117",
		"name":"吉祥寺",
		"dynasty":"晉",
		"long":"118.355204",
		"lat":"31.332142",
		"districtHistorical":null,
		"districtModern":"中國-安徽省-蕪湖市-鏡湖區",
		"note":"在蕪湖縣西五里，舊名永壽。晉元和二年建。（唐寺考：219；<a target=\"_blank\" href=\" http:\/\/chgis.hmdc.harvard.edu\/search_details_1.php?ptid=relig_200\"> http:\/\/chgis.hmdc.harvard.edu\/search_details_1.php?ptid=relig_200<\/a>，2009.06.22；淵四．大清一統志．卷八十四：22；四部續．嘉慶一統志．太平府二：4）",
		"lang":"中文",
		"shortAuthorityID":"PL15117",
		"names":"[中文] 永壽寺",
		"pinyin":{
			"吉祥寺":"jí xiáng sì",
			"永壽寺":"yǒng shòu sì"
		}
	},
	{
		"authorityID":"PL000000015118",
		"name":"蕪湖",
		"dynasty":"清",
		"long":"118.3715",
		"lat":"31.3338",
		"districtHistorical":"清_安徽",
		"districtModern":"中國-安徽省-蕪湖市-鏡湖區",
		"note":"",
		"lang":"中文",
		"shortAuthorityID":"PL15118",
		"names":"",
		"pinyin":[]
	},
	{
		"authorityID":"PL000000015119",
		"name":"蕪湖",
		"dynasty":"明",
		"long":"118.3715",
		"lat":"31.3338",
		"districtHistorical":"明_南京",
		"districtModern":"中國-安徽省-蕪湖市-鏡湖區",
		"note":"位於安徽省東南部，青弋江與長江匯合處。明代，蕪湖重築城垣，萬曆九年（1581）建成，其規模甚小，周圍739丈，略呈梯形。但是，由於工商業繁盛，街市遠遠超出城牆範圍，沿青弋江兩岸向西延伸，直到長江。「自魚市口至江口寶塔根，號稱十里長街」。（<a target=\"_blank\" href=\"http:\/\/zh.wikipedia.org\/wiki\/%E8%95%AA%E6%B9%96\">http:\/\/zh.wikipedia.org\/蕪湖市<\/a>，2012.03.30）",
		"lang":"中文",
		"shortAuthorityID":"PL15119",
		"names":"",
		"pinyin":[]
	},
	{
		"authorityID":"PL000000015120",
		"name":"蕪湖",
		"dynasty":"元",
		"long":"118.3715",
		"lat":"31.3338",
		"districtHistorical":"元_江浙行省",
		"districtModern":"中國-安徽省-蕪湖市-鏡湖區",
		"note":null,
		"lang":"中文",
		"shortAuthorityID":"PL15120",
		"names":"",
		"pinyin":[]
	},
	{
		"authorityID":"PL000000015121",
		"name":"蕪湖",
		"dynasty":"南宋",
		"long":"118.3715",
		"lat":"31.3338",
		"districtHistorical":"南宋_江南東路",
		"districtModern":"中國-安徽省-蕪湖市-鏡湖區",
		"note":null,
		"lang":"中文",
		"shortAuthorityID":"PL15121",
		"names":"",
		"pinyin":[]
	},
	{
		"authorityID":"PL000000015122",
		"name":"蕪湖",
		"dynasty":"北宋",
		"long":"118.3715",
		"lat":"31.3338",
		"districtHistorical":"北宋_江南東路",
		"districtModern":"中國-安徽省-蕪湖市-鏡湖區",
		"note":null,
		"lang":"中文",
		"shortAuthorityID":"PL15122",
		"names":"",
		"pinyin":[]
	},
	{
		"authorityID":"PL000000015123",
		"name":"蕪湖",
		"dynasty":"唐",
		"long":"118.3715",
		"lat":"31.3338",
		"districtHistorical":"唐_江南西道",
		"districtModern":"中國-安徽省-蕪湖市-鏡湖區",
		"note":null,
		"lang":"中文",
		"shortAuthorityID":"PL15123",
		"names":"",
		"pinyin":[]
	},
	{
		"authorityID":"PL000000015124",
		"name":"襄垣",
		"dynasty":"南齊",
		"long":"118.3715",
		"lat":"31.3338",
		"districtHistorical":"南朝 齊_南豫州",
		"districtModern":"中國-安徽省-蕪湖市-鏡湖區",
		"note":null,
		"lang":"中文",
		"shortAuthorityID":"PL15124",
		"names":"",
		"pinyin":{
			"襄垣":"xiāng yuán"
		}
	},
	{
		"authorityID":"PL000000015125",
		"name":"蕪湖",
		"dynasty":"東晉",
		"long":"118.3715",
		"lat":"31.3338",
		"districtHistorical":"東晉_揚州",
		"districtModern":"中國-安徽省-蕪湖市-鏡湖區",
		"note":null,
		"lang":"中文",
		"shortAuthorityID":"PL15125",
		"names":"",
		"pinyin":[]
	},
	{
		"authorityID":"PL000000015126",
		"name":"蕪湖",
		"dynasty":"西晉",
		"long":"118.3715",
		"lat":"31.3338",
		"districtHistorical":"西晉_揚州",
		"districtModern":"中國-安徽省-蕪湖市-鏡湖區",
		"note":null,
		"lang":"中文",
		"shortAuthorityID":"PL15126",
		"names":"",
		"pinyin":[]
	},
	{
		"authorityID":"PL000000015127",
		"name":"蕪湖",
		"dynasty":"孫吳",
		"long":"118.3715",
		"lat":"31.3338",
		"districtHistorical":"三國 吳_揚州",
		"districtModern":"中國-安徽省-蕪湖市-鏡湖區",
		"note":null,
		"lang":"中文",
		"shortAuthorityID":"PL15127",
		"names":"",
		"pinyin":[]
	},
	{
		"authorityID":"PL000000015128",
		"name":"河口鎮",
		"dynasty":"明",
		"long":"118.3709",
		"lat":"31.3655",
		"districtHistorical":"明_南京",
		"districtModern":"中國-安徽省-蕪湖市-鏡湖區",
		"note":null,
		"lang":"中文",
		"shortAuthorityID":"PL15128",
		"names":"",
		"pinyin":[]
	},
	{
		"authorityID":"PL000000015129",
		"name":"梁山",
		"dynasty":"沒有給定朝代",
		"long":"118.363",
		"lat":"31.498",
		"districtHistorical":"",
		"districtModern":"中國-安徽省-蕪湖市-鳩江區",
		"note":"（一）位於和縣境內的西梁山和當涂縣境內的東梁山合稱為「梁山」，或稱為「天門山」。（<a target=\"_blank\" href=\"http:\/\/baike.baidu.com\/view\/31703.htm\">http:\/\/baike.baidu.com\/view\/31703.htm<\/a>，2010.02.12）\r\n（二）（大明七年十一月）戊子幸梁山。詔為山下征元兇軍士戰死者舉哀，加賞賜三世後除。癸巳，登梁山大閲水軍於中江，二白雀集于華葢。十二月，立雙闕於梁山。（歷地史：2456；淵四．建康實錄．卷13：19）",
		"lang":"中文",
		"shortAuthorityID":"PL15129",
		"names":"[中文] 天門山",
		"pinyin":{
			"梁山":"liáng shān",
			"天門山":"tiān mén shān"
		}
	},
	{
		"authorityID":"PL000000015130",
		"name":"裕溪鎮",
		"dynasty":"清",
		"long":"118.3118",
		"lat":"31.4376",
		"districtHistorical":"清_安徽",
		"districtModern":"中國-安徽省-蕪湖市-鳩江區",
		"note":null,
		"lang":"中文",
		"shortAuthorityID":"PL15130",
		"names":"",
		"pinyin":[]
	},
	{
		"authorityID":"PL000000015131",
		"name":"碣石磯",
		"dynasty":"北宋",
		"long":"118.3681",
		"lat":"31.449",
		"districtHistorical":"北宋_江南東路",
		"districtModern":"中國-安徽省-蕪湖市-鳩江區",
		"note":null,
		"lang":"中文",
		"shortAuthorityID":"PL15131",
		"names":"",
		"pinyin":[]
	},
	{
		"authorityID":"PL000000015132",
		"name":"蕪湖",
		"dynasty":"民國",
		"long":"118.5768",
		"lat":"31.134578",
		"districtHistorical":null,
		"districtModern":"中國-安徽省-蕪湖市-蕪湖縣",
		"note":"民國元年，政府宣佈廢府存縣，蕪湖縣直屬安徽省。（<a target=\"_blank\" href=\"http:\/\/zh.wikipedia.org\/wiki\/蕪湖市\">http:\/\/zh.wikipedia.org\/wiki\/蕪湖市<\/a>，2009.05.27）",
		"lang":"中文",
		"shortAuthorityID":"PL15132",
		"names":"",
		"pinyin":[]
	},
	{
		"authorityID":"PL000000015133",
		"name":"福嚴",
		"dynasty":null,
		"long":"118.589616",
		"lat":"31.133624",
		"districtHistorical":null,
		"districtModern":"中國-安徽省-蕪湖市-蕪湖縣",
		"note":"（明清序：225）",
		"lang":"中文",
		"shortAuthorityID":"PL15133",
		"names":"",
		"pinyin":[]
	},
	{
		"authorityID":"PL000000015134",
		"name":"都農校尉",
		"dynasty":"孫吳",
		"long":"118.5255",
		"lat":"31.3427",
		"districtHistorical":"三國 吳_揚州",
		"districtModern":"中國-安徽省-蕪湖市-蕪湖縣",
		"note":null,
		"lang":"中文",
		"shortAuthorityID":"PL15134",
		"names":"",
		"pinyin":[]
	},
	{
		"authorityID":"PL000000015135",
		"name":"蕪湖",
		"dynasty":"東漢",
		"long":"118.5294",
		"lat":"31.3296",
		"districtHistorical":"東漢_揚州刺史部",
		"districtModern":"中國-安徽省-蕪湖市-蕪湖縣",
		"note":null,
		"lang":"中文",
		"shortAuthorityID":"PL15135",
		"names":"",
		"pinyin":[]
	},
	{
		"authorityID":"PL000000015136",
		"name":"蕪湖",
		"dynasty":"西漢",
		"long":"118.5294",
		"lat":"31.3296",
		"districtHistorical":"西漢_揚州刺史部",
		"districtModern":"中國-安徽省-蕪湖市-蕪湖縣",
		"note":null,
		"lang":"中文",
		"shortAuthorityID":"PL15136",
		"names":"",
		"pinyin":[]
	},
	{
		"authorityID":"PL000000015137",
		"name":"魯港鎮",
		"dynasty":"明",
		"long":"118.3617",
		"lat":"31.2762",
		"districtHistorical":"明_南京",
		"districtModern":"中國-安徽省-蕪湖市-蕪湖縣",
		"note":null,
		"lang":"中文",
		"shortAuthorityID":"PL15137",
		"names":"",
		"pinyin":[]
	},
	{
		"authorityID":"PL000000015138",
		"name":"魚港站",
		"dynasty":"元",
		"long":"118.3617",
		"lat":"31.2762",
		"districtHistorical":"元_江浙行省",
		"districtModern":"中國-安徽省-蕪湖市-蕪湖縣",
		"note":null,
		"lang":"中文",
		"shortAuthorityID":"PL15138",
		"names":"",
		"pinyin":[]
	},
	{
		"authorityID":"PL000000015139",
		"name":"魯港",
		"dynasty":"清",
		"long":"118.377",
		"lat":"31.2753",
		"districtHistorical":"清_安徽",
		"districtModern":"中國-安徽省-蕪湖市-蕪湖縣",
		"note":null,
		"lang":"中文",
		"shortAuthorityID":"PL15139",
		"names":"",
		"pinyin":[]
	},
	{
		"authorityID":"PL000000015140",
		"name":"魯港",
		"dynasty":"南宋",
		"long":"118.3707",
		"lat":"31.2711",
		"districtHistorical":"南宋_江南東路",
		"districtModern":"中國-安徽省-蕪湖市-蕪湖縣",
		"note":null,
		"lang":"中文",
		"shortAuthorityID":"PL15140",
		"names":"",
		"pinyin":[]
	},
	{
		"authorityID":"PL000000015141",
		"name":"石硊市",
		"dynasty":"清",
		"long":"118.3845",
		"lat":"31.1974",
		"districtHistorical":"清_安徽",
		"districtModern":"中國-安徽省-蕪湖市-蕪湖縣",
		"note":null,
		"lang":"中文",
		"shortAuthorityID":"PL15141",
		"names":"",
		"pinyin":[]
	},
	{
		"authorityID":"PL000000015142",
		"name":"西河",
		"dynasty":"清",
		"long":"118.492",
		"lat":"31.0041",
		"districtHistorical":"清_安徽",
		"districtModern":"中國-安徽省-蕪湖市-蕪湖縣",
		"note":null,
		"lang":"中文",
		"shortAuthorityID":"PL15142",
		"names":"",
		"pinyin":{
			"西河":"xī hé"
		}
	},
	{
		"authorityID":"PL000000015143",
		"name":"符里窯鎮",
		"dynasty":"北宋",
		"long":"118.6796",
		"lat":"31.1853",
		"districtHistorical":"北宋_江南東路",
		"districtModern":"中國-安徽省-蕪湖市-蕪湖縣",
		"note":"",
		"lang":"中文",
		"shortAuthorityID":"PL15143",
		"names":"",
		"pinyin":[]
	},
	{
		"authorityID":"PL000000015144",
		"name":"八峰山",
		"dynasty":null,
		"long":"118.203498",
		"lat":"31.053999",
		"districtHistorical":null,
		"districtModern":"中國-安徽省-蕪湖市-繁昌縣",
		"note":"山下有廣善寺。（明清序：295）",
		"lang":"中文",
		"shortAuthorityID":"PL15144",
		"names":"",
		"pinyin":{
			"八峰山":"bā fēng shān"
		}
	},
	{
		"authorityID":"PL000000015145",
		"name":"龍泉寺",
		"dynasty":"唐",
		"long":"118.13378",
		"lat":"31.028795",
		"districtHistorical":null,
		"districtModern":"中國-安徽省-蕪湖市-繁昌縣",
		"note":"在繁昌縣西南二十里，清隱山。宋乾符間建。（唐寺考：220；<a target=\"_blank\" href=\" http:\/\/chgis.hmdc.harvard.edu\/search_details_1.php?ptid=relig_1213\"> http:\/\/chgis.hmdc.harvard.edu\/search_details_1.php?ptid=relig_1213<\/a>，2009.06.22；淵四．大清一統志．卷八十四：22；四部續．嘉慶一統志．太平府二：4）",
		"lang":"中文",
		"shortAuthorityID":"PL15145",
		"names":"",
		"pinyin":{
			"龍泉寺":"lóng quán sì"
		}
	},
	{
		"authorityID":"PL000000015146",
		"name":"隱靜寺",
		"dynasty":"沒有給定朝代",
		"long":"118.328722",
		"lat":"31.013438",
		"districtHistorical":null,
		"districtModern":"中國-安徽省-蕪湖市-繁昌縣",
		"note":"（唐寺考：222）",
		"lang":"中文",
		"shortAuthorityID":"PL15146",
		"names":"",
		"pinyin":[]
	},
	{
		"authorityID":"PL000000015147",
		"name":"廣善寺",
		"dynasty":"沒有給定朝代",
		"long":"118.200272",
		"lat":"31.036254",
		"districtHistorical":null,
		"districtModern":"中國-安徽省-蕪湖市-繁昌縣",
		"note":"（明清序：204）",
		"lang":"中文",
		"shortAuthorityID":"PL15147",
		"names":"",
		"pinyin":[]
	},
	{
		"authorityID":"PL000000015148",
		"name":"三山",
		"dynasty":"清",
		"long":"118.2453",
		"lat":"31.231",
		"districtHistorical":"清_安徽",
		"districtModern":"中國-安徽省-蕪湖市-繁昌縣",
		"note":null,
		"lang":"中文",
		"shortAuthorityID":"PL15148",
		"names":"",
		"pinyin":{
			"三山":"sān shān"
		}
	},
	{
		"authorityID":"PL000000015149",
		"name":"三山磯",
		"dynasty":"南宋",
		"long":"118.2576",
		"lat":"31.228",
		"districtHistorical":"南宋_江南東路",
		"districtModern":"中國-安徽省-蕪湖市-繁昌縣",
		"note":null,
		"lang":"中文",
		"shortAuthorityID":"PL15149",
		"names":"",
		"pinyin":{
			"三山磯":"sān shān jī"
		}
	},
	{
		"authorityID":"PL000000015150",
		"name":"三山",
		"dynasty":"明",
		"long":"118.2159",
		"lat":"31.2189",
		"districtHistorical":"明_南京",
		"districtModern":"中國-安徽省-蕪湖市-繁昌縣",
		"note":null,
		"lang":"中文",
		"shortAuthorityID":"PL15150",
		"names":"",
		"pinyin":{
			"三山":"sān shān"
		}
	},
	{
		"authorityID":"PL000000015151",
		"name":"繁昌",
		"dynasty":"元",
		"long":"118.1022",
		"lat":"31.1965",
		"districtHistorical":"元_江浙行省",
		"districtModern":"中國-安徽省-蕪湖市-繁昌縣",
		"note":null,
		"lang":"中文",
		"shortAuthorityID":"PL15151",
		"names":"",
		"pinyin":[]
	},
	{
		"authorityID":"PL000000015152",
		"name":"繁昌",
		"dynasty":"南宋",
		"long":"118.0992",
		"lat":"31.1914",
		"districtHistorical":"南宋_江南東路",
		"districtModern":"中國-安徽省-蕪湖市-繁昌縣",
		"note":null,
		"lang":"中文",
		"shortAuthorityID":"PL15152",
		"names":"",
		"pinyin":[]
	},
	{
		"authorityID":"PL000000015153",
		"name":"繁昌",
		"dynasty":"北宋",
		"long":"118.0992",
		"lat":"31.1914",
		"districtHistorical":"北宋_江南東路",
		"districtModern":"中國-安徽省-蕪湖市-繁昌縣",
		"note":null,
		"lang":"中文",
		"shortAuthorityID":"PL15153",
		"names":"",
		"pinyin":[]
	},
	{
		"authorityID":"PL000000015154",
		"name":"下峨橋鎮",
		"dynasty":"北宋",
		"long":"118.2827",
		"lat":"31.1753",
		"districtHistorical":"北宋_江南東路",
		"districtModern":"中國-安徽省-蕪湖市-繁昌縣",
		"note":null,
		"lang":"中文",
		"shortAuthorityID":"PL15154",
		"names":"",
		"pinyin":[]
	},
	{
		"authorityID":"PL000000015155",
		"name":"濡須口",
		"dynasty":"孫吳",
		"long":"118.0654",
		"lat":"31.1668",
		"districtHistorical":"三國 吳_揚州",
		"districtModern":"中國-安徽省-蕪湖市-繁昌縣",
		"note":null,
		"lang":"中文",
		"shortAuthorityID":"PL15155",
		"names":"",
		"pinyin":[]
	},
	{
		"authorityID":"PL000000015156",
		"name":"赭圻城",
		"dynasty":"唐",
		"long":"118.039",
		"lat":"31.1657",
		"districtHistorical":"唐_江南西道",
		"districtModern":"中國-安徽省-蕪湖市-繁昌縣",
		"note":null,
		"lang":"中文",
		"shortAuthorityID":"PL15156",
		"names":"",
		"pinyin":[]
	},
	{
		"authorityID":"PL000000015157",
		"name":"荻港",
		"dynasty":"南宋",
		"long":"118.0305",
		"lat":"31.1152",
		"districtHistorical":"南宋_江南東路",
		"districtModern":"中國-安徽省-蕪湖市-繁昌縣",
		"note":null,
		"lang":"中文",
		"shortAuthorityID":"PL15157",
		"names":"",
		"pinyin":[]
	},
	{
		"authorityID":"PL000000015158",
		"name":"荻港鎮",
		"dynasty":"北宋",
		"long":"118.0305",
		"lat":"31.1152",
		"districtHistorical":"北宋_江南東路",
		"districtModern":"中國-安徽省-蕪湖市-繁昌縣",
		"note":null,
		"lang":"中文",
		"shortAuthorityID":"PL15158",
		"names":"",
		"pinyin":[]
	},
	{
		"authorityID":"PL000000015159",
		"name":"荻港",
		"dynasty":"明",
		"long":"118.031",
		"lat":"31.1149",
		"districtHistorical":"明_南京",
		"districtModern":"中國-安徽省-蕪湖市-繁昌縣",
		"note":null,
		"lang":"中文",
		"shortAuthorityID":"PL15159",
		"names":"",
		"pinyin":[]
	},
	{
		"authorityID":"PL000000015160",
		"name":"荻港站",
		"dynasty":"元",
		"long":"118.031",
		"lat":"31.1149",
		"districtHistorical":"元_江浙行省",
		"districtModern":"中國-安徽省-蕪湖市-繁昌縣",
		"note":null,
		"lang":"中文",
		"shortAuthorityID":"PL15160",
		"names":"",
		"pinyin":[]
	},
	{
		"authorityID":"PL000000015161",
		"name":"繁昌",
		"dynasty":"南齊",
		"long":"118.2327",
		"lat":"31.1095",
		"districtHistorical":"南朝 齊_南豫州",
		"districtModern":"中國-安徽省-蕪湖市-繁昌縣",
		"note":null,
		"lang":"中文",
		"shortAuthorityID":"PL15161",
		"names":"",
		"pinyin":[]
	},
	{
		"authorityID":"PL000000015162",
		"name":"襄城郡",
		"dynasty":"東晉",
		"long":"118.2418",
		"lat":"31.096",
		"districtHistorical":"東晉_揚州",
		"districtModern":"中國-安徽省-蕪湖市-繁昌縣",
		"note":null,
		"lang":"中文",
		"shortAuthorityID":"PL15162",
		"names":"",
		"pinyin":{
			"襄城郡":"xiāng chéng jùn"
		}
	},
	{
		"authorityID":"PL000000015163",
		"name":"繁昌",
		"dynasty":"清",
		"long":"118.2032",
		"lat":"31.0894",
		"districtHistorical":"清_安徽",
		"districtModern":"中國-安徽省-蕪湖市-繁昌縣",
		"note":null,
		"lang":"中文",
		"shortAuthorityID":"PL15163",
		"names":"",
		"pinyin":[]
	},
	{
		"authorityID":"PL000000015164",
		"name":"繁昌",
		"dynasty":"明",
		"long":"118.2032",
		"lat":"31.0894",
		"districtHistorical":"明_南京",
		"districtModern":"中國-安徽省-蕪湖市-繁昌縣",
		"note":null,
		"lang":"中文",
		"shortAuthorityID":"PL15164",
		"names":"",
		"pinyin":[]
	},
	{
		"authorityID":"PL000000015165",
		"name":"上峨橋鎮",
		"dynasty":"北宋",
		"long":"118.2044",
		"lat":"31.0751",
		"districtHistorical":"北宋_江南東路",
		"districtModern":"中國-安徽省-蕪湖市-繁昌縣",
		"note":null,
		"lang":"中文",
		"shortAuthorityID":"PL15165",
		"names":"",
		"pinyin":[]
	},
	{
		"authorityID":"PL000000015166",
		"name":"黃滸鎮",
		"dynasty":"清",
		"long":"118.0805",
		"lat":"31.0374",
		"districtHistorical":"清_安徽",
		"districtModern":"中國-安徽省-蕪湖市-繁昌縣",
		"note":null,
		"lang":"中文",
		"shortAuthorityID":"PL15166",
		"names":"",
		"pinyin":[]
	},
	{
		"authorityID":"PL000000015167",
		"name":"黃火鎮",
		"dynasty":"北宋",
		"long":"118.0829",
		"lat":"31.029",
		"districtHistorical":"北宋_江南東路",
		"districtModern":"中國-安徽省-蕪湖市-繁昌縣",
		"note":null,
		"lang":"中文",
		"shortAuthorityID":"PL15167",
		"names":"",
		"pinyin":[]
	},
	{
		"authorityID":"PL000000015168",
		"name":"春穀",
		"dynasty":"沒有給定朝代",
		"long":"118.1509",
		"lat":"31.2103",
		"districtHistorical":"",
		"districtModern":"中國-安徽省-蕪湖市-繁昌縣",
		"note":"",
		"lang":"中文",
		"shortAuthorityID":"PL15168",
		"names":"",
		"pinyin":[]
	},
	{
		"authorityID":"PL000000015169",
		"name":"春穀",
		"dynasty":"沒有給定朝代",
		"long":"118.1509",
		"lat":"31.2103",
		"districtHistorical":"",
		"districtModern":"中國-安徽省-蕪湖市-繁昌縣",
		"note":"",
		"lang":"中文",
		"shortAuthorityID":"PL15169",
		"names":"",
		"pinyin":[]
	},
	{
		"authorityID":"PL000000015170",
		"name":"春穀",
		"dynasty":"沒有給定朝代",
		"long":"118.1737",
		"lat":"31.2003",
		"districtHistorical":"",
		"districtModern":"中國-安徽省-蕪湖市-繁昌縣",
		"note":"",
		"lang":"中文",
		"shortAuthorityID":"PL15170",
		"names":"",
		"pinyin":[]
	},
	{
		"authorityID":"PL000000015171",
		"name":"春穀",
		"dynasty":"沒有給定朝代",
		"long":"118.1737",
		"lat":"31.2003",
		"districtHistorical":"",
		"districtModern":"中國-安徽省-蕪湖市-繁昌縣",
		"note":"",
		"lang":"中文",
		"shortAuthorityID":"PL15171",
		"names":"",
		"pinyin":[]
	},
	{
		"authorityID":"PL000000015172",
		"name":"開福寺",
		"dynasty":"唐",
		"long":"118.320921",
		"lat":"30.91051",
		"districtHistorical":null,
		"districtModern":"中國-安徽省-蕪湖市-南陵縣",
		"note":"（唐寺考：223）",
		"lang":"中文",
		"shortAuthorityID":"PL15172",
		"names":"",
		"pinyin":[]
	},
	{
		"authorityID":"PL000000015173",
		"name":"馬家園",
		"dynasty":"清",
		"long":"118.492",
		"lat":"31.0872",
		"districtHistorical":"清_安徽",
		"districtModern":"中國-安徽省-蕪湖市-南陵縣",
		"note":null,
		"lang":"中文",
		"shortAuthorityID":"PL15173",
		"names":"",
		"pinyin":[]
	},
	{
		"authorityID":"PL000000015174",
		"name":"南陵",
		"dynasty":"清",
		"long":"118.3413",
		"lat":"30.9232",
		"districtHistorical":"清_安徽",
		"districtModern":"中國-安徽省-蕪湖市-南陵縣",
		"note":"位於中國安徽省東南部，地處皖南丘陵向沿江平原過渡地帶，是通往「兩山一湖」的重要門戶。（<a target=\"_blank\" href=\"http:\/\/zh.wikipedia.org\/wiki\/%E5%8D%97%E9%99%B5%E5%8E%BF\">http:\/\/zh.wikipedia.org\/wiki\/南陵縣<\/a>，2012.03.08）",
		"lang":"中文",
		"shortAuthorityID":"PL15174",
		"names":"",
		"pinyin":[]
	},
	{
		"authorityID":"PL000000015175",
		"name":"南陵",
		"dynasty":"明",
		"long":"118.3413",
		"lat":"30.9232",
		"districtHistorical":"明_南京",
		"districtModern":"中國-安徽省-蕪湖市-南陵縣",
		"note":"位於安徽省東南部，蕪湖市境南部，長江下游南岸。明，洪武元年（1368）八月，屬中書省寧國府。洪武十三年（1380）正月，屬六部直隸寧國府。永樂元年（1403），屬南京直隸寧國府。（<a target=\"_blank\" href=\"http:\/\/baike.baidu.com\/view\/282227.htm\">http:\/\/baike.baidu.com\/view\/282227.htm<\/a>，012.03.23）",
		"lang":"中文",
		"shortAuthorityID":"PL15175",
		"names":"",
		"pinyin":[]
	},
	{
		"authorityID":"PL000000015176",
		"name":"南陵",
		"dynasty":"元",
		"long":"118.3413",
		"lat":"30.9232",
		"districtHistorical":"元_江浙行省",
		"districtModern":"中國-安徽省-蕪湖市-南陵縣",
		"note":null,
		"lang":"中文",
		"shortAuthorityID":"PL15176",
		"names":"",
		"pinyin":[]
	},
	{
		"authorityID":"PL000000015177",
		"name":"南陵",
		"dynasty":"南宋",
		"long":"118.3413",
		"lat":"30.9232",
		"districtHistorical":"南宋_江南東路",
		"districtModern":"中國-安徽省-蕪湖市-南陵縣",
		"note":null,
		"lang":"中文",
		"shortAuthorityID":"PL15177",
		"names":"",
		"pinyin":[]
	},
	{
		"authorityID":"PL000000015178",
		"name":"南陵",
		"dynasty":"北宋",
		"long":"118.3413",
		"lat":"30.9232",
		"districtHistorical":"北宋_江南東路",
		"districtModern":"中國-安徽省-蕪湖市-南陵縣",
		"note":null,
		"lang":"中文",
		"shortAuthorityID":"PL15178",
		"names":"",
		"pinyin":[]
	},
	{
		"authorityID":"PL000000015179",
		"name":"南陵",
		"dynasty":"唐",
		"long":"118.3413",
		"lat":"30.9232",
		"districtHistorical":"唐_江南西道",
		"districtModern":"中國-安徽省-蕪湖市-南陵縣",
		"note":"位於安徽省東南部，蕪湖市境南部，長江下游南岸。唐，武德四年（621），改屬池州。貞觀元年（627），又歸宣州，屬江南道。長安四年（704），移治青陽城（今南陵籍山鎮），屬江南道宣州。開元二十一年（733），屬江南西道宣州。天寶元年（742），屬江南西道宣城郡。乾元元年（758），屬宣歙觀察使宣州。大順元年（890），屬寧國軍宣州。（<a target=\"_blank\" href=\"http:\/\/zh.wikisource.org\/zh-hant\/%E8%88%8A%E5%94%90%E6%9B%B8\/%E5%8D%B740\">http:\/\/zh.wikisource.org\/zh-hant\/%E8%88%8A%E5%94%90%E6%9B%B8\/%E5%8D%B740<\/a>；<a target=\"_blank\" href=\"http:\/\/baike.baidu.com\/view\/282227.htm\">http:\/\/baike.baidu.com\/view\/282227.htm<\/a>，2013.10.15）",
		"lang":"中文",
		"shortAuthorityID":"PL15179",
		"names":"",
		"pinyin":[]
	},
	{
		"authorityID":"PL000000015180",
		"name":"青弋江鎮",
		"dynasty":"清",
		"long":"118.4892",
		"lat":"30.911",
		"districtHistorical":"清_安徽",
		"districtModern":"中國-安徽省-蕪湖市-南陵縣",
		"note":"位於安徽省蕪湖市南陵東部，座落在風景秀麗的青弋江畔，地處（蕪湖）宣（城）中心。（<a target=\"_blank\" href=\"http:\/\/www.hudong.com\/wiki\/%E5%BC%8B%E6%B1%9F%E9%95%87\">http:\/\/www.hudong.com\/wiki\/弋江鎮<\/a>，2012.03.08）",
		"lang":"中文",
		"shortAuthorityID":"PL15180",
		"names":"",
		"pinyin":[]
	},
	{
		"authorityID":"PL000000015181",
		"name":"當塗",
		"dynasty":"南齊",
		"long":"118.3452",
		"lat":"30.8987",
		"districtHistorical":"南朝 齊_南豫州",
		"districtModern":"中國-安徽省-蕪湖市-南陵縣",
		"note":null,
		"lang":"中文",
		"shortAuthorityID":"PL15181",
		"names":"",
		"pinyin":[]
	},
	{
		"authorityID":"PL000000015182",
		"name":"分界山",
		"dynasty":"明",
		"long":"118.4208",
		"lat":"30.85",
		"districtHistorical":"明_南京",
		"districtModern":"中國-安徽省-蕪湖市-南陵縣",
		"note":null,
		"lang":"中文",
		"shortAuthorityID":"PL15182",
		"names":"",
		"pinyin":[]
	},
	{
		"authorityID":"PL000000015183",
		"name":"鵝嶺鎮",
		"dynasty":"清",
		"long":"118.2985",
		"lat":"30.8466",
		"districtHistorical":"清_安徽",
		"districtModern":"中國-安徽省-蕪湖市-南陵縣",
		"note":null,
		"lang":"中文",
		"shortAuthorityID":"PL15183",
		"names":"",
		"pinyin":[]
	},
	{
		"authorityID":"PL000000015184",
		"name":"峨嶺",
		"dynasty":"明",
		"long":"118.3018",
		"lat":"30.8386",
		"districtHistorical":"明_南京",
		"districtModern":"中國-安徽省-蕪湖市-南陵縣",
		"note":null,
		"lang":"中文",
		"shortAuthorityID":"PL15184",
		"names":"",
		"pinyin":{
			"峨嶺":"é lǐng"
		}
	},
	{
		"authorityID":"PL000000015185",
		"name":"曹山",
		"dynasty":"慣用名",
		"long":"117.744376",
		"lat":"30.490127",
		"districtHistorical":null,
		"districtModern":"中國-安徽省-池州市-青陽縣",
		"note":"安徽九華群山之一，距青陽縣城四十里。唐由甘贄捨宅改建龍門寺於此，雙溪源出此處。南麓有甘贄墓、西有白雲庵。（g077p0049、g077p0156、g077p0176）",
		"lang":"中文",
		"shortAuthorityID":"PL15185",
		"names":"",
		"pinyin":{
			"曹山":"cáo shān"
		}
	},
	{
		"authorityID":"PL000000015186",
		"name":"三角泉",
		"dynasty":"慣用名",
		"long":"117.761079",
		"lat":"30.492252",
		"districtHistorical":"",
		"districtModern":"中國-安徽省-池州市-青陽縣",
		"note":"安徽九華山十八泉之一，在曹山延壽寺。東淨信寺亦有之。佳甚。（g077p0112）",
		"lang":"中文",
		"shortAuthorityID":"PL15186",
		"names":"",
		"pinyin":[]
	},
	{
		"authorityID":"PL000000015187",
		"name":"延壽寺",
		"dynasty":"慣用名",
		"long":"117.760365",
		"lat":"30.492279",
		"districtHistorical":null,
		"districtModern":"中國-安徽省-池州市-青陽縣",
		"note":"安徽九華山五庵之一，在曹山三角泉前。由甘贄捨宅改建，初名「龍門寺」。宋祥符時，賜今額。今《指南》，與《山中鈔稿》，俱無延壽寺之名。（g077p0155）",
		"lang":"中文",
		"shortAuthorityID":"PL15187",
		"names":"[中文] 龍門寺",
		"pinyin":[]
	},
	{
		"authorityID":"PL000000015188",
		"name":"長准衛",
		"dynasty":"清",
		"long":"117.483",
		"lat":"32.9592",
		"districtHistorical":"清_安徽",
		"districtModern":"中國-安徽省-蚌埠市-龍子湖區",
		"note":null,
		"lang":"中文",
		"shortAuthorityID":"PL15188",
		"names":"",
		"pinyin":[]
	},
	{
		"authorityID":"PL000000015189",
		"name":"長淮衛",
		"dynasty":"明",
		"long":"117.4814",
		"lat":"32.9706",
		"districtHistorical":"明_南京",
		"districtModern":"中國-安徽省-蚌埠市-龍子湖區",
		"note":null,
		"lang":"中文",
		"shortAuthorityID":"PL15189",
		"names":"",
		"pinyin":[]
	},
	{
		"authorityID":"PL000000015190",
		"name":"蚌埠集",
		"dynasty":"清",
		"long":"117.3717",
		"lat":"32.9402",
		"districtHistorical":"清_安徽",
		"districtModern":"中國-安徽省-蚌埠市-蚌山區",
		"note":null,
		"lang":"中文",
		"shortAuthorityID":"PL15190",
		"names":"",
		"pinyin":[]
	},
	{
		"authorityID":"PL000000015191",
		"name":"當塗",
		"dynasty":"西晉",
		"long":"117.2382",
		"lat":"32.8621",
		"districtHistorical":"西晉_揚州",
		"districtModern":"中國-安徽省-蚌埠市-禹會區",
		"note":"",
		"lang":"中文",
		"shortAuthorityID":"PL15191",
		"names":"",
		"pinyin":[]
	},
	{
		"authorityID":"PL000000015192",
		"name":"馬頭",
		"dynasty":"東晉",
		"long":"117.2522",
		"lat":"32.8935",
		"districtHistorical":"東晉_揚州",
		"districtModern":"中國-安徽省-蚌埠市-禹會區",
		"note":"",
		"lang":"中文",
		"shortAuthorityID":"PL15192",
		"names":"",
		"pinyin":[]
	},
	{
		"authorityID":"PL000000015193",
		"name":"荊山",
		"dynasty":null,
		"long":"117.179339",
		"lat":"32.949174",
		"districtHistorical":null,
		"districtModern":"中國-安徽省-蚌埠市-懷遠縣",
		"note":"在今安徽省懷遠縣西南。北魏 酈道元 《水經注．淮水》：「《郡國志》曰：『 平阿縣有當涂山 ， 淮出於荊山之左，當涂之右，奔流二山之間，西揚濤北注之。』」（註：安徽、陝西、湖北、河南均有荊山，從《史記》記載的字面理解，和氏璧出自安徽懷遠荊山。）（<a target=\"_blank\" href=\"http:\/\/baike.baidu.com\/view\/981630.htm\">http:\/\/baike.baidu.com\/荊山<\/a>，2011.07.19）",
		"lang":"中文",
		"shortAuthorityID":"PL15193",
		"names":"",
		"pinyin":{
			"荊山":"jīng shān"
		}
	},
	{
		"authorityID":"PL000000015194",
		"name":"龍亢",
		"dynasty":"東漢",
		"long":"116.9057",
		"lat":"33.1513",
		"districtHistorical":"東漢_豫州刺史部",
		"districtModern":"中國-安徽省-蚌埠市-懷遠縣",
		"note":null,
		"lang":"中文",
		"shortAuthorityID":"PL15194",
		"names":"",
		"pinyin":[]
	},
	{
		"authorityID":"PL000000015195",
		"name":"龍亢",
		"dynasty":"西漢",
		"long":"116.9057",
		"lat":"33.1513",
		"districtHistorical":"西漢_豫州刺史部",
		"districtModern":"中國-安徽省-蚌埠市-懷遠縣",
		"note":null,
		"lang":"中文",
		"shortAuthorityID":"PL15195",
		"names":"",
		"pinyin":[]
	},
	{
		"authorityID":"PL000000015196",
		"name":"龍亢",
		"dynasty":"西晉",
		"long":"116.9013",
		"lat":"33.1485",
		"districtHistorical":"西晉_豫州",
		"districtModern":"中國-安徽省-蚌埠市-懷遠縣",
		"note":null,
		"lang":"中文",
		"shortAuthorityID":"PL15196",
		"names":"",
		"pinyin":[]
	},
	{
		"authorityID":"PL000000015197",
		"name":"龍亢",
		"dynasty":"曹魏",
		"long":"116.9013",
		"lat":"33.1485",
		"districtHistorical":"三國 魏_豫州",
		"districtModern":"中國-安徽省-蚌埠市-懷遠縣",
		"note":null,
		"lang":"中文",
		"shortAuthorityID":"PL15197",
		"names":"",
		"pinyin":[]
	},
	{
		"authorityID":"PL000000015198",
		"name":"龍亢集",
		"dynasty":"明",
		"long":"116.901",
		"lat":"33.1484",
		"districtHistorical":"明_南京",
		"districtModern":"中國-安徽省-蚌埠市-懷遠縣",
		"note":null,
		"lang":"中文",
		"shortAuthorityID":"PL15198",
		"names":"",
		"pinyin":[]
	},
	{
		"authorityID":"PL000000015199",
		"name":"龍亢",
		"dynasty":"北魏",
		"long":"116.9031",
		"lat":"33.1458",
		"districtHistorical":"北朝 魏_南兗州",
		"districtModern":"中國-安徽省-蚌埠市-懷遠縣",
		"note":null,
		"lang":"中文",
		"shortAuthorityID":"PL15199",
		"names":"",
		"pinyin":[]
	},
	{
		"authorityID":"PL000000015200",
		"name":"龍亢集",
		"dynasty":"清",
		"long":"116.8999",
		"lat":"33.1417",
		"districtHistorical":"清_安徽",
		"districtModern":"中國-安徽省-蚌埠市-懷遠縣",
		"note":null,
		"lang":"中文",
		"shortAuthorityID":"PL15200",
		"names":"",
		"pinyin":[]
	},
	{
		"authorityID":"PL000000015201",
		"name":"向縣",
		"dynasty":"東漢",
		"long":"117.0861",
		"lat":"33.1171",
		"districtHistorical":"東漢_豫州刺史部",
		"districtModern":"中國-安徽省-蚌埠市-懷遠縣",
		"note":null,
		"lang":"中文",
		"shortAuthorityID":"PL15201",
		"names":"",
		"pinyin":[]
	},
	{
		"authorityID":"PL000000015202",
		"name":"向縣",
		"dynasty":"西漢",
		"long":"117.0861",
		"lat":"33.1171",
		"districtHistorical":"西漢_豫州刺史部",
		"districtModern":"中國-安徽省-蚌埠市-懷遠縣",
		"note":null,
		"lang":"中文",
		"shortAuthorityID":"PL15202",
		"names":"",
		"pinyin":[]
	},
	{
		"authorityID":"PL000000015203",
		"name":"向城",
		"dynasty":"西晉",
		"long":"117.0581",
		"lat":"33.116",
		"districtHistorical":"西晉_豫州",
		"districtModern":"中國-安徽省-蚌埠市-懷遠縣",
		"note":null,
		"lang":"中文",
		"shortAuthorityID":"PL15203",
		"names":"",
		"pinyin":{
			"向城":"xiàng chéng"
		}
	},
	{
		"authorityID":"PL000000015204",
		"name":"義城",
		"dynasty":"西晉",
		"long":"117.2462",
		"lat":"32.9996",
		"districtHistorical":"西晉_揚州",
		"districtModern":"中國-安徽省-蚌埠市-懷遠縣",
		"note":null,
		"lang":"中文",
		"shortAuthorityID":"PL15204",
		"names":"",
		"pinyin":[]
	},
	{
		"authorityID":"PL000000015205",
		"name":"義成",
		"dynasty":"孫吳",
		"long":"117.2462",
		"lat":"32.9996",
		"districtHistorical":"三國 吳_揚州",
		"districtModern":"中國-安徽省-蚌埠市-懷遠縣",
		"note":null,
		"lang":"中文",
		"shortAuthorityID":"PL15205",
		"names":"",
		"pinyin":[]
	},
	{
		"authorityID":"PL000000015206",
		"name":"義成",
		"dynasty":"東漢",
		"long":"117.2366",
		"lat":"32.9995",
		"districtHistorical":"東漢_揚州刺史部",
		"districtModern":"中國-安徽省-蚌埠市-懷遠縣",
		"note":null,
		"lang":"中文",
		"shortAuthorityID":"PL15206",
		"names":"",
		"pinyin":[]
	},
	{
		"authorityID":"PL000000015207",
		"name":"義成",
		"dynasty":"西漢",
		"long":"117.2366",
		"lat":"32.9995",
		"districtHistorical":"西漢_豫州刺史部",
		"districtModern":"中國-安徽省-蚌埠市-懷遠縣",
		"note":null,
		"lang":"中文",
		"shortAuthorityID":"PL15207",
		"names":"",
		"pinyin":[]
	},
	{
		"authorityID":"PL000000015208",
		"name":"懷遠",
		"dynasty":"清",
		"long":"117.2026",
		"lat":"32.9556",
		"districtHistorical":"清_安徽",
		"districtModern":"中國-安徽省-蚌埠市-懷遠縣",
		"note":null,
		"lang":"中文",
		"shortAuthorityID":"PL15208",
		"names":"",
		"pinyin":[]
	},
	{
		"authorityID":"PL000000015209",
		"name":"懷遠",
		"dynasty":"明",
		"long":"117.2026",
		"lat":"32.9556",
		"districtHistorical":"明_南京",
		"districtModern":"中國-安徽省-蚌埠市-懷遠縣",
		"note":null,
		"lang":"中文",
		"shortAuthorityID":"PL15209",
		"names":"",
		"pinyin":[]
	},
	{
		"authorityID":"PL000000015210",
		"name":"懷遠",
		"dynasty":"元",
		"long":"117.2026",
		"lat":"32.9556",
		"districtHistorical":"元_河南江北行省",
		"districtModern":"中國-安徽省-蚌埠市-懷遠縣",
		"note":null,
		"lang":"中文",
		"shortAuthorityID":"PL15210",
		"names":"",
		"pinyin":[]
	},
	{
		"authorityID":"PL000000015211",
		"name":"荊山鎮",
		"dynasty":"北宋",
		"long":"117.2026",
		"lat":"32.9556",
		"districtHistorical":"北宋_淮南東路",
		"districtModern":"中國-安徽省-蚌埠市-懷遠縣",
		"note":null,
		"lang":"中文",
		"shortAuthorityID":"PL15211",
		"names":"",
		"pinyin":[]
	},
	{
		"authorityID":"PL000000015212",
		"name":"平阿",
		"dynasty":"孫吳",
		"long":"116.9516",
		"lat":"32.9412",
		"districtHistorical":"三國 吳_揚州",
		"districtModern":"中國-安徽省-蚌埠市-懷遠縣",
		"note":null,
		"lang":"中文",
		"shortAuthorityID":"PL15212",
		"names":"",
		"pinyin":[]
	},
	{
		"authorityID":"PL000000015213",
		"name":"平阿",
		"dynasty":"西晉",
		"long":"116.989",
		"lat":"32.9262",
		"districtHistorical":"西晉_揚州",
		"districtModern":"中國-安徽省-蚌埠市-懷遠縣",
		"note":null,
		"lang":"中文",
		"shortAuthorityID":"PL15213",
		"names":"",
		"pinyin":[]
	},
	{
		"authorityID":"PL000000015214",
		"name":"渦口",
		"dynasty":"西晉",
		"long":"116.989",
		"lat":"32.9262",
		"districtHistorical":"西晉_揚州",
		"districtModern":"中國-安徽省-蚌埠市-懷遠縣",
		"note":null,
		"lang":"中文",
		"shortAuthorityID":"PL15214",
		"names":"",
		"pinyin":[]
	},
	{
		"authorityID":"PL000000015215",
		"name":"平阿",
		"dynasty":"東漢",
		"long":"116.96",
		"lat":"32.9017",
		"districtHistorical":"東漢_揚州刺史部",
		"districtModern":"中國-安徽省-蚌埠市-懷遠縣",
		"note":null,
		"lang":"中文",
		"shortAuthorityID":"PL15215",
		"names":"",
		"pinyin":[]
	},
	{
		"authorityID":"PL000000015216",
		"name":"當塗",
		"dynasty":"孫吳",
		"long":"117.2119",
		"lat":"32.8716",
		"districtHistorical":"三國 吳_揚州",
		"districtModern":"中國-安徽省-蚌埠市-懷遠縣",
		"note":"安徽省東部，介於南京與蕪湖之間，地處長三角城市群頂端。秦代稱丹陽，是全國最早建置縣。當涂縣名源自大禹妻家涂山古氏國。（<a target=\"_blank\" href=\"http:\/\/www.hudong.com\/wiki\/%E5%BD%93%E6%B6%82\">http:\/\/www.hudong.com\/wiki\/當涂<\/a>，2012.03.07）",
		"lang":"中文",
		"shortAuthorityID":"PL15216",
		"names":"",
		"pinyin":[]
	},
	{
		"authorityID":"PL000000015217",
		"name":"馬丘聚",
		"dynasty":"東漢",
		"long":"117.2338",
		"lat":"32.861",
		"districtHistorical":"東漢_揚州刺史部",
		"districtModern":"中國-安徽省-蚌埠市-懷遠縣",
		"note":null,
		"lang":"中文",
		"shortAuthorityID":"PL15217",
		"names":"",
		"pinyin":{
			"馬丘聚":"mǎ qiū jù"
		}
	},
	{
		"authorityID":"PL000000015218",
		"name":"當塗",
		"dynasty":"東漢",
		"long":"117.2338",
		"lat":"32.861",
		"districtHistorical":"東漢_揚州刺史部",
		"districtModern":"中國-安徽省-蚌埠市-懷遠縣",
		"note":null,
		"lang":"中文",
		"shortAuthorityID":"PL15218",
		"names":"",
		"pinyin":[]
	},
	{
		"authorityID":"PL000000015219",
		"name":"當塗",
		"dynasty":"西漢",
		"long":"117.2338",
		"lat":"32.861",
		"districtHistorical":"西漢_揚州刺史部",
		"districtModern":"中國-安徽省-蚌埠市-懷遠縣",
		"note":null,
		"lang":"中文",
		"shortAuthorityID":"PL15219",
		"names":"",
		"pinyin":[]
	},
	{
		"authorityID":"PL000000015220",
		"name":"馬頭郡",
		"dynasty":"南齊",
		"long":"117.2294",
		"lat":"32.8539",
		"districtHistorical":"南朝 齊_北徐州",
		"districtModern":"中國-安徽省-蚌埠市-懷遠縣",
		"note":null,
		"lang":"中文",
		"shortAuthorityID":"PL15220",
		"names":"",
		"pinyin":[]
	},
	{
		"authorityID":"PL000000015221",
		"name":"塗山",
		"dynasty":"隋",
		"long":"117.2232",
		"lat":"32.8516",
		"districtHistorical":"隋_鐘離郡",
		"districtModern":"中國-安徽省-蚌埠市-懷遠縣",
		"note":null,
		"lang":"中文",
		"shortAuthorityID":"PL15221",
		"names":"",
		"pinyin":[]
	},
	{
		"authorityID":"PL000000015222",
		"name":"平阿",
		"dynasty":"西漢",
		"long":"116.898",
		"lat":"32.8436",
		"districtHistorical":"西漢_豫州刺史部",
		"districtModern":"中國-安徽省-蚌埠市-懷遠縣",
		"note":null,
		"lang":"中文",
		"shortAuthorityID":"PL15222",
		"names":"",
		"pinyin":[]
	},
	{
		"authorityID":"PL000000015223",
		"name":"新城村",
		"dynasty":"明",
		"long":"117.1076",
		"lat":"32.7766",
		"districtHistorical":"明_南京",
		"districtModern":"中國-安徽省-蚌埠市-懷遠縣",
		"note":null,
		"lang":"中文",
		"shortAuthorityID":"PL15223",
		"names":"",
		"pinyin":{
			"新城村":"xīn chéng cūn"
		}
	},
	{
		"authorityID":"PL000000015224",
		"name":"?澗鎮",
		"dynasty":"北宋",
		"long":"117.104",
		"lat":"32.7499",
		"districtHistorical":"北宋_淮南西路",
		"districtModern":"中國-安徽省-蚌埠市-懷遠縣",
		"note":"",
		"lang":"中文",
		"shortAuthorityID":"PL15224",
		"names":"[中文] [土*厥]澗鎮",
		"pinyin":[]
	},
	{
		"authorityID":"PL000000015225",
		"name":"渦口",
		"dynasty":"南齊",
		"long":"117.2053",
		"lat":"32.9709",
		"districtHistorical":"南朝 齊_北徐州",
		"districtModern":"中國-安徽省-蚌埠市-懷遠縣",
		"note":null,
		"lang":"中文",
		"shortAuthorityID":"PL15225",
		"names":"",
		"pinyin":[]
	},
	{
		"authorityID":"PL000000015226",
		"name":"虹縣",
		"dynasty":"西晉",
		"long":"117.7376",
		"lat":"33.2131",
		"districtHistorical":"西晉_豫州",
		"districtModern":"中國-安徽省-蚌埠市-五河縣",
		"note":null,
		"lang":"中文",
		"shortAuthorityID":"PL15226",
		"names":"",
		"pinyin":[]
	},
	{
		"authorityID":"PL000000015227",
		"name":"虹縣",
		"dynasty":"曹魏",
		"long":"117.7376",
		"lat":"33.2131",
		"districtHistorical":"三國 魏_豫州",
		"districtModern":"中國-安徽省-蚌埠市-五河縣",
		"note":null,
		"lang":"中文",
		"shortAuthorityID":"PL15227",
		"names":"",
		"pinyin":[]
	},
	{
		"authorityID":"PL000000015228",
		"name":"虹縣",
		"dynasty":"東漢",
		"long":"117.7333",
		"lat":"33.2128",
		"districtHistorical":"東漢_豫州刺史部",
		"districtModern":"中國-安徽省-蚌埠市-五河縣",
		"note":null,
		"lang":"中文",
		"shortAuthorityID":"PL15228",
		"names":"",
		"pinyin":[]
	},
	{
		"authorityID":"PL000000015229",
		"name":"虹縣",
		"dynasty":"西漢",
		"long":"117.7333",
		"lat":"33.2128",
		"districtHistorical":"西漢_豫州刺史部",
		"districtModern":"中國-安徽省-蚌埠市-五河縣",
		"note":null,
		"lang":"中文",
		"shortAuthorityID":"PL15229",
		"names":"",
		"pinyin":[]
	},
	{
		"authorityID":"PL000000015230",
		"name":"虹城",
		"dynasty":"北魏",
		"long":"117.7622",
		"lat":"33.2007",
		"districtHistorical":"北朝 魏_徐州",
		"districtModern":"中國-安徽省-蚌埠市-五河縣",
		"note":null,
		"lang":"中文",
		"shortAuthorityID":"PL15230",
		"names":"",
		"pinyin":[]
	},
	{
		"authorityID":"PL000000015231",
		"name":"五河",
		"dynasty":"清",
		"long":"117.8916",
		"lat":"33.1386",
		"districtHistorical":"清_安徽",
		"districtModern":"中國-安徽省-蚌埠市-五河縣",
		"note":null,
		"lang":"中文",
		"shortAuthorityID":"PL15231",
		"names":"",
		"pinyin":{
			"五河":"wǔ hé"
		}
	},
	{
		"authorityID":"PL000000015232",
		"name":"五河",
		"dynasty":"明",
		"long":"117.8916",
		"lat":"33.1386",
		"districtHistorical":"明_南京",
		"districtModern":"中國-安徽省-蚌埠市-五河縣",
		"note":null,
		"lang":"中文",
		"shortAuthorityID":"PL15232",
		"names":"",
		"pinyin":{
			"五河":"wǔ hé"
		}
	},
	{
		"authorityID":"PL000000015233",
		"name":"五河",
		"dynasty":"元",
		"long":"117.8916",
		"lat":"33.1386",
		"districtHistorical":"元_河南江北行省",
		"districtModern":"中國-安徽省-蚌埠市-五河縣",
		"note":null,
		"lang":"中文",
		"shortAuthorityID":"PL15233",
		"names":"",
		"pinyin":{
			"五河":"wǔ hé"
		}
	},
	{
		"authorityID":"PL000000015234",
		"name":"上店",
		"dynasty":"明",
		"long":"117.6684",
		"lat":"33.1197",
		"districtHistorical":"明_南京",
		"districtModern":"中國-安徽省-蚌埠市-五河縣",
		"note":null,
		"lang":"中文",
		"shortAuthorityID":"PL15234",
		"names":"",
		"pinyin":[]
	},
	{
		"authorityID":"PL000000015235",
		"name":"邵陽洲",
		"dynasty":"北魏",
		"long":"117.7097",
		"lat":"33.0033",
		"districtHistorical":"北朝 魏_徐州",
		"districtModern":"中國-安徽省-蚌埠市-五河縣",
		"note":null,
		"lang":"中文",
		"shortAuthorityID":"PL15235",
		"names":"",
		"pinyin":{
			"邵陽洲":"shào yáng zhōu"
		}
	},
	{
		"authorityID":"PL000000015236",
		"name":"仁州",
		"dynasty":"南梁",
		"long":"117.400534",
		"lat":"33.151782",
		"districtHistorical":null,
		"districtModern":"中國-安徽省-蚌埠市-固鎮縣",
		"note":"南朝梁普通五-七年（524-526）置仁州，治赤坎城，今安徽固鎮縣仁和集村，唐貞觀八年廢。詳參魏書\/志第六\/仁州。（歷地史：441；<a target=\"_blank\" href=\"http:\/\/zh.wikisource.org\/wiki\/%E9%AD%8F%E6%9B%B8\/%E5%8D%B7106%E4%B8%AD\">http:\/\/zh.wikisource.org\/wiki\/%E9%AD%8F%E6%9B%B8\/%E5%8D%B7106%E4%B8%AD<\/a>，2012.09.03；<a target=\"_blank\" href=\"http:\/\/www.hudong.com\/wiki\/%E4%BB%81%E5%B7%9E\">http:\/\/www.hudong.com\/wiki\/仁州<\/a>，2011.01.11）",
		"lang":"中文",
		"shortAuthorityID":"PL15236",
		"names":"[中文] 赤坎城",
		"pinyin":{
			"仁州":"rén zhōu"
		}
	},
	{
		"authorityID":"PL000000015237",
		"name":"湖溝",
		"dynasty":"清",
		"long":"117.1365",
		"lat":"33.3667",
		"districtHistorical":"清_安徽",
		"districtModern":"中國-安徽省-蚌埠市-固鎮縣",
		"note":null,
		"lang":"中文",
		"shortAuthorityID":"PL15237",
		"names":"",
		"pinyin":[]
	},
	{
		"authorityID":"PL000000015238",
		"name":"陽平郡",
		"dynasty":"北魏",
		"long":"117.2185",
		"lat":"33.3376",
		"districtHistorical":"北朝 魏_徐州",
		"districtModern":"中國-安徽省-蚌埠市-固鎮縣",
		"note":null,
		"lang":"中文",
		"shortAuthorityID":"PL15238",
		"names":"",
		"pinyin":[]
	},
	{
		"authorityID":"PL000000015239",
		"name":"濠城集",
		"dynasty":"清",
		"long":"117.5677",
		"lat":"33.3246",
		"districtHistorical":"清_安徽",
		"districtModern":"中國-安徽省-蚌埠市-固鎮縣",
		"note":null,
		"lang":"中文",
		"shortAuthorityID":"PL15239",
		"names":"",
		"pinyin":{
			"濠城集":"háo chéng jí"
		}
	},
	{
		"authorityID":"PL000000015240",
		"name":"固鎮",
		"dynasty":"清",
		"long":"117.3208",
		"lat":"33.3135",
		"districtHistorical":"清_安徽",
		"districtModern":"中國-安徽省-蚌埠市-固鎮縣",
		"note":null,
		"lang":"中文",
		"shortAuthorityID":"PL15240",
		"names":"",
		"pinyin":[]
	},
	{
		"authorityID":"PL000000015241",
		"name":"固鎮",
		"dynasty":"明",
		"long":"117.3208",
		"lat":"33.3135",
		"districtHistorical":"明_南京",
		"districtModern":"中國-安徽省-蚌埠市-固鎮縣",
		"note":null,
		"lang":"中文",
		"shortAuthorityID":"PL15241",
		"names":"",
		"pinyin":[]
	},
	{
		"authorityID":"PL000000015242",
		"name":"西故鎮",
		"dynasty":"北宋",
		"long":"117.3208",
		"lat":"33.3135",
		"districtHistorical":"北宋_淮南東路",
		"districtModern":"中國-安徽省-蚌埠市-固鎮縣",
		"note":null,
		"lang":"中文",
		"shortAuthorityID":"PL15242",
		"names":"",
		"pinyin":[]
	},
	{
		"authorityID":"PL000000015243",
		"name":"洨縣",
		"dynasty":"東漢",
		"long":"117.5656",
		"lat":"33.3081",
		"districtHistorical":"東漢_豫州刺史部",
		"districtModern":"中國-安徽省-蚌埠市-固鎮縣",
		"note":null,
		"lang":"中文",
		"shortAuthorityID":"PL15243",
		"names":"",
		"pinyin":[]
	},
	{
		"authorityID":"PL000000015244",
		"name":"洨縣",
		"dynasty":"西晉",
		"long":"117.5524",
		"lat":"33.3064",
		"districtHistorical":"西晉_豫州",
		"districtModern":"中國-安徽省-蚌埠市-固鎮縣",
		"note":null,
		"lang":"中文",
		"shortAuthorityID":"PL15244",
		"names":"",
		"pinyin":[]
	},
	{
		"authorityID":"PL000000015245",
		"name":"洨縣",
		"dynasty":"曹魏",
		"long":"117.5524",
		"lat":"33.3064",
		"districtHistorical":"三國 魏_豫州",
		"districtModern":"中國-安徽省-蚌埠市-固鎮縣",
		"note":null,
		"lang":"中文",
		"shortAuthorityID":"PL15245",
		"names":"",
		"pinyin":[]
	},
	{
		"authorityID":"PL000000015246",
		"name":"洨國",
		"dynasty":"西漢",
		"long":"117.5679",
		"lat":"33.3051",
		"districtHistorical":"西漢_豫州刺史部",
		"districtModern":"中國-安徽省-蚌埠市-固鎮縣",
		"note":null,
		"lang":"中文",
		"shortAuthorityID":"PL15246",
		"names":"",
		"pinyin":{
			"洨國":"xiáo guó"
		}
	},
	{
		"authorityID":"PL000000015247",
		"name":"王莊",
		"dynasty":"清",
		"long":"117.4708",
		"lat":"33.1031",
		"districtHistorical":"清_安徽",
		"districtModern":"中國-安徽省-蚌埠市-固鎮縣",
		"note":null,
		"lang":"中文",
		"shortAuthorityID":"PL15247",
		"names":"",
		"pinyin":[]
	},
	{
		"authorityID":"PL000000015248",
		"name":"穀陽",
		"dynasty":"東漢",
		"long":"117.3049",
		"lat":"33.3448",
		"districtHistorical":"東漢_豫州刺史部",
		"districtModern":"中國-安徽省-蚌埠市-固鎮縣",
		"note":"",
		"lang":"中文",
		"shortAuthorityID":"PL15248",
		"names":"",
		"pinyin":{
			"穀陽":"gǔ yáng"
		}
	},
	{
		"authorityID":"PL000000015249",
		"name":"穀陽",
		"dynasty":"西漢",
		"long":"117.3049",
		"lat":"33.3448",
		"districtHistorical":"西漢_豫州刺史部",
		"districtModern":"中國-安徽省-蚌埠市-固鎮縣",
		"note":"",
		"lang":"中文",
		"shortAuthorityID":"PL15249",
		"names":"",
		"pinyin":{
			"穀陽":"gǔ yáng"
		}
	},
	{
		"authorityID":"PL000000015250",
		"name":"穀陽",
		"dynasty":"隋",
		"long":"117.2569",
		"lat":"33.2996",
		"districtHistorical":"隋_彭城郡",
		"districtModern":"中國-安徽省-蚌埠市-固鎮縣",
		"note":"後齊置穀陽郡，開皇初郡廢。又有巳吾、義城二縣，後齊併以為臨淮縣，大業初併入焉。（<a target=\"_blank\" href=\"http:\/\/zh.wikisource.org\/wiki\/%E9%9A%8B%E6%9B%B8\/%E5%8D%B731\">http:\/\/zh.wikisource.org\/wiki\/%E9%9A%8B%E6%9B%B8\/%E5%8D%B731<\/a>，2014.12.13）",
		"lang":"中文",
		"shortAuthorityID":"PL15250",
		"names":"",
		"pinyin":{
			"穀陽":"gǔ yáng"
		}
	},
	{
		"authorityID":"PL000000015251",
		"name":"普寧院",
		"dynasty":null,
		"long":"116.994829",
		"lat":"32.626372",
		"districtHistorical":null,
		"districtModern":"中國-安徽省-淮南市",
		"note":"位於壽州。（宋僧錄：209）",
		"lang":"中文",
		"shortAuthorityID":"PL15251",
		"names":"[中文] 普寧禪院",
		"pinyin":[]
	},
	{
		"authorityID":"PL000000015252",
		"name":"西曲陽",
		"dynasty":"西晉",
		"long":"117.1412",
		"lat":"32.6434",
		"districtHistorical":"西晉_揚州",
		"districtModern":"中國-安徽省-淮南市-大通區",
		"note":null,
		"lang":"中文",
		"shortAuthorityID":"PL15252",
		"names":"",
		"pinyin":{
			"西曲陽":"xī qū yáng"
		}
	},
	{
		"authorityID":"PL000000015253",
		"name":"西曲陽",
		"dynasty":"孫吳",
		"long":"117.1412",
		"lat":"32.6434",
		"districtHistorical":"三國 吳_揚州",
		"districtModern":"中國-安徽省-淮南市-大通區",
		"note":null,
		"lang":"中文",
		"shortAuthorityID":"PL15253",
		"names":"",
		"pinyin":{
			"西曲陽":"xī qū yáng"
		}
	},
	{
		"authorityID":"PL000000015254",
		"name":"洛河鎮",
		"dynasty":"清",
		"long":"117.0888",
		"lat":"32.6879",
		"districtHistorical":"清_安徽",
		"districtModern":"中國-安徽省-淮南市-大通區",
		"note":null,
		"lang":"中文",
		"shortAuthorityID":"PL15254",
		"names":"",
		"pinyin":[]
	},
	{
		"authorityID":"PL000000015255",
		"name":"洛河鎮",
		"dynasty":"明",
		"long":"117.0897",
		"lat":"32.6978",
		"districtHistorical":"明_南京",
		"districtModern":"中國-安徽省-淮南市-大通區",
		"note":null,
		"lang":"中文",
		"shortAuthorityID":"PL15255",
		"names":"",
		"pinyin":[]
	},
	{
		"authorityID":"PL000000015256",
		"name":"上",
		"dynasty":"清",
		"long":"117.1511",
		"lat":"32.7293",
		"districtHistorical":"清_安徽",
		"districtModern":"中國-安徽省-淮南市-大通區",
		"note":null,
		"lang":"中文",
		"shortAuthorityID":"PL15256",
		"names":"",
		"pinyin":[]
	},
	{
		"authorityID":"PL000000015257",
		"name":"曲陽",
		"dynasty":"秦",
		"long":"117.165",
		"lat":"32.6578",
		"districtHistorical":"秦_九江郡",
		"districtModern":"中國-安徽省-淮南市-大通區",
		"note":null,
		"lang":"中文",
		"shortAuthorityID":"PL15257",
		"names":"",
		"pinyin":{
			"曲陽":"qū yáng"
		}
	},
	{
		"authorityID":"PL000000015258",
		"name":"西曲陽",
		"dynasty":"東漢",
		"long":"117.135",
		"lat":"32.646",
		"districtHistorical":"東漢_揚州刺史部",
		"districtModern":"中國-安徽省-淮南市-大通區",
		"note":"",
		"lang":"中文",
		"shortAuthorityID":"PL15258",
		"names":"",
		"pinyin":{
			"西曲陽":"xī qū yáng"
		}
	},
	{
		"authorityID":"PL000000015259",
		"name":"曲陽",
		"dynasty":"西漢",
		"long":"117.135",
		"lat":"32.6431",
		"districtHistorical":"西漢_揚州刺史部",
		"districtModern":"中國-安徽省-淮南市-大通區",
		"note":"",
		"lang":"中文",
		"shortAuthorityID":"PL15259",
		"names":"",
		"pinyin":{
			"曲陽":"qū yáng"
		}
	},
	{
		"authorityID":"PL000000015260",
		"name":"八公山",
		"dynasty":null,
		"long":"116.767",
		"lat":"32.6131",
		"districtHistorical":null,
		"districtModern":"中國-安徽省-淮南市-八公山區",
		"note":"位於國家歷史文化名城壽縣古城以北2公里，是著名的文化勝地。八公山，是漢代淮南王劉安的主要活動地，這兒曾集中了大量當時國內的一流知識分子，博大精深的《淮南子》也是在這裡誕生的。也是綠色健康食品-豆腐的發源地，公認淮南王劉安及八公為豆腐發明人。（<a target=\"_blank\" href=\"http:\/\/baike.baidu.com\/view\/6815.htm\">http:\/\/baike.baidu.com\/view\/6815.htm<\/a>，2012.07.25）",
		"lang":"中文",
		"shortAuthorityID":"PL15260",
		"names":"",
		"pinyin":{
			"八公山":"bā gōng shān"
		}
	},
	{
		"authorityID":"PL000000015261",
		"name":"八公山東寺",
		"dynasty":null,
		"long":"116.837718",
		"lat":"32.623815",
		"districtHistorical":null,
		"districtModern":"中國-安徽省-淮南市-八公山區",
		"note":"",
		"lang":"中文",
		"shortAuthorityID":"PL15261",
		"names":"",
		"pinyin":[]
	},
	{
		"authorityID":"PL000000015262",
		"name":"洪福",
		"dynasty":null,
		"long":"116.724771",
		"lat":"32.668794",
		"districtHistorical":null,
		"districtModern":"中國-安徽省-淮南市-鳳台縣",
		"note":"（明清序：253）",
		"lang":"中文",
		"shortAuthorityID":"PL15262",
		"names":"",
		"pinyin":[]
	},
	{
		"authorityID":"PL000000015263",
		"name":"淮南西路",
		"dynasty":"北宋",
		"long":"116.7394",
		"lat":"32.7145",
		"districtHistorical":"北宋_淮南西路",
		"districtModern":"中國-安徽省-淮南市-鳳台縣",
		"note":"淮南路。舊為一路，熙寧五年，分為東西兩路。（淵四．宋史．卷八十八：6；<a target=\"_blank\" href=\"http:\/\/zh.wikipedia.org\/zh-tw\/%E6%B7%AE%E5%8D%97%E8%A5%BF%E8%B7%AF\">http:\/\/zh.wikipedia.org\/zh-tw\/%E6%B7%AE%E5%8D%97%E8%A5%BF%E8%B7%AF<\/a>，2009.12.21）",
		"lang":"中文",
		"shortAuthorityID":"PL15263",
		"names":"",
		"pinyin":[]
	},
	{
		"authorityID":"PL000000015264",
		"name":"下蔡",
		"dynasty":"西漢",
		"long":"116.7256",
		"lat":"32.72",
		"districtHistorical":"西漢_豫州刺史部",
		"districtModern":"中國-安徽省-淮南市-鳳台縣",
		"note":null,
		"lang":"中文",
		"shortAuthorityID":"PL15264",
		"names":"",
		"pinyin":[]
	},
	{
		"authorityID":"PL000000015265",
		"name":"下蔡鎮",
		"dynasty":"明",
		"long":"116.7394",
		"lat":"32.7145",
		"districtHistorical":"明_南京",
		"districtModern":"中國-安徽省-淮南市-鳳台縣",
		"note":null,
		"lang":"中文",
		"shortAuthorityID":"PL15265",
		"names":"",
		"pinyin":[]
	},
	{
		"authorityID":"PL000000015266",
		"name":"下蔡",
		"dynasty":"元",
		"long":"116.7394",
		"lat":"32.7145",
		"districtHistorical":"元_河南江北行省",
		"districtModern":"中國-安徽省-淮南市-鳳台縣",
		"note":null,
		"lang":"中文",
		"shortAuthorityID":"PL15266",
		"names":"",
		"pinyin":[]
	},
	{
		"authorityID":"PL000000015267",
		"name":"下蔡",
		"dynasty":"北宋",
		"long":"116.7394",
		"lat":"32.7145",
		"districtHistorical":"北宋_淮南西路",
		"districtModern":"中國-安徽省-淮南市-鳳台縣",
		"note":null,
		"lang":"中文",
		"shortAuthorityID":"PL15267",
		"names":"",
		"pinyin":[]
	},
	{
		"authorityID":"PL000000015268",
		"name":"壽州",
		"dynasty":"北宋",
		"long":"116.7394",
		"lat":"32.7145",
		"districtHistorical":"北宋_淮南西路",
		"districtModern":"中國-安徽省-淮南市-鳳台縣",
		"note":null,
		"lang":"中文",
		"shortAuthorityID":"PL15268",
		"names":"",
		"pinyin":{
			"壽州":"shòu zhōu"
		}
	},
	{
		"authorityID":"PL000000015269",
		"name":"下蔡",
		"dynasty":"唐",
		"long":"116.7394",
		"lat":"32.7145",
		"districtHistorical":"唐_河南道",
		"districtModern":"中國-安徽省-淮南市-鳳台縣",
		"note":null,
		"lang":"中文",
		"shortAuthorityID":"PL15269",
		"names":"",
		"pinyin":[]
	},
	{
		"authorityID":"PL000000015270",
		"name":"下蔡",
		"dynasty":"東漢",
		"long":"116.7394",
		"lat":"32.7145",
		"districtHistorical":"東漢_揚州刺史部",
		"districtModern":"中國-安徽省-淮南市-鳳台縣",
		"note":null,
		"lang":"中文",
		"shortAuthorityID":"PL15270",
		"names":"",
		"pinyin":[]
	},
	{
		"authorityID":"PL000000015271",
		"name":"下蔡",
		"dynasty":"秦",
		"long":"116.7394",
		"lat":"32.7145",
		"districtHistorical":"秦_泗水郡",
		"districtModern":"中國-安徽省-淮南市-鳳台縣",
		"note":null,
		"lang":"中文",
		"shortAuthorityID":"PL15271",
		"names":"",
		"pinyin":[]
	},
	{
		"authorityID":"PL000000015272",
		"name":"下蔡故城",
		"dynasty":"南齊",
		"long":"116.7251",
		"lat":"32.7101",
		"districtHistorical":"南朝 齊_豫州",
		"districtModern":"中國-安徽省-淮南市-鳳台縣",
		"note":null,
		"lang":"中文",
		"shortAuthorityID":"PL15272",
		"names":"",
		"pinyin":[]
	},
	{
		"authorityID":"PL000000015273",
		"name":"下蔡鎮",
		"dynasty":"清",
		"long":"116.7291",
		"lat":"32.7045",
		"districtHistorical":"清_安徽",
		"districtModern":"中國-安徽省-淮南市-鳳台縣",
		"note":null,
		"lang":"中文",
		"shortAuthorityID":"PL15273",
		"names":"",
		"pinyin":[]
	},
	{
		"authorityID":"PL000000015274",
		"name":"下蔡",
		"dynasty":"西晉",
		"long":"116.7291",
		"lat":"32.7045",
		"districtHistorical":"西晉_揚州",
		"districtModern":"中國-安徽省-淮南市-鳳台縣",
		"note":null,
		"lang":"中文",
		"shortAuthorityID":"PL15274",
		"names":"",
		"pinyin":[]
	},
	{
		"authorityID":"PL000000015275",
		"name":"下蔡",
		"dynasty":"孫吳",
		"long":"116.7291",
		"lat":"32.7045",
		"districtHistorical":"三國 吳_揚州",
		"districtModern":"中國-安徽省-淮南市-鳳台縣",
		"note":null,
		"lang":"中文",
		"shortAuthorityID":"PL15275",
		"names":"",
		"pinyin":[]
	},
	{
		"authorityID":"PL000000015276",
		"name":"下蔡新城",
		"dynasty":"南齊",
		"long":"116.7662",
		"lat":"32.6972",
		"districtHistorical":"南朝 齊_豫州",
		"districtModern":"中國-安徽省-淮南市-鳳台縣",
		"note":null,
		"lang":"中文",
		"shortAuthorityID":"PL15276",
		"names":"",
		"pinyin":[]
	},
	{
		"authorityID":"PL000000015277",
		"name":"下蔡",
		"dynasty":"隋",
		"long":"116.7669",
		"lat":"32.6939",
		"districtHistorical":"隋_汝陰郡",
		"districtModern":"中國-安徽省-淮南市-鳳台縣",
		"note":null,
		"lang":"中文",
		"shortAuthorityID":"PL15277",
		"names":"",
		"pinyin":[]
	},
	{
		"authorityID":"PL000000015278",
		"mergeTo":null,
		"names":"[] ",
		"pinyin":[]
	},
	{
		"authorityID":"PL000000015279",
		"name":"採石磯",
		"dynasty":"沒有給定朝代",
		"long":"118.453938",
		"lat":"31.648937",
		"districtHistorical":null,
		"districtModern":"中國-安徽省-馬鞍山市-市轄區",
		"note":"採石磯之名，據說因三國東吳時．曾產五彩石，其形狀如蝸牛，有「金牛出渚」之傳說，又名牛渚磯。和岳陽城陵磯、南京燕子磯，合稱「長江三磯」。以風光綺麗，古蹟眾多而列三磯之首，有「千古一秀」之譽。詩人李白曾多次登臨吟詠，寫下了、《牛渚磯》、《夜泊牛渚懷古》等膾炙人口詩篇。（<a target=\"_blank\" href=\"http:\/\/baike.baidu.com\/view\/10245.htm\">http:\/\/baike.baidu.com\/view\/10245.htm<\/a>、<a target=\"_blank\" href=\"http:\/\/zh.wikipedia.org\/zh-tw\/%E9%87%87%E7%9F%B3%E7%9F%B6\">http:\/\/zh.wikipedia.org\/zh-tw\/採石磯<\/a>、<a target=\"_blank\" href=\"http:\/\/www.hudong.com\/wiki\/%E9%87%87%E7%9F%B3%E7%9F%B6\">http:\/\/www.hudong.com\/wiki\/採石磯採石磯<\/a>，2010.03.19；<a target=\"_blank\" href=\"http:\/\/www.chinalibai.com\/news\/1010\/26\/375973440\/\">http:\/\/www.chinalibai.com\/牛渚(牛渚磯)<\/a>，2012.03.06）",
		"lang":"中文",
		"shortAuthorityID":"PL15279",
		"names":"[中文] 牛渚磯,采石磯",
		"pinyin":{
			"牛渚磯":"niú zhǔ jī"
		}
	},
	{
		"authorityID":"PL000000015280",
		"name":"慈湖鎮",
		"dynasty":"北宋",
		"long":"118.5133",
		"lat":"31.7493",
		"districtHistorical":"北宋_江南東路",
		"districtModern":"中國-安徽省-馬鞍山市-金家莊區",
		"note":null,
		"lang":"中文",
		"shortAuthorityID":"PL15280",
		"names":"",
		"pinyin":[]
	},
	{
		"authorityID":"PL000000015281",
		"name":"慈湖鎮",
		"dynasty":"清",
		"long":"118.5229",
		"lat":"31.7531",
		"districtHistorical":"清_安徽",
		"districtModern":"中國-安徽省-馬鞍山市-金家莊區",
		"note":null,
		"lang":"中文",
		"shortAuthorityID":"PL15281",
		"names":"",
		"pinyin":[]
	},
	{
		"authorityID":"PL000000015282",
		"name":"慈湖寨",
		"dynasty":"南宋",
		"long":"118.5117",
		"lat":"31.7466",
		"districtHistorical":"南宋_江南東路",
		"districtModern":"中國-安徽省-馬鞍山市-金家莊區",
		"note":null,
		"lang":"中文",
		"shortAuthorityID":"PL15282",
		"names":"",
		"pinyin":[]
	},
	{
		"authorityID":"PL000000015283",
		"name":"慈湖",
		"dynasty":"元",
		"long":"118.5162",
		"lat":"31.76",
		"districtHistorical":"元_江浙行省",
		"districtModern":"中國-安徽省-馬鞍山市-金家莊區",
		"note":null,
		"lang":"中文",
		"shortAuthorityID":"PL15283",
		"names":"",
		"pinyin":{
			"慈湖":"cí hú"
		}
	},
	{
		"authorityID":"PL000000015284",
		"name":"采石山",
		"dynasty":null,
		"long":"118.454433",
		"lat":"31.651116",
		"districtHistorical":null,
		"districtModern":"中國-安徽省-馬鞍山市-雨山區",
		"note":"一名翠螺山。（明清序：232）",
		"lang":"中文",
		"shortAuthorityID":"PL15284",
		"names":"[中文] 翠螺山",
		"pinyin":{
			"翠螺山":"cuì luó shān"
		}
	},
	{
		"authorityID":"PL000000015285",
		"name":"采石",
		"dynasty":"明",
		"long":"118.4664",
		"lat":"31.6659",
		"districtHistorical":"明_南京",
		"districtModern":"中國-安徽省-馬鞍山市-雨山區",
		"note":null,
		"lang":"中文",
		"shortAuthorityID":"PL15285",
		"names":"",
		"pinyin":[]
	},
	{
		"authorityID":"PL000000015286",
		"name":"采石",
		"dynasty":"元",
		"long":"118.4664",
		"lat":"31.6659",
		"districtHistorical":"元_江浙行省",
		"districtModern":"中國-安徽省-馬鞍山市-雨山區",
		"note":null,
		"lang":"中文",
		"shortAuthorityID":"PL15286",
		"names":"",
		"pinyin":[]
	},
	{
		"authorityID":"PL000000015287",
		"name":"采石鎮",
		"dynasty":"北宋",
		"long":"118.477",
		"lat":"31.6633",
		"districtHistorical":"北宋_江南東路",
		"districtModern":"中國-安徽省-馬鞍山市-雨山區",
		"note":null,
		"lang":"中文",
		"shortAuthorityID":"PL15287",
		"names":"",
		"pinyin":[]
	},
	{
		"authorityID":"PL000000015288",
		"name":"采石戌",
		"dynasty":"唐",
		"long":"118.4689",
		"lat":"31.6674",
		"districtHistorical":"唐_江南西道",
		"districtModern":"中國-安徽省-馬鞍山市-雨山區",
		"note":"位於安徽省馬鞍山市西南5公里處的長江東岸，是長江中游南岸的一個港口。（<a target=\"_blank\" href=\"http:\/\/baike.baidu.com\/view\/10245.htm\">http:\/\/baike.baidu.com\/view\/10245.htm<\/a>，2012.01.12）",
		"lang":"中文",
		"shortAuthorityID":"PL15288",
		"names":"",
		"pinyin":[]
	},
	{
		"authorityID":"PL000000015289",
		"name":"采石",
		"dynasty":"清",
		"long":"118.4762",
		"lat":"31.6647",
		"districtHistorical":"清_安徽",
		"districtModern":"中國-安徽省-馬鞍山市-雨山區",
		"note":null,
		"lang":"中文",
		"shortAuthorityID":"PL15289",
		"names":"",
		"pinyin":[]
	},
	{
		"authorityID":"PL000000015290",
		"name":"采石",
		"dynasty":"隋",
		"long":"118.4606",
		"lat":"31.6658",
		"districtHistorical":"隋_丹陽郡",
		"districtModern":"中國-安徽省-馬鞍山市-雨山區",
		"note":null,
		"lang":"中文",
		"shortAuthorityID":"PL15290",
		"names":"",
		"pinyin":[]
	},
	{
		"authorityID":"PL000000015291",
		"name":"石城",
		"dynasty":"東漢",
		"long":"118.5928",
		"lat":"31.6693",
		"districtHistorical":"東漢_揚州刺史部",
		"districtModern":"中國-安徽省-馬鞍山市-雨山區",
		"note":null,
		"lang":"中文",
		"shortAuthorityID":"PL15291",
		"names":"",
		"pinyin":[]
	},
	{
		"authorityID":"PL000000015292",
		"name":"石城",
		"dynasty":"西漢",
		"long":"118.5928",
		"lat":"31.6693",
		"districtHistorical":"西漢_揚州刺史部",
		"districtModern":"中國-安徽省-馬鞍山市-雨山區",
		"note":null,
		"lang":"中文",
		"shortAuthorityID":"PL15292",
		"names":"",
		"pinyin":[]
	},
	{
		"authorityID":"PL000000015293",
		"name":"東采石",
		"dynasty":"南宋",
		"long":"118.4719",
		"lat":"31.6651",
		"districtHistorical":"南宋_江南東路",
		"districtModern":"中國-安徽省-馬鞍山市-雨山區",
		"note":null,
		"lang":"中文",
		"shortAuthorityID":"PL15293",
		"names":"",
		"pinyin":[]
	},
	{
		"authorityID":"PL000000015294",
		"mergeTo":"PL000000015326",
		"names":"[] ",
		"pinyin":[]
	},
	{
		"authorityID":"PL000000015295",
		"name":"李太白祠",
		"dynasty":"北宋",
		"long":"118.514693",
		"lat":"31.492807",
		"districtHistorical":"",
		"districtModern":"中國-安徽省-馬鞍山市-當塗縣",
		"note":"李白祠約始建於北宋晚期。其墓在當塗（今屬安徽馬鞍山）青山，亦名青林山，座落在山腳下，墓園佔地90餘畝。（<a target=\"_blank\" href=\"http:\/\/zh.wikipedia.org\/wiki\/李白\">http:\/\/zh.wikipedia.org\/wiki\/李白<\/a>、<a target=\"_blank\" href=\"http:\/\/www.ahage.net\/maanshan\/6077_3.html\">http:\/\/www.ahage.net\/maanshan\/6077_3.html<\/a>，2009.05.15）",
		"lang":"中文",
		"shortAuthorityID":"PL15295",
		"names":"[中文] 李白祠,李翰林祠,李白墓",
		"pinyin":[]
	},
	{
		"authorityID":"PL000000015296",
		"name":"姑孰",
		"dynasty":null,
		"long":"118.497741",
		"lat":"31.571073",
		"districtHistorical":null,
		"districtModern":"中國-安徽省-馬鞍山市-當塗縣",
		"note":"是安徽歷史最久的古城之一，因城南姑孰溪而名。（<a target=\"_blank\" href=\"http:\/\/baike.baidu.com\/view\/1755653.html?fromTaglist\">http:\/\/baike.baidu.com\/view\/1755653.html?fromTaglist<\/a>，2009.07.07）",
		"lang":"中文",
		"shortAuthorityID":"PL15296",
		"names":"",
		"pinyin":{
			"姑孰":"gū shú"
		}
	},
	{
		"authorityID":"PL000000015297",
		"name":"當涂",
		"dynasty":null,
		"long":"118.492721",
		"lat":"31.573252",
		"districtHistorical":null,
		"districtModern":"中國-安徽省-馬鞍山市-當塗縣",
		"note":"著名的江南水鄉，素以風光秀麗、人文薈萃聞名。東有石臼湖，西有長江，中有姑溪河。（<a target=\"_blank\" href=\"http:\/\/zh.wikipedia.org\/zh\/%E5%BD%93%E6%B6%82%E5%8E%BF\">http:\/\/zh.wikipedia.org\/zh\/%E5%BD%93%E6%B6%82%E5%8E%BF<\/a>，2010.06.18）",
		"lang":"中文",
		"shortAuthorityID":"PL15297",
		"names":"[中文] 當塗",
		"pinyin":[]
	},
	{
		"authorityID":"PL000000015298",
		"name":"大公圩",
		"dynasty":null,
		"long":"118.492721",
		"lat":"31.573252",
		"districtHistorical":null,
		"districtModern":"中國-安徽省-馬鞍山市-當塗縣",
		"note":"古名官圩和大官圩，又稱十字圩，抗日戰爭勝利後改稱大公圩。該圩昉於三國吳赤烏年間，續築於吳永安三年（260）。（<a target=\"_blank\" href=\"http:\/\/www.ahage.net\/maanshan\/list_32_8.html\">http:\/\/www.ahage.net\/maanshan\/list_32_8.html<\/a>、<a target=\"_blank\" href=\"http:\/\/www.dangtu.gov.cn\/dvbbs\/dv_rss.asp?s=xhtml&boardid=2&id=147274&page=1\">http:\/\/www.dangtu.gov.cn\/dvbbs\/dv_rss.asp?s=xhtml&boardid=2&id=147274&page=1<\/a>，2010.06.22）",
		"lang":"中文",
		"shortAuthorityID":"PL15298",
		"names":"[中文] 官圩,大官圩,十字圩",
		"pinyin":[]
	},
	{
		"authorityID":"PL000000015299",
		"name":"當塗縣",
		"dynasty":"清",
		"long":"118.4924",
		"lat":"31.5545",
		"districtHistorical":"清_安徽",
		"districtModern":"中國-安徽省-馬鞍山市-當塗縣",
		"note":"位於安徽省東部，介於南京與蕪湖之間，地處長三角城市群頂端。清代長江水師提署和安徽學政駐地。（<a target=\"_blank\" href=\"http:\/\/baike.baidu.com\/view\/184675.htm\">http:\/\/baike.baidu.com\/view\/184675.htm<\/a>，2011.12.11）",
		"lang":"中文",
		"shortAuthorityID":"PL15299",
		"names":"",
		"pinyin":[]
	},
	{
		"authorityID":"PL000000015300",
		"name":"栗樹墳",
		"dynasty":null,
		"long":"118.619353",
		"lat":"31.447326",
		"districtHistorical":null,
		"districtModern":"中國-安徽省-馬鞍山市-當塗縣",
		"note":"位於安徽馬鞍山當涂縣大公圩。（g009p0556）",
		"lang":"中文",
		"shortAuthorityID":"PL15300",
		"names":"",
		"pinyin":[]
	},
	{
		"authorityID":"PL000000015301",
		"mergeTo":"PL000000015326",
		"names":"",
		"pinyin":[]
	},
	{
		"authorityID":"PL000000015302",
		"name":"牛落山",
		"dynasty":null,
		"long":"118.603",
		"lat":"31.858",
		"districtHistorical":null,
		"districtModern":"中國-江蘇省-南京市-江寧區",
		"note":"位於小丹陽，在今江寧縣横山鄉陶吳鎮西南十里，與太平州當塗縣接界里俗猶呼丹陽。（T50n2059_p0377c14；淵四．景定建康志．卷十六：22）",
		"lang":"中文",
		"shortAuthorityID":"PL15302",
		"names":"",
		"pinyin":[]
	},
	{
		"authorityID":"PL000000015303",
		"name":"白紵山",
		"dynasty":null,
		"long":"118.531697",
		"lat":"31.572585",
		"districtHistorical":null,
		"districtModern":"中國-安徽省-馬鞍山市-當塗縣",
		"note":"本名楚山。（明清序：241）",
		"lang":"中文",
		"shortAuthorityID":"PL15303",
		"names":"[中文] 楚山",
		"pinyin":{
			"楚山":"chǔ shān"
		}
	},
	{
		"authorityID":"PL000000015304",
		"name":"乳山",
		"dynasty":null,
		"long":"118.496754",
		"lat":"31.562356",
		"districtHistorical":null,
		"districtModern":"中國-安徽省-馬鞍山市-當塗縣",
		"note":"（明清序：236）",
		"lang":"中文",
		"shortAuthorityID":"PL15304",
		"names":"",
		"pinyin":{
			"乳山":"rǔ shān"
		}
	},
	{
		"authorityID":"PL000000015305",
		"name":"青山",
		"dynasty":"沒有給定朝代",
		"long":"118.535579",
		"lat":"31.491813",
		"districtHistorical":null,
		"districtModern":"中國-安徽省-馬鞍山市-當塗縣",
		"note":"齊謝玄暉守宣城時建别宅于此山，而毎經遊焉。唐天寶十二年（753），敕改謝公山。山高372米，對徑20餘公里。山上鳥道迂迴，林木蔥鬱。面臨長江，地理位置顯要，自古以來是兵家必爭之地。上有青山寺。（淵四．青山集．附録：2；明清序：280；歷地史：2633；<a target=\"_blank\" href=\"http:\/\/baike.baidu.com\/view\/59067.htm#7\">http:\/\/baike.baidu.com\/view\/59067.htm#7<\/a>；<a target=\"_blank\" href=\"http:\/\/baike.baidu.com\/view\/9173750.htm\">http:\/\/baike.baidu.com\/view\/9173750.htm<\/a>，2012.08.20）",
		"lang":"中文",
		"shortAuthorityID":"PL15305",
		"names":"[中文] 大青山,李家山,青林山,謝公山,謝家山,桓墓山",
		"pinyin":{
			"青山":"qīng shān",
			"大青山":"dà qīng shān",
			"李家山":"lǐ jiā shān",
			"青林山":"qīng lín shān",
			"謝公山":"xiè gōng shān",
			"謝家山":"xiè jiā shān",
			"桓墓山":"huán mù shān"
		}
	},
	{
		"authorityID":"PL000000015306",
		"name":"龍淵精舍",
		"dynasty":null,
		"long":"0",
		"lat":"0",
		"districtHistorical":null,
		"districtModern":"中國-安徽省-馬鞍山市-當塗縣",
		"note":"丹陽鎮",
		"lang":"中文",
		"shortAuthorityID":"PL15306",
		"names":"",
		"pinyin":[]
	},
	{
		"authorityID":"PL000000015307",
		"name":"報恩光孝禪寺",
		"dynasty":"唐",
		"long":"118.488674",
		"lat":"31.55037",
		"districtHistorical":null,
		"districtModern":"中國-安徽省-馬鞍山市-當塗縣",
		"note":"在當塗縣南門内，唐貞觀二年建。今團結街小學地址，南寺巷由此而來。又稱駢竹院。乾道年間，僧景華重建殿堂樓閣。清順治十年，郡紳鐘斗倡募重建大殿及大悲閣。清順治十八年，僧大拯募眾金重修，立一碑於佛殿西廊，嵌壁間，明鏡如拭。（唐寺考：217；<a target=\"_blank\" href=\"http:\/\/www.ahage.net\/maanshan\/6196.html\">http:\/\/www.ahage.net\/maanshan\/6196.html<\/a>，2011.10.27；淵四．大清一統志．卷八十四：22；四部續．嘉慶一統志．太平府二：3）",
		"lang":"中文",
		"shortAuthorityID":"PL15307",
		"names":"[中文] 駢竹院",
		"pinyin":{
			"報恩光孝禪寺":"bào ēn guāng xiào chán sì",
			"駢竹院":"pián zhú yuàn"
		}
	},
	{
		"authorityID":"PL000000015308",
		"name":"古麓心寺",
		"dynasty":"唐",
		"long":"118.467456",
		"lat":"31.620413",
		"districtHistorical":null,
		"districtModern":"中國-安徽省-馬鞍山市-雨山區",
		"note":"在當塗縣西北，寶積山。唐武徳四年建。（唐寺考：218；淵四．大清一統志．卷八十四：22；四部續．嘉慶一統志．太平府二：3）",
		"lang":"中文",
		"shortAuthorityID":"PL15308",
		"names":"",
		"pinyin":{
			"古麓心寺":"gǔ lù xīn sì"
		}
	},
	{
		"authorityID":"PL000000015309",
		"name":"化城寺",
		"dynasty":"孫吳",
		"long":"118.485234",
		"lat":"31.560975",
		"districtHistorical":null,
		"districtModern":"中國-安徽省-馬鞍山市-當塗縣",
		"note":"古寺名。廢址在今安徽當涂 。 唐 李白〈陪族叔當涂宰游化城寺升公清風亭〉詩：「化城若化出，金榜天宮開。」王琦注引《太平府志》：「古化城寺，在府城內向化橋西禮賢坊，吳大帝時建，基址最廣。」 （唐寺考：219；<a target=\"_blank\" href=\"http:\/\/www.zdic.net\/cd\/ci\/4\/ZdicE5Zdic8CZdic9687029.htm\">http:\/\/www.zdic.net\/化城<\/a>、<a target=\"_blank\" href=\"http:\/\/www.360doc.com\/content\/10\/0914\/13\/1400178_53562605.shtml\">http:\/\/www.360doc.com\/當塗城關城郊遺蹟<\/a>，2012.03.07）",
		"lang":"中文",
		"shortAuthorityID":"PL15309",
		"names":"",
		"pinyin":[]
	},
	{
		"authorityID":"PL000000015310",
		"name":"白雲寺",
		"dynasty":null,
		"long":"118.541902",
		"lat":"31.50148",
		"districtHistorical":null,
		"districtModern":"中國-安徽省-馬鞍山市-當塗縣",
		"note":"在當塗縣東南，青山。晉咸寧四年建，（明清序：241；淵四．大清一統志．卷八十四：22；四部續．嘉慶一統志．太平府二：3）",
		"lang":"中文",
		"shortAuthorityID":"PL15310",
		"names":"",
		"pinyin":{
			"白雲寺":"bái yún sì"
		}
	},
	{
		"authorityID":"PL000000015311",
		"name":"丹陽",
		"dynasty":"南齊",
		"long":"118.715",
		"lat":"31.6229",
		"districtHistorical":"南朝 齊_揚州",
		"districtModern":"中國-安徽省-馬鞍山市-當塗縣",
		"note":"",
		"lang":"中文",
		"shortAuthorityID":"PL15311",
		"names":"",
		"pinyin":{
			"丹陽":"dān yáng"
		}
	},
	{
		"authorityID":"PL000000015312",
		"name":"薛店鎮",
		"dynasty":"清",
		"long":"118.663",
		"lat":"31.5907",
		"districtHistorical":"清_安徽",
		"districtModern":"中國-安徽省-馬鞍山市-當塗縣",
		"note":null,
		"lang":"中文",
		"shortAuthorityID":"PL15312",
		"names":"",
		"pinyin":[]
	},
	{
		"authorityID":"PL000000015313",
		"name":"博望",
		"dynasty":"清",
		"long":"118.856",
		"lat":"31.5611",
		"districtHistorical":"清_安徽",
		"districtModern":"中國-安徽省-馬鞍山市-當塗縣",
		"note":null,
		"lang":"中文",
		"shortAuthorityID":"PL15313",
		"names":"",
		"pinyin":{
			"博望":"bó wàng"
		}
	},
	{
		"authorityID":"PL000000015314",
		"name":"薛店鎮",
		"dynasty":"北宋",
		"long":"118.6757",
		"lat":"31.5579",
		"districtHistorical":"北宋_江南東路",
		"districtModern":"中國-安徽省-馬鞍山市-當塗縣",
		"note":null,
		"lang":"中文",
		"shortAuthorityID":"PL15314",
		"names":"",
		"pinyin":[]
	},