[
	{
		"authorityID":"PL000000002001",
		"name":"鉅鹿",
		"dynasty":"東漢",
		"long":"114.911",
		"lat":"36.9889",
		"districtHistorical":"東漢_冀州刺史部",
		"districtModern":"中國-河北省-邢臺市-平鄉縣",
		"note":null,
		"lang":"中文",
		"shortAuthorityID":"PL2001",
		"names":"",
		"pinyin":[]
	},
	{
		"authorityID":"PL000000002002",
		"name":"鉅鹿",
		"dynasty":"西漢",
		"long":"114.911",
		"lat":"36.9889",
		"districtHistorical":"西漢_冀州刺史部",
		"districtModern":"中國-河北省-邢臺市-平鄉縣",
		"note":null,
		"lang":"中文",
		"shortAuthorityID":"PL2002",
		"names":"",
		"pinyin":[]
	},
	{
		"authorityID":"PL000000002003",
		"name":"鉅鹿郡",
		"dynasty":"西漢",
		"long":"114.911",
		"lat":"36.9889",
		"districtHistorical":"西漢_冀州刺史部",
		"districtModern":"中國-河北省-邢臺市-平鄉縣",
		"note":null,
		"lang":"中文",
		"shortAuthorityID":"PL2003",
		"names":"",
		"pinyin":[]
	},
	{
		"authorityID":"PL000000002004",
		"name":"平鄉",
		"dynasty":"明",
		"long":"114.9045",
		"lat":"36.9871",
		"districtHistorical":"明_京師",
		"districtModern":"中國-河北省-邢臺市-平鄉縣",
		"note":null,
		"lang":"中文",
		"shortAuthorityID":"PL2004",
		"names":"",
		"pinyin":[]
	},
	{
		"authorityID":"PL000000002005",
		"name":"平鄉",
		"dynasty":"元",
		"long":"114.9045",
		"lat":"36.9871",
		"districtHistorical":"元_中書省",
		"districtModern":"中國-河北省-邢臺市-平鄉縣",
		"note":null,
		"lang":"中文",
		"shortAuthorityID":"PL2005",
		"names":"",
		"pinyin":[]
	},
	{
		"authorityID":"PL000000002006",
		"name":"鉅鹿",
		"dynasty":"北魏",
		"long":"114.919",
		"lat":"36.985",
		"districtHistorical":"北朝 魏_相州",
		"districtModern":"中國-河北省-邢臺市-平鄉縣",
		"note":null,
		"lang":"中文",
		"shortAuthorityID":"PL2006",
		"names":"",
		"pinyin":[]
	},
	{
		"authorityID":"PL000000002007",
		"name":"鉅鹿",
		"dynasty":"西晉",
		"long":"114.9109",
		"lat":"36.9846",
		"districtHistorical":"西晉_冀州",
		"districtModern":"中國-河北省-邢臺市-平鄉縣",
		"note":"邢台市下屬縣，為鉅鹿古戰場，歷史上著名的項羽破釜沉舟之戰就發生在這裡。戰國趙邑，秦置縣，漢因之，即今河北省平鄉縣治，《元和志》平鄉縣，秦為鉅鹿郡，張耳與趙王歇走入鉅鹿城，王離圍之，即此地也，《寰宇記》後魏景明中，移鉅鹿縣於舊城之東三十里，自平鄉故城移平鄉以理之 。（<a target=\"_blank\" href=\"http:\/\/baike.baidu.com\/view\/26956.htm\">http:\/\/baike.baidu.com\/view\/26956.htm<\/a>、<a target=\"_blank\" href=\"http:\/\/zh.wikipedia.org\/wiki\/%E9%89%85%E9%B9%BF%E9%83%A1\">http:\/\/zh.wikipedia.org\/wiki\/%E9%89%85%E9%B9%BF%E9%83%A1<\/a>，2012.08.08）",
		"lang":"中文",
		"shortAuthorityID":"PL2007",
		"names":"",
		"pinyin":[]
	},
	{
		"authorityID":"PL000000002008",
		"name":"鉅鹿",
		"dynasty":"曹魏",
		"long":"114.9109",
		"lat":"36.9846",
		"districtHistorical":"三國 魏_冀州",
		"districtModern":"中國-河北省-邢臺市-平鄉縣",
		"note":null,
		"lang":"中文",
		"shortAuthorityID":"PL2008",
		"names":"",
		"pinyin":[]
	},
	{
		"authorityID":"PL000000002009",
		"name":"平鄉",
		"dynasty":"清",
		"long":"114.9126",
		"lat":"36.9839",
		"districtHistorical":"清_直隸",
		"districtModern":"中國-河北省-邢臺市-平鄉縣",
		"note":null,
		"lang":"中文",
		"shortAuthorityID":"PL2009",
		"names":"",
		"pinyin":[]
	},
	{
		"authorityID":"PL000000002010",
		"name":"平鄉",
		"dynasty":"隋",
		"long":"114.9081",
		"lat":"36.9835",
		"districtHistorical":"隋_襄國郡",
		"districtModern":"中國-河北省-邢臺市-平鄉縣",
		"note":null,
		"lang":"中文",
		"shortAuthorityID":"PL2010",
		"names":"",
		"pinyin":[]
	},
	{
		"authorityID":"PL000000002011",
		"name":"高阜鎮",
		"dynasty":"清",
		"long":"115.0782",
		"lat":"36.9826",
		"districtHistorical":"清_直隸",
		"districtModern":"中國-河北省-邢臺市-平鄉縣",
		"note":null,
		"lang":"中文",
		"shortAuthorityID":"PL2011",
		"names":"",
		"pinyin":[]
	},
	{
		"authorityID":"PL000000002012",
		"name":"常河鎮",
		"dynasty":"清",
		"long":"115.0038",
		"lat":"36.9824",
		"districtHistorical":"清_直隸",
		"districtModern":"中國-河北省-邢臺市-平鄉縣",
		"note":null,
		"lang":"中文",
		"shortAuthorityID":"PL2012",
		"names":"",
		"pinyin":[]
	},
	{
		"authorityID":"PL000000002013",
		"name":"平鄉",
		"dynasty":"唐",
		"long":"114.91",
		"lat":"36.9819",
		"districtHistorical":"唐_河北道",
		"districtModern":"中國-河北省-邢臺市-平鄉縣",
		"note":null,
		"lang":"中文",
		"shortAuthorityID":"PL2013",
		"names":"",
		"pinyin":[]
	},
	{
		"authorityID":"PL000000002014",
		"name":"鉅鹿",
		"dynasty":"秦",
		"long":"114.9279",
		"lat":"36.9794",
		"districtHistorical":"秦_巨鹿郡",
		"districtModern":"中國-河北省-邢臺市-平鄉縣",
		"note":null,
		"lang":"中文",
		"shortAuthorityID":"PL2014",
		"names":"",
		"pinyin":[]
	},
	{
		"authorityID":"PL000000002015",
		"name":"鉅鹿郡",
		"dynasty":"秦",
		"long":"114.9279",
		"lat":"36.9794",
		"districtHistorical":"秦_巨鹿郡",
		"districtModern":"中國-河北省-邢臺市-平鄉縣",
		"note":null,
		"lang":"中文",
		"shortAuthorityID":"PL2015",
		"names":"",
		"pinyin":[]
	},
	{
		"authorityID":"PL000000002016",
		"name":"平鄉",
		"dynasty":"北宋",
		"long":"114.9081",
		"lat":"36.9782",
		"districtHistorical":"北宋_河北西路",
		"districtModern":"中國-河北省-邢臺市-平鄉縣",
		"note":null,
		"lang":"中文",
		"shortAuthorityID":"PL2016",
		"names":"",
		"pinyin":[]
	},
	{
		"authorityID":"PL000000002017",
		"name":"七級堡",
		"dynasty":"清",
		"long":"115.366",
		"lat":"37.2687",
		"districtHistorical":"清_直隸",
		"districtModern":"中國-河北省-邢臺市-威縣",
		"note":null,
		"lang":"中文",
		"shortAuthorityID":"PL2017",
		"names":"",
		"pinyin":[]
	},
	{
		"authorityID":"PL000000002018",
		"name":"經城",
		"dynasty":"隋",
		"long":"115.2966",
		"lat":"37.2348",
		"districtHistorical":"隋_清河郡",
		"districtModern":"中國-河北省-邢臺市-威縣",
		"note":null,
		"lang":"中文",
		"shortAuthorityID":"PL2018",
		"names":"",
		"pinyin":[]
	},
	{
		"authorityID":"PL000000002019",
		"name":"經城",
		"dynasty":"唐",
		"long":"115.3032",
		"lat":"37.2294",
		"districtHistorical":"唐_河北道",
		"districtModern":"中國-河北省-邢臺市-威縣",
		"note":null,
		"lang":"中文",
		"shortAuthorityID":"PL2019",
		"names":"",
		"pinyin":[]
	},
	{
		"authorityID":"PL000000002020",
		"name":"經城鎮",
		"dynasty":"北宋",
		"long":"115.3117",
		"lat":"37.2063",
		"districtHistorical":"北宋_河北東路",
		"districtModern":"中國-河北省-邢臺市-威縣",
		"note":null,
		"lang":"中文",
		"shortAuthorityID":"PL2020",
		"names":"",
		"pinyin":[]
	},
	{
		"authorityID":"PL000000002021",
		"name":"經縣",
		"dynasty":"北魏",
		"long":"115.2798",
		"lat":"37.1892",
		"districtHistorical":"北朝 魏_冀州",
		"districtModern":"中國-河北省-邢臺市-威縣",
		"note":null,
		"lang":"中文",
		"shortAuthorityID":"PL2021",
		"names":"",
		"pinyin":[]
	},
	{
		"authorityID":"PL000000002022",
		"name":"張臺村",
		"dynasty":"清",
		"long":"115.3445",
		"lat":"37.166",
		"districtHistorical":"清_直隸",
		"districtModern":"中國-河北省-邢臺市-威縣",
		"note":null,
		"lang":"中文",
		"shortAuthorityID":"PL2022",
		"names":"",
		"pinyin":[]
	},
	{
		"authorityID":"PL000000002023",
		"name":"經縣",
		"dynasty":"西晉",
		"long":"115.2485",
		"lat":"37.1424",
		"districtHistorical":"西晉_冀州",
		"districtModern":"中國-河北省-邢臺市-威縣",
		"note":null,
		"lang":"中文",
		"shortAuthorityID":"PL2023",
		"names":"",
		"pinyin":[]
	},
	{
		"authorityID":"PL000000002024",
		"name":"經縣",
		"dynasty":"曹魏",
		"long":"115.2554",
		"lat":"37.1414",
		"districtHistorical":"三國 魏_冀州",
		"districtModern":"中國-河北省-邢臺市-威縣",
		"note":null,
		"lang":"中文",
		"shortAuthorityID":"PL2024",
		"names":"",
		"pinyin":[]
	},
	{
		"authorityID":"PL000000002025",
		"name":"薄落津",
		"dynasty":"曹魏",
		"long":"115.2554",
		"lat":"37.1414",
		"districtHistorical":"三國 魏_冀州",
		"districtModern":"中國-河北省-邢臺市-威縣",
		"note":null,
		"lang":"中文",
		"shortAuthorityID":"PL2025",
		"names":"",
		"pinyin":[]
	},
	{
		"authorityID":"PL000000002026",
		"name":"經縣",
		"dynasty":"東漢",
		"long":"115.266",
		"lat":"37.1327",
		"districtHistorical":"東漢_冀州刺史部",
		"districtModern":"中國-河北省-邢臺市-威縣",
		"note":null,
		"lang":"中文",
		"shortAuthorityID":"PL2026",
		"names":"",
		"pinyin":[]
	},
	{
		"authorityID":"PL000000002027",
		"name":"經縣",
		"dynasty":"西漢",
		"long":"115.266",
		"lat":"37.1327",
		"districtHistorical":"西漢_冀州刺史部",
		"districtModern":"中國-河北省-邢臺市-威縣",
		"note":null,
		"lang":"中文",
		"shortAuthorityID":"PL2027",
		"names":"",
		"pinyin":[]
	},
	{
		"authorityID":"PL000000002028",
		"name":"廣宗",
		"dynasty":"西晉",
		"long":"115.3292",
		"lat":"36.9873",
		"districtHistorical":"西晉_冀州",
		"districtModern":"中國-河北省-邢臺市-威縣",
		"note":null,
		"lang":"中文",
		"shortAuthorityID":"PL2028",
		"names":"",
		"pinyin":[]
	},
	{
		"authorityID":"PL000000002029",
		"name":"廣宗",
		"dynasty":"曹魏",
		"long":"115.3292",
		"lat":"36.9873",
		"districtHistorical":"三國 魏_冀州",
		"districtModern":"中國-河北省-邢臺市-威縣",
		"note":null,
		"lang":"中文",
		"shortAuthorityID":"PL2029",
		"names":"",
		"pinyin":[]
	},
	{
		"authorityID":"PL000000002030",
		"name":"建興郡",
		"dynasty":"前秦",
		"long":"115.3155",
		"lat":"36.981",
		"districtHistorical":"前秦",
		"districtModern":"中國-河北省-邢臺市-威縣",
		"note":null,
		"lang":"中文",
		"shortAuthorityID":"PL2030",
		"names":"",
		"pinyin":[]
	},
	{
		"authorityID":"PL000000002031",
		"name":"宗城",
		"dynasty":"唐",
		"long":"115.3293",
		"lat":"36.9749",
		"districtHistorical":"唐_河北道",
		"districtModern":"中國-河北省-邢臺市-威縣",
		"note":null,
		"lang":"中文",
		"shortAuthorityID":"PL2031",
		"names":"",
		"pinyin":{
			"宗城":"zōng chéng"
		}
	},
	{
		"authorityID":"PL000000002032",
		"name":"威縣",
		"dynasty":"清",
		"long":"115.2687",
		"lat":"36.9734",
		"districtHistorical":"清_直隸",
		"districtModern":"中國-河北省-邢臺市-威縣",
		"note":null,
		"lang":"中文",
		"shortAuthorityID":"PL2032",
		"names":"",
		"pinyin":[]
	},
	{
		"authorityID":"PL000000002033",
		"name":"威縣",
		"dynasty":"明",
		"long":"115.2687",
		"lat":"36.9734",
		"districtHistorical":"明_京師",
		"districtModern":"中國-河北省-邢臺市-威縣",
		"note":"位於河北省東南部，華北平原南部，屬冀南低平原區。明洪武二年（1369）四月降威州為威縣，屬廣平府。（<a target=\"_blank\" href=\"http:\/\/baike.baidu.com\/view\/40001.htm\">http:\/\/baike.baidu.com\/威縣<\/a>，2012.04.09）",
		"lang":"中文",
		"shortAuthorityID":"PL2033",
		"names":"",
		"pinyin":[]
	},
	{
		"authorityID":"PL000000002034",
		"name":"洺水",
		"dynasty":"元",
		"long":"115.2687",
		"lat":"36.9734",
		"districtHistorical":"元_中書省",
		"districtModern":"中國-河北省-邢臺市-威縣",
		"note":"今河北省威縣北。（<a target=\"_blank\" href=\"http:\/\/zh.wikipedia.org\/wiki\/%E6%B4%BA%E6%B0%B4%E5%8E%BF\">http:\/\/zh.wikipedia.org\/wiki\/%E6%B4%BA%E6%B0%B4%E5%8E%BF<\/a>，2011.06.10）",
		"lang":"中文",
		"shortAuthorityID":"PL2034",
		"names":"",
		"pinyin":{
			"洺水":"míng shuǐ"
		}
	},
	{
		"authorityID":"PL000000002035",
		"name":"廣宗",
		"dynasty":"東漢",
		"long":"115.34",
		"lat":"36.973",
		"districtHistorical":"東漢_冀州刺史部",
		"districtModern":"中國-河北省-邢臺市-威縣",
		"note":null,
		"lang":"中文",
		"shortAuthorityID":"PL2035",
		"names":"",
		"pinyin":[]
	},
	{
		"authorityID":"PL000000002036",
		"name":"廣宗",
		"dynasty":"北魏",
		"long":"115.3508",
		"lat":"36.9702",
		"districtHistorical":"北朝 魏_冀州",
		"districtModern":"中國-河北省-邢臺市-威縣",
		"note":null,
		"lang":"中文",
		"shortAuthorityID":"PL2036",
		"names":"",
		"pinyin":[]
	},
	{
		"authorityID":"PL000000002037",
		"name":"宗城",
		"dynasty":"隋",
		"long":"115.3229",
		"lat":"36.9685",
		"districtHistorical":"隋_清河郡",
		"districtModern":"中國-河北省-邢臺市-威縣",
		"note":null,
		"lang":"中文",
		"shortAuthorityID":"PL2037",
		"names":"",
		"pinyin":{
			"宗城":"zōng chéng"
		}
	},
	{
		"authorityID":"PL000000002038",
		"name":"宗城",
		"dynasty":"北宋",
		"long":"115.5493",
		"lat":"36.9601",
		"districtHistorical":"北宋_河北東路",
		"districtModern":"中國-河北省-邢臺市-威縣",
		"note":null,
		"lang":"中文",
		"shortAuthorityID":"PL2038",
		"names":"",
		"pinyin":{
			"宗城":"zōng chéng"
		}
	},
	{
		"authorityID":"PL000000002039",
		"name":"大寨堡",
		"dynasty":"清",
		"long":"115.4164",
		"lat":"36.9191",
		"districtHistorical":"清_直隸",
		"districtModern":"中國-河北省-邢臺市-威縣",
		"note":null,
		"lang":"中文",
		"shortAuthorityID":"PL2039",
		"names":"",
		"pinyin":[]
	},
	{
		"authorityID":"PL000000002040",
		"name":"上曰",
		"dynasty":"西晉",
		"long":"115.2676",
		"lat":"36.8786",
		"districtHistorical":"西晉_司州",
		"districtModern":"中國-河北省-邢臺市-威縣",
		"note":null,
		"lang":"中文",
		"shortAuthorityID":"PL2040",
		"names":"",
		"pinyin":[]
	},
	{
		"authorityID":"PL000000002041",
		"name":"威州",
		"dynasty":"元",
		"long":"115.2687",
		"lat":"36.9734",
		"districtHistorical":"元_中書省",
		"districtModern":"中國-河北省-邢臺市-威縣",
		"note":null,
		"lang":"中文",
		"shortAuthorityID":"PL2041",
		"names":"",
		"pinyin":{
			"威州":"wēi zhōu"
		}
	},
	{
		"authorityID":"PL000000002042",
		"name":"極樂",
		"dynasty":null,
		"long":"115.666926",
		"lat":"37.070964",
		"districtHistorical":null,
		"districtModern":"中國-河北省-邢臺市-清河縣",
		"note":"（明清序：266）",
		"lang":"中文",
		"shortAuthorityID":"PL2042",
		"names":"",
		"pinyin":[]
	},
	{
		"authorityID":"PL000000002043",
		"name":"蓮家堡",
		"dynasty":"清",
		"long":"115.7852",
		"lat":"37.115",
		"districtHistorical":"清_直隸",
		"districtModern":"中國-河北省-邢臺市-清河縣",
		"note":null,
		"lang":"中文",
		"shortAuthorityID":"PL2043",
		"names":"",
		"pinyin":[]
	},
	{
		"authorityID":"PL000000002044",
		"name":"貝州",
		"dynasty":"唐",
		"long":"115.6007",
		"lat":"37.0942",
		"districtHistorical":"唐_河北道",
		"districtModern":"中國-河北省-邢臺市-清河縣",
		"note":"隋為清河郡。武德四年，平竇建德，置貝州，領清河、武城、漳南、歷亭、清陽、鄃、夏津七縣。六年，移治所於歷亭。八年，還於舊治。九年，以廢宗州之宗城、經城來屬，又以廢毛州之臨清來屬。天寶元年，改為清河郡。乾元元年，復為貝州。（<a target=\"_blank\" href=\"http:\/\/zh.wikisource.org\/zh-hant\/%E8%88%8A%E5%94%90%E6%9B%B8\/%E5%8D%B739\">http:\/\/zh.wikisource.org\/zh-hant\/%E8%88%8A%E5%94%90%E6%9B%B8\/%E5%8D%B739<\/a>，2011.10.03）",
		"lang":"中文",
		"shortAuthorityID":"PL2044",
		"names":"[中文] 清河郡",
		"pinyin":{
			"貝州":"bèi zhōu"
		}
	},
	{
		"authorityID":"PL000000002045",
		"name":"清河",
		"dynasty":"唐",
		"long":"115.6007",
		"lat":"37.0942",
		"districtHistorical":"唐_河北道",
		"districtModern":"中國-河北省-邢臺市-清河縣",
		"note":"隋屬清河郡管轄，武德四年，平竇建德，置貝州，管轄清河縣七縣。（g077p0316；<a target=\"_blank\" href=\"http:\/\/zh.wikisource.org\/zh-hant\/%E8%88%8A%E5%94%90%E6%9B%B8\/%E5%8D%B739\">http:\/\/zh.wikisource.org\/zh-hant\/%E8%88%8A%E5%94%90%E6%9B%B8\/%E5%8D%B739<\/a>，2011.11.24）",
		"lang":"中文",
		"shortAuthorityID":"PL2045",
		"names":"[中文] 青河",
		"pinyin":[]
	},
	{
		"authorityID":"PL000000002046",
		"name":"清陽",
		"dynasty":"唐",
		"long":"115.6007",
		"lat":"37.0942",
		"districtHistorical":"唐_河北道",
		"districtModern":"中國-河北省-邢臺市-清河縣",
		"note":"武德四年，分置夏津縣。九年，復省。舊治甘陵城。永昌元年，移治於孔橋。開 元二十三年，移就州治。（<a target=\"_blank\" href=\"http:\/\/zh.wikisource.org\/wiki\/%E8%88%8A%E5%94%90%E6%9B%B8\/%E5%8D%B739\">http:\/\/zh.wikisource.org\/wiki\/%E8%88%8A%E5%94%90%E6%9B%B8\/%E5%8D%B739<\/a>，2012.01.17）",
		"lang":"中文",
		"shortAuthorityID":"PL2046",
		"names":"",
		"pinyin":[]
	},
	{
		"authorityID":"PL000000002047",
		"name":"清河",
		"dynasty":"清",
		"long":"115.6296",
		"lat":"37.0825",
		"districtHistorical":"清_直隸",
		"districtModern":"中國-河北省-邢臺市-清河縣",
		"note":null,
		"lang":"中文",
		"shortAuthorityID":"PL2047",
		"names":"",
		"pinyin":[]
	},
	{
		"authorityID":"PL000000002048",
		"name":"侯城",
		"dynasty":"北魏",
		"long":"115.8135",
		"lat":"37.0732",
		"districtHistorical":"北朝 魏_相州",
		"districtModern":"中國-河北省-邢臺市-清河縣",
		"note":null,
		"lang":"中文",
		"shortAuthorityID":"PL2048",
		"names":"",
		"pinyin":[]
	},
	{
		"authorityID":"PL000000002049",
		"name":"清河",
		"dynasty":"明",
		"long":"115.6345",
		"lat":"37.0697",
		"districtHistorical":"明_京師",
		"districtModern":"中國-河北省-邢臺市-清河縣",
		"note":null,
		"lang":"中文",
		"shortAuthorityID":"PL2049",
		"names":"",
		"pinyin":[]
	},
	{
		"authorityID":"PL000000002050",
		"name":"清河",
		"dynasty":"元",
		"long":"115.6345",
		"lat":"37.0697",
		"districtHistorical":"元_中書省",
		"districtModern":"中國-河北省-邢臺市-清河縣",
		"note":null,
		"lang":"中文",
		"shortAuthorityID":"PL2050",
		"names":"",
		"pinyin":[]
	},
	{
		"authorityID":"PL000000002051",
		"name":"恩州",
		"dynasty":"北宋",
		"long":"115.6331",
		"lat":"37.0679",
		"districtHistorical":"北宋_河北東路",
		"districtModern":"中國-河北省-邢臺市-清河縣",
		"note":null,
		"lang":"中文",
		"shortAuthorityID":"PL2051",
		"names":"",
		"pinyin":{
			"恩州":"ēn zhōu"
		}
	},
	{
		"authorityID":"PL000000002052",
		"name":"清河",
		"dynasty":"北宋",
		"long":"115.6331",
		"lat":"37.0679",
		"districtHistorical":"北宋_河北東路",
		"districtModern":"中國-河北省-邢臺市-清河縣",
		"note":null,
		"lang":"中文",
		"shortAuthorityID":"PL2052",
		"names":"",
		"pinyin":[]
	},
	{
		"authorityID":"PL000000002053",
		"name":"寧化鎮",
		"dynasty":"北宋",
		"long":"115.6331",
		"lat":"37.0679",
		"districtHistorical":"北宋_河北東路",
		"districtModern":"中國-河北省-邢臺市-清河縣",
		"note":null,
		"lang":"中文",
		"shortAuthorityID":"PL2053",
		"names":"",
		"pinyin":[]
	},
	{
		"authorityID":"PL000000002054",
		"name":"貝州",
		"dynasty":"五代十國",
		"long":"115.6743",
		"lat":"37.0636",
		"districtHistorical":"五代十國_晉",
		"districtModern":"中國-河北省-邢臺市-清河縣",
		"note":null,
		"lang":"中文",
		"shortAuthorityID":"PL2054",
		"names":"",
		"pinyin":{
			"貝州":"bèi zhōu"
		}
	},
	{
		"authorityID":"PL000000002055",
		"name":"清陽",
		"dynasty":"西晉",
		"long":"115.7631",
		"lat":"37.0516",
		"districtHistorical":"西晉_冀州",
		"districtModern":"中國-河北省-邢臺市-清河縣",
		"note":null,
		"lang":"中文",
		"shortAuthorityID":"PL2055",
		"names":"",
		"pinyin":[]
	},
	{
		"authorityID":"PL000000002056",
		"name":"郭家屯",
		"dynasty":"清",
		"long":"115.77",
		"lat":"37.0494",
		"districtHistorical":"清_直隸",
		"districtModern":"中國-河北省-邢臺市-清河縣",
		"note":null,
		"lang":"中文",
		"shortAuthorityID":"PL2056",
		"names":"",
		"pinyin":[]
	},
	{
		"authorityID":"PL000000002057",
		"name":"清河郡",
		"dynasty":"西漢",
		"long":"115.7719",
		"lat":"37.0382",
		"districtHistorical":"西漢_冀州刺史部",
		"districtModern":"中國-河北省-邢臺市-清河縣",
		"note":null,
		"lang":"中文",
		"shortAuthorityID":"PL2057",
		"names":"",
		"pinyin":[]
	},
	{
		"authorityID":"PL000000002058",
		"name":"清陽",
		"dynasty":"西漢",
		"long":"115.7719",
		"lat":"37.0382",
		"districtHistorical":"西漢_冀州刺史部",
		"districtModern":"中國-河北省-邢臺市-清河縣",
		"note":null,
		"lang":"中文",
		"shortAuthorityID":"PL2058",
		"names":"",
		"pinyin":[]
	},
	{
		"authorityID":"PL000000002059",
		"name":"謝爐堡",
		"dynasty":"清",
		"long":"115.7172",
		"lat":"37.0353",
		"districtHistorical":"清_直隸",
		"districtModern":"中國-河北省-邢臺市-清河縣",
		"note":null,
		"lang":"中文",
		"shortAuthorityID":"PL2059",
		"names":"",
		"pinyin":[]
	},
	{
		"authorityID":"PL000000002060",
		"name":"油坊鋪",
		"dynasty":"清",
		"long":"115.7761",
		"lat":"37.0127",
		"districtHistorical":"清_直隸",
		"districtModern":"中國-河北省-邢臺市-清河縣",
		"note":null,
		"lang":"中文",
		"shortAuthorityID":"PL2060",
		"names":"",
		"pinyin":[]
	},
	{
		"authorityID":"PL000000002061",
		"name":"邵固堡",
		"dynasty":"清",
		"long":"115.5526",
		"lat":"36.9675",
		"districtHistorical":"清_直隸",
		"districtModern":"中國-河北省-邢臺市-清河縣",
		"note":null,
		"lang":"中文",
		"shortAuthorityID":"PL2061",
		"names":"",
		"pinyin":[]
	},
	{
		"authorityID":"PL000000002062",
		"name":"二哥營",
		"dynasty":"清",
		"long":"115.7584",
		"lat":"36.9487",
		"districtHistorical":"清_直隸",
		"districtModern":"中國-河北省-邢臺市-清河縣",
		"note":null,
		"lang":"中文",
		"shortAuthorityID":"PL2062",
		"names":"",
		"pinyin":[]
	},
	{
		"authorityID":"PL000000002063",
		"name":"王舍城寺",
		"dynasty":"沒有給定朝代",
		"long":"115.495285",
		"lat":"36.870983",
		"districtHistorical":"",
		"districtModern":"中國-河北省-邢臺市-臨西縣",
		"note":"臨清縣東北隅有王舍城佛刹。内東邊一殿極古四壁，皆吳生畫禪宗故事。其書不知誰人，類褚河南（褚遂良）。循例接勞北使，及使遼者過，則縣大夫自請遊觀。仍粉牓誌使者姓名。（淵四．圖畫見聞誌．卷六：12）",
		"lang":"中文",
		"shortAuthorityID":"PL2063",
		"names":"",
		"pinyin":[]
	},
	{
		"authorityID":"PL000000002064",
		"name":"王家淺",
		"dynasty":"清",
		"long":"115.7295",
		"lat":"36.9198",
		"districtHistorical":"清_山東",
		"districtModern":"中國-河北省-邢臺市-臨西縣",
		"note":null,
		"lang":"中文",
		"shortAuthorityID":"PL2064",
		"names":"",
		"pinyin":[]
	},
	{
		"authorityID":"PL000000002065",
		"name":"下堡寺",
		"dynasty":"清",
		"long":"115.4094",
		"lat":"36.8778",
		"districtHistorical":"清_山東",
		"districtModern":"中國-河北省-邢臺市-臨西縣",
		"note":null,
		"lang":"中文",
		"shortAuthorityID":"PL2065",
		"names":"",
		"pinyin":[]
	},
	{
		"authorityID":"PL000000002066",
		"name":"臨清",
		"dynasty":"北宋",
		"long":"115.4998",
		"lat":"36.8579",
		"districtHistorical":"北宋_河北東路",
		"districtModern":"中國-河北省-邢臺市-臨西縣",
		"note":null,
		"lang":"中文",
		"shortAuthorityID":"PL2066",
		"names":"",
		"pinyin":[]
	},
	{
		"authorityID":"PL000000002067",
		"name":"臨清",
		"dynasty":"唐",
		"long":"115.4998",
		"lat":"36.8579",
		"districtHistorical":"唐_河北道",
		"districtModern":"中國-河北省-邢臺市-臨西縣",
		"note":"隋開皇十六年（596），析臨清縣西部置沙丘縣，故治在今河北臨西縣境內。屬貝州。大業二年（606），沙丘縣併入臨清縣。唐武德四年（612），析臨清縣複置沙丘縣；貞觀元年（627）又併入臨清縣。後不復置。（http：\/\/baike.baidu.com\/view\/3499936.html？fromTaglist，2011.01.14）",
		"lang":"中文",
		"shortAuthorityID":"PL2067",
		"names":"[中文] 沙丘縣",
		"pinyin":[]
	},
	{
		"authorityID":"PL000000002068",
		"name":"臨清",
		"dynasty":"隋",
		"long":"115.4998",
		"lat":"36.8579",
		"districtHistorical":"隋_清河郡",
		"districtModern":"中國-河北省-邢臺市-臨西縣",
		"note":"隋開皇十六年（596），析臨清縣西部置沙丘縣，故治在今河北臨西縣境內。屬貝州。大業二年（606），沙丘縣併入臨清縣。唐武德四年（612），析臨清縣複置沙丘縣；貞觀元年（627）又併入臨清縣。後不復置。（<a target=\"_blank\" href=\"http:\/\/baike.baidu.com\/view\/3499936.html?fromTaglist\">http:\/\/baike.baidu.com\/view\/3499936.html?fromTaglist<\/a>，2011.01.14）",
		"lang":"中文",
		"shortAuthorityID":"PL2068",
		"names":"[中文] 沙丘縣",
		"pinyin":[]
	},
	{
		"authorityID":"PL000000002069",
		"name":"臨清",
		"dynasty":"北魏",
		"long":"115.4998",
		"lat":"36.8579",
		"districtHistorical":"北朝 魏_相州",
		"districtModern":"中國-河北省-邢臺市-臨西縣",
		"note":null,
		"lang":"中文",
		"shortAuthorityID":"PL2069",
		"names":"",
		"pinyin":[]
	},
	{
		"authorityID":"PL000000002070",
		"name":"搖鞍鎮",
		"dynasty":"清",
		"long":"115.3826",
		"lat":"36.8317",
		"districtHistorical":"清_山東",
		"districtModern":"中國-河北省-邢臺市-臨西縣",
		"note":null,
		"lang":"中文",
		"shortAuthorityID":"PL2070",
		"names":"",
		"pinyin":[]
	},
	{
		"authorityID":"PL000000002071",
		"name":"尖莊",
		"dynasty":"清",
		"long":"115.4899",
		"lat":"36.7833",
		"districtHistorical":"清_山東",
		"districtModern":"中國-河北省-邢臺市-臨西縣",
		"note":null,
		"lang":"中文",
		"shortAuthorityID":"PL2071",
		"names":"",
		"pinyin":{
			"尖莊":"jiān zhuāng"
		}
	},
	{
		"authorityID":"PL000000002072",
		"name":"定覺寺",
		"dynasty":"唐",
		"long":"115.394679",
		"lat":"37.35341",
		"districtHistorical":null,
		"districtModern":"中國-河北省-邢臺市-南宮市",
		"note":"（唐寺考：117）",
		"lang":"中文",
		"shortAuthorityID":"PL2072",
		"names":"",
		"pinyin":[]
	},
	{
		"authorityID":"PL000000002073",
		"name":"普同寺",
		"dynasty":"東漢",
		"long":"115.358636",
		"lat":"37.373952",
		"districtHistorical":null,
		"districtModern":"中國-河北省-邢臺市-南宮市",
		"note":"在南宮縣舊城，漢明帝永平十年建，唐貞觀中重修。大耳禪師建塔，髙十餘丈。（唐寺考：117；淵四．大清一統志．卷三十一：15；四部續．嘉慶一統志．冀州直隸州二：3）",
		"lang":"中文",
		"shortAuthorityID":"PL2073",
		"names":"[中文] 普彤寺",
		"pinyin":{
			"普同寺":"pǔ tóng sì",
			"普彤寺":"pǔ tóng sì"
		}
	},
	{
		"authorityID":"PL000000002074",
		"name":"石佛寺",
		"dynasty":"唐",
		"long":"115.377271",
		"lat":"37.367803",
		"districtHistorical":null,
		"districtModern":"中國-河北省-邢臺市-南宮市",
		"note":"在南宮縣西北七里，有石佛一。相傳唐垂拱時舊製。（唐寺考：117；<a target=\"_blank\" href=\" http:\/\/chgis.hmdc.harvard.edu\/search_details_1.php?ptid=relig_945\"> http:\/\/chgis.hmdc.harvard.edu\/search_details_1.php?ptid=relig_945<\/a>，2009.06.19；淵四．大清一統志．卷三十一：15；四部續．嘉慶一統志．冀州直隸州二：3）",
		"lang":"中文",
		"shortAuthorityID":"PL2074",
		"names":"",
		"pinyin":{
			"石佛寺":"shí fó sì"
		}
	},
	{
		"authorityID":"PL000000002075",
		"name":"西流集",
		"dynasty":"清",
		"long":"115.3413",
		"lat":"37.4391",
		"districtHistorical":"清_直隸",
		"districtModern":"中國-河北省-邢臺市-南宮市",
		"note":null,
		"lang":"中文",
		"shortAuthorityID":"PL2075",
		"names":"",
		"pinyin":{
			"西流集":"xī liú jí"
		}
	},
	{
		"authorityID":"PL000000002076",
		"name":"南宮",
		"dynasty":"唐",
		"long":"115.3411",
		"lat":"37.3886",
		"districtHistorical":"唐_河北道",
		"districtModern":"中國-河北省-邢臺市-南宮市",
		"note":null,
		"lang":"中文",
		"shortAuthorityID":"PL2076",
		"names":"",
		"pinyin":[]
	},
	{
		"authorityID":"PL000000002077",
		"name":"南宮",
		"dynasty":"西晉",
		"long":"115.3459",
		"lat":"37.387",
		"districtHistorical":"西晉_冀州",
		"districtModern":"中國-河北省-邢臺市-南宮市",
		"note":null,
		"lang":"中文",
		"shortAuthorityID":"PL2077",
		"names":"",
		"pinyin":[]
	},
	{
		"authorityID":"PL000000002078",
		"name":"南宮",
		"dynasty":"曹魏",
		"long":"115.3459",
		"lat":"37.387",
		"districtHistorical":"三國 魏_冀州",
		"districtModern":"中國-河北省-邢臺市-南宮市",
		"note":null,
		"lang":"中文",
		"shortAuthorityID":"PL2078",
		"names":"",
		"pinyin":[]
	},
	{
		"authorityID":"PL000000002079",
		"name":"南宮",
		"dynasty":"北魏",
		"long":"115.3538",
		"lat":"37.3805",
		"districtHistorical":"北朝 魏_冀州",
		"districtModern":"中國-河北省-邢臺市-南宮市",
		"note":null,
		"lang":"中文",
		"shortAuthorityID":"PL2079",
		"names":"",
		"pinyin":[]
	},
	{
		"authorityID":"PL000000002080",
		"name":"南宮",
		"dynasty":"東漢",
		"long":"115.3501",
		"lat":"37.3778",
		"districtHistorical":"東漢_冀州刺史部",
		"districtModern":"中國-河北省-邢臺市-南宮市",
		"note":null,
		"lang":"中文",
		"shortAuthorityID":"PL2080",
		"names":"",
		"pinyin":[]
	},
	{
		"authorityID":"PL000000002081",
		"name":"南宮",
		"dynasty":"西漢",
		"long":"115.3501",
		"lat":"37.3778",
		"districtHistorical":"西漢_冀州刺史部",
		"districtModern":"中國-河北省-邢臺市-南宮市",
		"note":null,
		"lang":"中文",
		"shortAuthorityID":"PL2081",
		"names":"",
		"pinyin":[]
	},
	{
		"authorityID":"PL000000002082",
		"name":"南宮",
		"dynasty":"隋",
		"long":"115.3429",
		"lat":"37.3778",
		"districtHistorical":"隋_信都郡",
		"districtModern":"中國-河北省-邢臺市-南宮市",
		"note":null,
		"lang":"中文",
		"shortAuthorityID":"PL2082",
		"names":"",
		"pinyin":[]
	},
	{
		"authorityID":"PL000000002083",
		"name":"團城鎮",
		"dynasty":"清",
		"long":"115.1823",
		"lat":"37.3744",
		"districtHistorical":"清_直隸",
		"districtModern":"中國-河北省-邢臺市-南宮市",
		"note":null,
		"lang":"中文",
		"shortAuthorityID":"PL2083",
		"names":"",
		"pinyin":[]
	},
	{
		"authorityID":"PL000000002084",
		"name":"南宮",
		"dynasty":"元",
		"long":"115.3519",
		"lat":"37.3733",
		"districtHistorical":"元_中書省",
		"districtModern":"中國-河北省-邢臺市-南宮市",
		"note":null,
		"lang":"中文",
		"shortAuthorityID":"PL2084",
		"names":"",
		"pinyin":[]
	},
	{
		"authorityID":"PL000000002085",
		"name":"南宮",
		"dynasty":"北宋",
		"long":"115.3476",
		"lat":"37.3726",
		"districtHistorical":"北宋_河北東路",
		"districtModern":"中國-河北省-邢臺市-南宮市",
		"note":null,
		"lang":"中文",
		"shortAuthorityID":"PL2085",
		"names":"",
		"pinyin":[]
	},
	{
		"authorityID":"PL000000002086",
		"name":"南宮",
		"dynasty":"清",
		"long":"115.3896",
		"lat":"37.3584",
		"districtHistorical":"清_直隸",
		"districtModern":"中國-河北省-邢臺市-南宮市",
		"note":null,
		"lang":"中文",
		"shortAuthorityID":"PL2086",
		"names":"",
		"pinyin":[]
	},
	{
		"authorityID":"PL000000002087",
		"name":"南宮",
		"dynasty":"明",
		"long":"115.3896",
		"lat":"37.3584",
		"districtHistorical":"明_京師",
		"districtModern":"中國-河北省-邢臺市-南宮市",
		"note":null,
		"lang":"中文",
		"shortAuthorityID":"PL2087",
		"names":"",
		"pinyin":[]
	},
	{
		"authorityID":"PL000000002088",
		"name":"繚縣",
		"dynasty":"西漢",
		"long":"115.4343",
		"lat":"37.2888",
		"districtHistorical":"西漢_冀州刺史部",
		"districtModern":"中國-河北省-邢臺市-南宮市",
		"note":null,
		"lang":"中文",
		"shortAuthorityID":"PL2088",
		"names":"",
		"pinyin":[]
	},
	{
		"authorityID":"PL000000002089",
		"name":"厝縣",
		"dynasty":"秦",
		"long":"115.6083",
		"lat":"37.1267",
		"districtHistorical":"秦_巨鹿郡",
		"districtModern":"中國-河北省-邢臺市-南宮市",
		"note":null,
		"lang":"中文",
		"shortAuthorityID":"PL2089",
		"names":"",
		"pinyin":[]
	},
	{
		"authorityID":"PL000000002090",
		"name":"董家廟堡",
		"dynasty":"明",
		"long":"115.5964",
		"lat":"37.1214",
		"districtHistorical":"明_京師",
		"districtModern":"中國-河北省-邢臺市-南宮市",
		"note":null,
		"lang":"中文",
		"shortAuthorityID":"PL2090",
		"names":"",
		"pinyin":[]
	},
	{
		"authorityID":"PL000000002091",
		"name":"董家廟堡",
		"dynasty":"清",
		"long":"115.5825",
		"lat":"37.1196",
		"districtHistorical":"清_直隸",
		"districtModern":"中國-河北省-邢臺市-南宮市",
		"note":null,
		"lang":"中文",
		"shortAuthorityID":"PL2091",
		"names":"",
		"pinyin":[]
	},
	{
		"authorityID":"PL000000002092",
		"name":"信成",
		"dynasty":"西漢",
		"long":"115.6076",
		"lat":"37.1063",
		"districtHistorical":"西漢_冀州刺史部",
		"districtModern":"中國-河北省-邢臺市-南宮市",
		"note":null,
		"lang":"中文",
		"shortAuthorityID":"PL2092",
		"names":"",
		"pinyin":[]
	},
	{
		"authorityID":"PL000000002093",
		"name":"清河",
		"dynasty":"隋",
		"long":"115.6141",
		"lat":"37.1028",
		"districtHistorical":"隋_清河郡",
		"districtModern":"中國-河北省-邢臺市-南宮市",
		"note":null,
		"lang":"中文",
		"shortAuthorityID":"PL2093",
		"names":"",
		"pinyin":[]
	},
	{
		"authorityID":"PL000000002094",
		"name":"清河郡",
		"dynasty":"隋",
		"long":"115.6141",
		"lat":"37.1028",
		"districtHistorical":"隋_清河郡",
		"districtModern":"中國-河北省-邢臺市-南宮市",
		"note":null,
		"lang":"中文",
		"shortAuthorityID":"PL2094",
		"names":"",
		"pinyin":[]
	},
	{
		"authorityID":"PL000000002095",
		"name":"泛愛寺",
		"dynasty":"唐",
		"long":"114.496039",
		"lat":"36.872481",
		"districtHistorical":null,
		"districtModern":"中國-河北省-邢臺市-沙河市",
		"note":"在沙河縣治西北，唐建。（唐寺考：113；淵四．大清一統志．卷二十：30；四部續．嘉慶一統志．順德府二：5）",
		"lang":"中文",
		"shortAuthorityID":"PL2095",
		"names":"",
		"pinyin":{
			"泛愛寺":"fàn ài sì"
		}
	},
	{
		"authorityID":"PL000000002096",
		"name":"沙河",
		"dynasty":"明",
		"long":"114.5169",
		"lat":"36.9528",
		"districtHistorical":"明_京師",
		"districtModern":"中國-河北省-邢臺市-沙河市",
		"note":null,
		"lang":"中文",
		"shortAuthorityID":"PL2096",
		"names":"",
		"pinyin":[]
	},
	{
		"authorityID":"PL000000002097",
		"name":"沙河",
		"dynasty":"元",
		"long":"114.5169",
		"lat":"36.9528",
		"districtHistorical":"元_中書省",
		"districtModern":"中國-河北省-邢臺市-沙河市",
		"note":null,
		"lang":"中文",
		"shortAuthorityID":"PL2097",
		"names":"",
		"pinyin":[]
	},
	{
		"authorityID":"PL000000002098",
		"name":"沙河",
		"dynasty":"北宋",
		"long":"114.5074",
		"lat":"36.9453",
		"districtHistorical":"北宋_河北西路",
		"districtModern":"中國-河北省-邢臺市-沙河市",
		"note":null,
		"lang":"中文",
		"shortAuthorityID":"PL2098",
		"names":"",
		"pinyin":[]
	},
	{
		"authorityID":"PL000000002099",
		"name":"沙河",
		"dynasty":"唐",
		"long":"114.5154",
		"lat":"36.9451",
		"districtHistorical":"唐_河北道",
		"districtModern":"中國-河北省-邢臺市-沙河市",
		"note":null,
		"lang":"中文",
		"shortAuthorityID":"PL2099",
		"names":"",
		"pinyin":[]
	},
	{
		"authorityID":"PL000000002100",
		"name":"沙河",
		"dynasty":"清",
		"long":"114.5031",
		"lat":"36.9374",
		"districtHistorical":"清_直隸",
		"districtModern":"中國-河北省-邢臺市-沙河市",
		"note":null,
		"lang":"中文",
		"shortAuthorityID":"PL2100",
		"names":"",
		"pinyin":[]
	},
	{
		"authorityID":"PL000000002101",
		"name":"綦村鎮",
		"dynasty":"北宋",
		"long":"114.2911",
		"lat":"36.918",
		"districtHistorical":"北宋_河北西路",
		"districtModern":"中國-河北省-邢臺市-沙河市",
		"note":null,
		"lang":"中文",
		"shortAuthorityID":"PL2101",
		"names":"",
		"pinyin":[]
	},
	{
		"authorityID":"PL000000002102",
		"name":"鐵冶務",
		"dynasty":"北宋",
		"long":"114.2911",
		"lat":"36.918",
		"districtHistorical":"北宋_河北西路",
		"districtModern":"中國-河北省-邢臺市-沙河市",
		"note":null,
		"lang":"中文",
		"shortAuthorityID":"PL2102",
		"names":"",
		"pinyin":[]
	},
	{
		"authorityID":"PL000000002103",
		"name":"沙河",
		"dynasty":"隋",
		"long":"114.4912",
		"lat":"36.917",
		"districtHistorical":"隋_襄國郡",
		"districtModern":"中國-河北省-邢臺市-沙河市",
		"note":null,
		"lang":"中文",
		"shortAuthorityID":"PL2103",
		"names":"",
		"pinyin":[]
	},
	{
		"authorityID":"PL000000002104",
		"name":"小屯",
		"dynasty":"明",
		"long":"114.3457",
		"lat":"36.8648",
		"districtHistorical":"明_京師",
		"districtModern":"中國-河北省-邢臺市-沙河市",
		"note":null,
		"lang":"中文",
		"shortAuthorityID":"PL2104",
		"names":"",
		"pinyin":[]
	},
	{
		"authorityID":"PL000000002105",
		"name":"易水",
		"dynasty":null,
		"long":"115.752622",
		"lat":"39.224204",
		"districtHistorical":null,
		"districtModern":"中國-河北省-保定市",
		"note":"有三：一曰中易水，源出河北易縣西，東流至定興縣西南合拒馬河。即古武水。……。（歷地史：1536）",
		"lang":"中文",
		"shortAuthorityID":"PL2105",
		"names":"[中文] 中易水,武水",
		"pinyin":{
			"易水":"yì shuǐ",
			"武水":"wǔ shuǐ"
		}
	},
	{
		"authorityID":"PL000000002106",
		"name":"謝家莊",
		"dynasty":"清",
		"long":"115.4223",
		"lat":"38.9164",
		"districtHistorical":"清_直隸",
		"districtModern":"中國-河北省-保定市-新市區",
		"note":null,
		"lang":"中文",
		"shortAuthorityID":"PL2106",
		"names":"",
		"pinyin":[]
	},
	{
		"authorityID":"PL000000002107",
		"name":"保定府",
		"dynasty":"清",
		"long":"115.5118",
		"lat":"38.855",
		"districtHistorical":"清_直隸",
		"districtModern":"中國-河北省-保定市-北市區",
		"note":"康熙八年（1669），自真定移巡撫於此，為直隸省治。雍正二年（1724），改總督。布政使、清河道等同駐。十二年（1734），升易州為直隸州，以淶水屬之。又改深澤屬定州。道光中，省新安。東北距京師三百五十里。廣三百五十里，袤四百里。領州二，縣十四。（<a target=\"_blank\" href=\"https:\/\/zh.wikisource.org\/wiki\/%E6%B8%85%E5%8F%B2%E7%A8%BF\/%E5%8D%B754\">https:\/\/zh.wikisource.org\/wiki\/%E6%B8%85%E5%8F%B2%E7%A8%BF\/%E5%8D%B754<\/a>；<a target=\"_blank\" href=\"http:\/\/zh.wikipedia.org\/wiki\/%E4%BF%9D%E5%AE%9A%E5%BA%9C\">http:\/\/zh.wikipedia.org\/保定府<\/a>，2020.05.15）",
		"lang":"中文",
		"shortAuthorityID":"PL2107",
		"names":"",
		"pinyin":{
			"保定府":"bǎo dìng fǔ"
		}
	},
	{
		"authorityID":"PL000000002108",
		"name":"保定府",
		"dynasty":"明",
		"long":"115.5118",
		"lat":"38.855",
		"districtHistorical":"明_京師",
		"districtModern":"中國-河北省-保定市-北市區",
		"note":null,
		"lang":"中文",
		"shortAuthorityID":"PL2108",
		"names":"",
		"pinyin":{
			"保定府":"bǎo dìng fǔ"
		}
	},
	{
		"authorityID":"PL000000002109",
		"name":"保定路",
		"dynasty":"元",
		"long":"115.5118",
		"lat":"38.855",
		"districtHistorical":"元_中書省",
		"districtModern":"中國-河北省-保定市-北市區",
		"note":null,
		"lang":"中文",
		"shortAuthorityID":"PL2109",
		"names":"",
		"pinyin":[]
	},
	{
		"authorityID":"PL000000002110",
		"name":"清苑",
		"dynasty":"清",
		"long":"115.5118",
		"lat":"38.855",
		"districtHistorical":"清_直隸",
		"districtModern":"中國-河北省-保定市-北市區",
		"note":null,
		"lang":"中文",
		"shortAuthorityID":"PL2110",
		"names":"",
		"pinyin":[]
	},
	{
		"authorityID":"PL000000002111",
		"name":"清苑",
		"dynasty":"明",
		"long":"115.5118",
		"lat":"38.855",
		"districtHistorical":"明_京師",
		"districtModern":"中國-河北省-保定市-北市區",
		"note":"漢樊輿縣，後魏改曰扶輿。故治在今直隸清苑縣東南二十五里。（中地：388）",
		"lang":"中文",
		"shortAuthorityID":"PL2111",
		"names":"[中文] 樊輿,扶輿",
		"pinyin":[]
	},
	{
		"authorityID":"PL000000002112",
		"name":"清苑",
		"dynasty":"元",
		"long":"115.5118",
		"lat":"38.855",
		"districtHistorical":"元_中書省",
		"districtModern":"中國-河北省-保定市-北市區",
		"note":null,
		"lang":"中文",
		"shortAuthorityID":"PL2112",
		"names":"",
		"pinyin":[]
	},
	{
		"authorityID":"PL000000002113",
		"name":"保州",
		"dynasty":"北宋",
		"long":"115.5118",
		"lat":"38.855",
		"districtHistorical":"北宋_河北西路",
		"districtModern":"中國-河北省-保定市-北市區",
		"note":null,
		"lang":"中文",
		"shortAuthorityID":"PL2113",
		"names":"",
		"pinyin":{
			"保州":"bǎo zhōu"
		}
	},
	{
		"authorityID":"PL000000002114",
		"name":"保塞",
		"dynasty":"北宋",
		"long":"115.5118",
		"lat":"38.855",
		"districtHistorical":"北宋_河北西路",
		"districtModern":"中國-河北省-保定市-北市區",
		"note":null,
		"lang":"中文",
		"shortAuthorityID":"PL2114",
		"names":"",
		"pinyin":[]
	},
	{
		"authorityID":"PL000000002115",
		"name":"清苑",
		"dynasty":"唐",
		"long":"115.5118",
		"lat":"38.855",
		"districtHistorical":"唐_河北道",
		"districtModern":"中國-河北省-保定市-北市區",
		"note":null,
		"lang":"中文",
		"shortAuthorityID":"PL2115",
		"names":"",
		"pinyin":[]
	},
	{
		"authorityID":"PL000000002116",
		"name":"清苑",
		"dynasty":"隋",
		"long":"115.5118",
		"lat":"38.855",
		"districtHistorical":"隋_河間郡",
		"districtModern":"中國-河北省-保定市-北市區",
		"note":null,
		"lang":"中文",
		"shortAuthorityID":"PL2116",
		"names":"",
		"pinyin":[]
	},
	{
		"authorityID":"PL000000002117",
		"name":"清苑",
		"dynasty":"北魏",
		"long":"115.5118",
		"lat":"38.855",
		"districtHistorical":"北朝 魏_瀛州",
		"districtModern":"中國-河北省-保定市-北市區",
		"note":null,
		"lang":"中文",
		"shortAuthorityID":"PL2117",
		"names":"",
		"pinyin":[]
	},
	{
		"authorityID":"PL000000002118",
		"name":"大寧都司",
		"dynasty":"明",
		"long":"115.5118",
		"lat":"38.855",
		"districtHistorical":"明_京師",
		"districtModern":"中國-河北省-保定市-北市區",
		"note":null,
		"lang":"中文",
		"shortAuthorityID":"PL2118",
		"names":"",
		"pinyin":[]
	},
	{
		"authorityID":"PL000000002119",
		"name":"龍泉寺",
		"dynasty":"隋",
		"long":"115.348498",
		"lat":"38.956133",
		"districtHistorical":null,
		"districtModern":"中國-河北省-保定市-滿城縣",
		"note":"在滿城縣東。府志，故老相傳，寺建自隋唐，四無墻垣，古木森列。後有雞距泉，右有紅花泉，上通一畝泉，為遊賞勝地。（唐寺考：121；<a target=\"_blank\" href=\" http:\/\/chgis.hmdc.harvard.edu\/search_details_1.php?ptid=relig_1208\"> http:\/\/chgis.hmdc.harvard.edu\/search_details_1.php?ptid=relig_1208<\/a>，2009.06.18；淵四．大清一統志．卷十一：29；四部續．嘉慶一統志．保定府四：7）",
		"lang":"中文",
		"shortAuthorityID":"PL2119",
		"names":"",
		"pinyin":[]
	},
	{
		"authorityID":"PL000000002120",
		"name":"北平",
		"dynasty":"西晉",
		"long":"115.3265",
		"lat":"39.0284",
		"districtHistorical":"西晉_冀州",
		"districtModern":"中國-河北省-保定市-滿城縣",
		"note":null,
		"lang":"中文",
		"shortAuthorityID":"PL2120",
		"names":"",
		"pinyin":[]
	},
	{
		"authorityID":"PL000000002121",
		"name":"北平",
		"dynasty":"曹魏",
		"long":"115.3265",
		"lat":"39.0284",
		"districtHistorical":"三國 魏_冀州",
		"districtModern":"中國-河北省-保定市-滿城縣",
		"note":null,
		"lang":"中文",
		"shortAuthorityID":"PL2121",
		"names":"",
		"pinyin":[]
	},
	{
		"authorityID":"PL000000002122",
		"name":"北平",
		"dynasty":"東漢",
		"long":"115.3431",
		"lat":"39.0223",
		"districtHistorical":"東漢_冀州刺史部",
		"districtModern":"中國-河北省-保定市-滿城縣",
		"note":null,
		"lang":"中文",
		"shortAuthorityID":"PL2122",
		"names":"",
		"pinyin":[]
	},
	{
		"authorityID":"PL000000002123",
		"name":"北平",
		"dynasty":"西漢",
		"long":"115.3431",
		"lat":"39.0223",
		"districtHistorical":"西漢_冀州刺史部",
		"districtModern":"中國-河北省-保定市-滿城縣",
		"note":null,
		"lang":"中文",
		"shortAuthorityID":"PL2123",
		"names":"",
		"pinyin":[]
	},
	{
		"authorityID":"PL000000002124",
		"name":"捉馬口鋪",
		"dynasty":"北宋",
		"long":"115.0176",
		"lat":"39.0212",
		"districtHistorical":"北宋_河北西路",
		"districtModern":"中國-河北省-保定市-滿城縣",
		"note":null,
		"lang":"中文",
		"shortAuthorityID":"PL2124",
		"names":"",
		"pinyin":[]
	},
	{
		"authorityID":"PL000000002125",
		"name":"北平",
		"dynasty":"北魏",
		"long":"115.3414",
		"lat":"39.0187",
		"districtHistorical":"北朝 魏_定州",
		"districtModern":"中國-河北省-保定市-滿城縣",
		"note":null,
		"lang":"中文",
		"shortAuthorityID":"PL2125",
		"names":"",
		"pinyin":[]
	},
	{
		"authorityID":"PL000000002126",
		"name":"永樂",
		"dynasty":"唐",
		"long":"115.3077",
		"lat":"38.9599",
		"districtHistorical":"唐_河北道",
		"districtModern":"中國-河北省-保定市-滿城縣",
		"note":null,
		"lang":"中文",
		"shortAuthorityID":"PL2126",
		"names":"",
		"pinyin":[]
	},
	{
		"authorityID":"PL000000002127",
		"name":"永樂",
		"dynasty":"隋",
		"long":"115.3059",
		"lat":"38.9515",
		"districtHistorical":"隋_上谷郡",
		"districtModern":"中國-河北省-保定市-滿城縣",
		"note":null,
		"lang":"中文",
		"shortAuthorityID":"PL2127",
		"names":"",
		"pinyin":[]
	},
	{
		"authorityID":"PL000000002128",
		"name":"滿城",
		"dynasty":"清",
		"long":"115.3253",
		"lat":"38.947",
		"districtHistorical":"清_直隸",
		"districtModern":"中國-河北省-保定市-滿城縣",
		"note":null,
		"lang":"中文",
		"shortAuthorityID":"PL2128",
		"names":"",
		"pinyin":[]
	},
	{
		"authorityID":"PL000000002129",
		"name":"滿城",
		"dynasty":"明",
		"long":"115.3253",
		"lat":"38.947",
		"districtHistorical":"明_京師",
		"districtModern":"中國-河北省-保定市-滿城縣",
		"note":null,
		"lang":"中文",
		"shortAuthorityID":"PL2129",
		"names":"",
		"pinyin":[]
	},
	{
		"authorityID":"PL000000002130",
		"name":"滿城",
		"dynasty":"元",
		"long":"115.3253",
		"lat":"38.947",
		"districtHistorical":"元_中書省",
		"districtModern":"中國-河北省-保定市-滿城縣",
		"note":null,
		"lang":"中文",
		"shortAuthorityID":"PL2130",
		"names":"",
		"pinyin":[]
	},
	{
		"authorityID":"PL000000002131",
		"name":"永寧",
		"dynasty":"北魏",
		"long":"115.3136",
		"lat":"38.8698",
		"districtHistorical":"北朝 魏_瀛州",
		"districtModern":"中國-河北省-保定市-滿城縣",
		"note":null,
		"lang":"中文",
		"shortAuthorityID":"PL2131",
		"names":"",
		"pinyin":[]
	},
	{
		"authorityID":"PL000000002132",
		"name":"方順橋",
		"dynasty":"清",
		"long":"115.273",
		"lat":"38.7837",
		"districtHistorical":"清_直隸",
		"districtModern":"中國-河北省-保定市-滿城縣",
		"note":null,
		"lang":"中文",
		"shortAuthorityID":"PL2132",
		"names":"",
		"pinyin":[]
	},
	{
		"authorityID":"PL000000002133",
		"name":"陽城",
		"dynasty":"五代十國",
		"long":"115.293",
		"lat":"38.7792",
		"districtHistorical":"五代十國_晉",
		"districtModern":"中國-河北省-保定市-滿城縣",
		"note":null,
		"lang":"中文",
		"shortAuthorityID":"PL2133",
		"names":"",
		"pinyin":{
			"陽城":"yáng chéng"
		}
	},
	{
		"authorityID":"PL000000002134",
		"name":"大激店",
		"dynasty":"清",
		"long":"115.3933",
		"lat":"38.8365",
		"districtHistorical":"清_直隸",
		"districtModern":"中國-河北省-保定市-清苑縣",
		"note":null,
		"lang":"中文",
		"shortAuthorityID":"PL2134",
		"names":"",
		"pinyin":[]
	},
	{
		"authorityID":"PL000000002135",
		"name":"樂鄉",
		"dynasty":"北魏",
		"long":"115.5785",
		"lat":"38.7705",
		"districtHistorical":"北朝 魏_瀛州",
		"districtModern":"中國-河北省-保定市-清苑縣",
		"note":null,
		"lang":"中文",
		"shortAuthorityID":"PL2135",
		"names":"",
		"pinyin":[]
	},
	{
		"authorityID":"PL000000002136",
		"name":"白城",
		"dynasty":"北宋",
		"long":"115.4072",
		"lat":"38.7355",
		"districtHistorical":"北宋_河北西路",
		"districtModern":"中國-河北省-保定市-清苑縣",
		"note":null,
		"lang":"中文",
		"shortAuthorityID":"PL2136",
		"names":"",
		"pinyin":[]
	},
	{
		"authorityID":"PL000000002137",
		"name":"陽城",
		"dynasty":"東漢",
		"long":"115.2791",
		"lat":"38.6963",
		"districtHistorical":"東漢_冀州刺史部",
		"districtModern":"中國-河北省-保定市-清苑縣",
		"note":null,
		"lang":"中文",
		"shortAuthorityID":"PL2137",
		"names":"",
		"pinyin":{
			"陽城":"yáng chéng"
		}
	},
	{
		"authorityID":"PL000000002138",
		"name":"清涼城",
		"dynasty":"北魏",
		"long":"115.5443",
		"lat":"38.6915",
		"districtHistorical":"北朝 魏_瀛州",
		"districtModern":"中國-河北省-保定市-清苑縣",
		"note":null,
		"lang":"中文",
		"shortAuthorityID":"PL2138",
		"names":"",
		"pinyin":[]
	},
	{
		"authorityID":"PL000000002139",
		"name":"廣望",
		"dynasty":"西漢",
		"long":"115.4521",
		"lat":"38.6762",
		"districtHistorical":"西漢_幽州刺史部",
		"districtModern":"中國-河北省-保定市-清苑縣",
		"note":null,
		"lang":"中文",
		"shortAuthorityID":"PL2139",
		"names":"",
		"pinyin":[]
	},
	{
		"authorityID":"PL000000002140",
		"name":"蔣莊",
		"dynasty":"清",
		"long":"115.4266",
		"lat":"38.6719",
		"districtHistorical":"清_直隸",
		"districtModern":"中國-河北省-保定市-清苑縣",
		"note":null,
		"lang":"中文",
		"shortAuthorityID":"PL2140",
		"names":"",
		"pinyin":[]
	},
	{
		"authorityID":"PL000000002141",
		"name":"張登",
		"dynasty":"明",
		"long":"115.464",
		"lat":"38.6459",
		"districtHistorical":"明_京師",
		"districtModern":"中國-河北省-保定市-清苑縣",
		"note":null,
		"lang":"中文",
		"shortAuthorityID":"PL2141",
		"names":"",
		"pinyin":[]
	},
	{
		"authorityID":"PL000000002142",
		"name":"張登店",
		"dynasty":"清",
		"long":"115.4858",
		"lat":"38.6458",
		"districtHistorical":"清_直隸",
		"districtModern":"中國-河北省-保定市-清苑縣",
		"note":null,
		"lang":"中文",
		"shortAuthorityID":"PL2142",
		"names":"",
		"pinyin":[]
	},
	{
		"authorityID":"PL000000002143",
		"name":"馬水口",
		"dynasty":"清",
		"long":"115.3807",
		"lat":"39.8094",
		"districtHistorical":"清_直隸",
		"districtModern":"中國-河北省-保定市-淶水縣",
		"note":null,
		"lang":"中文",
		"shortAuthorityID":"PL2143",
		"names":"",
		"pinyin":{
			"馬水口":"mǎ shuǐ kǒu"
		}
	},
	{
		"authorityID":"PL000000002144",
		"name":"金水口",
		"dynasty":"清",
		"long":"115.0551",
		"lat":"39.6017",
		"districtHistorical":"清_直隸",
		"districtModern":"中國-河北省-保定市-淶水縣",
		"note":null,
		"lang":"中文",
		"shortAuthorityID":"PL2144",
		"names":"",
		"pinyin":[]
	},
	{
		"authorityID":"PL000000002145",
		"name":"板城",
		"dynasty":"唐",
		"long":"115.2908",
		"lat":"39.6006",
		"districtHistorical":"唐_河北道",
		"districtModern":"中國-河北省-保定市-淶水縣",
		"note":null,
		"lang":"中文",
		"shortAuthorityID":"PL2145",
		"names":"",
		"pinyin":{
			"板城":"bǎn chéng"
		}
	},
	{
		"authorityID":"PL000000002146",
		"name":"石亭",
		"dynasty":"清",
		"long":"115.7197",
		"lat":"39.5216",
		"districtHistorical":"清_直隸",
		"districtModern":"中國-河北省-保定市-淶水縣",
		"note":null,
		"lang":"中文",
		"shortAuthorityID":"PL2146",
		"names":"",
		"pinyin":[]
	},
	{
		"authorityID":"PL000000002147",
		"name":"水東村",
		"dynasty":"清",
		"long":"115.6603",
		"lat":"39.4861",
		"districtHistorical":"清_直隸",
		"districtModern":"中國-河北省-保定市-淶水縣",
		"note":null,
		"lang":"中文",
		"shortAuthorityID":"PL2147",
		"names":"",
		"pinyin":{
			"水東村":"shuǐ dōng cūn"
		}
	},
	{
		"authorityID":"PL000000002148",
		"name":"岐溝關",
		"dynasty":"遼",
		"long":"115.8036",
		"lat":"39.3926",
		"districtHistorical":"遼_南京道",
		"districtModern":"中國-河北省-保定市-淶水縣",
		"note":null,
		"lang":"中文",
		"shortAuthorityID":"PL2148",
		"names":"",
		"pinyin":[]
	},
	{
		"authorityID":"PL000000002149",
		"name":"淶水",
		"dynasty":"清",
		"long":"115.7176",
		"lat":"39.391",
		"districtHistorical":"清_直隸",
		"districtModern":"中國-河北省-保定市-淶水縣",
		"note":null,
		"lang":"中文",
		"shortAuthorityID":"PL2149",
		"names":"",
		"pinyin":{
			"淶水":"lái shuǐ"
		}
	},
	{
		"authorityID":"PL000000002150",
		"name":"淶水",
		"dynasty":"明",
		"long":"115.7176",
		"lat":"39.391",
		"districtHistorical":"明_京師",
		"districtModern":"中國-河北省-保定市-淶水縣",
		"note":null,
		"lang":"中文",
		"shortAuthorityID":"PL2150",
		"names":"",
		"pinyin":{
			"淶水":"lái shuǐ"
		}
	},
	{
		"authorityID":"PL000000002151",
		"name":"淶水",
		"dynasty":"元",
		"long":"115.7176",
		"lat":"39.391",
		"districtHistorical":"元_中書省",
		"districtModern":"中國-河北省-保定市-淶水縣",
		"note":null,
		"lang":"中文",
		"shortAuthorityID":"PL2151",
		"names":"",
		"pinyin":{
			"淶水":"lái shuǐ"
		}
	},
	{
		"authorityID":"PL000000002152",
		"name":"淶水",
		"dynasty":"遼",
		"long":"115.7176",
		"lat":"39.391",
		"districtHistorical":"遼_南京道",
		"districtModern":"中國-河北省-保定市-淶水縣",
		"note":null,
		"lang":"中文",
		"shortAuthorityID":"PL2152",
		"names":"",
		"pinyin":{
			"淶水":"lái shuǐ"
		}
	},
	{
		"authorityID":"PL000000002153",
		"name":"淶水",
		"dynasty":"隋",
		"long":"115.7176",
		"lat":"39.391",
		"districtHistorical":"隋_上谷郡",
		"districtModern":"中國-河北省-保定市-淶水縣",
		"note":null,
		"lang":"中文",
		"shortAuthorityID":"PL2153",
		"names":"",
		"pinyin":{
			"淶水":"lái shuǐ"
		}
	},
	{
		"authorityID":"PL000000002154",
		"name":"遒縣",
		"dynasty":"北魏",
		"long":"115.7176",
		"lat":"39.391",
		"districtHistorical":"北朝 魏_幽州",
		"districtModern":"中國-河北省-保定市-淶水縣",
		"note":null,
		"lang":"中文",
		"shortAuthorityID":"PL2154",
		"names":"",
		"pinyin":[]
	},
	{
		"authorityID":"PL000000002155",
		"name":"遒縣",
		"dynasty":"西晉",
		"long":"115.7176",
		"lat":"39.391",
		"districtHistorical":"西晉_幽州",
		"districtModern":"中國-河北省-保定市-淶水縣",
		"note":null,
		"lang":"中文",
		"shortAuthorityID":"PL2155",
		"names":"",
		"pinyin":[]
	},
	{
		"authorityID":"PL000000002156",
		"name":"迺縣",
		"dynasty":"曹魏",
		"long":"115.7176",
		"lat":"39.391",
		"districtHistorical":"三國 魏_幽州",
		"districtModern":"中國-河北省-保定市-淶水縣",
		"note":null,
		"lang":"中文",
		"shortAuthorityID":"PL2156",
		"names":"",
		"pinyin":[]
	},
	{
		"authorityID":"PL000000002157",
		"name":"迺國",
		"dynasty":"東漢",
		"long":"115.7176",
		"lat":"39.391",
		"districtHistorical":"東漢_幽州刺史部",
		"districtModern":"中國-河北省-保定市-淶水縣",
		"note":null,
		"lang":"中文",
		"shortAuthorityID":"PL2157",
		"names":"",
		"pinyin":{
			"迺國":"nǎi guó"
		}
	},
	{
		"authorityID":"PL000000002158",
		"name":"淶水",
		"dynasty":"唐",
		"long":"115.7081",
		"lat":"39.3856",
		"districtHistorical":"唐_河北道",
		"districtModern":"中國-河北省-保定市-淶水縣",
		"note":null,
		"lang":"中文",
		"shortAuthorityID":"PL2158",
		"names":"",
		"pinyin":{
			"淶水":"lái shuǐ"
		}
	},
	{
		"authorityID":"PL000000002159",
		"name":"高洛村",
		"dynasty":"清",
		"long":"115.7655",
		"lat":"39.3269",
		"districtHistorical":"清_直隸",
		"districtModern":"中國-河北省-保定市-淶水縣",
		"note":null,
		"lang":"中文",
		"shortAuthorityID":"PL2159",
		"names":"",
		"pinyin":[]
	},
	{
		"authorityID":"PL000000002160",
		"name":"狼牙口",
		"dynasty":"清",
		"long":"114.2964",
		"lat":"39.1074",
		"districtHistorical":"清_山西",
		"districtModern":"中國-河北省-保定市-阜平縣",
		"note":null,
		"lang":"中文",
		"shortAuthorityID":"PL2160",
		"names":"",
		"pinyin":[]
	},
	{
		"authorityID":"PL000000002161",
		"name":"鐵嶺口",
		"dynasty":"清",
		"long":"114.2454",
		"lat":"39.0625",
		"districtHistorical":"清_直隸",
		"districtModern":"中國-河北省-保定市-阜平縣",
		"note":null,
		"lang":"中文",
		"shortAuthorityID":"PL2161",
		"names":"",
		"pinyin":[]
	},
	{
		"authorityID":"PL000000002162",
		"name":"落路口",
		"dynasty":"清",
		"long":"114.3478",
		"lat":"39.04",
		"districtHistorical":"清_直隸",
		"districtModern":"中國-河北省-保定市-阜平縣",
		"note":null,
		"lang":"中文",
		"shortAuthorityID":"PL2162",
		"names":"",
		"pinyin":[]
	},
	{
		"authorityID":"PL000000002163",
		"name":"吳王口",
		"dynasty":"清",
		"long":"114.1131",
		"lat":"39.0182",
		"districtHistorical":"清_直隸",
		"districtModern":"中國-河北省-保定市-阜平縣",
		"note":null,
		"lang":"中文",
		"shortAuthorityID":"PL2163",
		"names":"",
		"pinyin":[]
	},
	{
		"authorityID":"PL000000002164",
		"name":"上竿嶺口",
		"dynasty":"清",
		"long":"114.1729",
		"lat":"38.988",
		"districtHistorical":"清_直隸",
		"districtModern":"中國-河北省-保定市-阜平縣",
		"note":null,
		"lang":"中文",
		"shortAuthorityID":"PL2164",
		"names":"",
		"pinyin":[]
	},
	{
		"authorityID":"PL000000002165",
		"name":"龍泉關",
		"dynasty":"清",
		"long":"113.838307",
		"lat":"38.918634",
		"districtHistorical":"清_直隸",
		"districtModern":"中國-河北省-保定市-阜平縣",
		"note":"五臺山東臺四關之一，位臺東南六十里。在河北省阜平縣西70里處。關之東卽直隸，關之西卽山西。（g081p0043）",
		"lang":"中文",
		"shortAuthorityID":"PL2165",
		"names":"",
		"pinyin":[]
	},
	{
		"authorityID":"PL000000002166",
		"name":"龍泉關",
		"dynasty":"明",
		"long":"113.8408",
		"lat":"38.9061",
		"districtHistorical":"明_京師",
		"districtModern":"中國-河北省-保定市-阜平縣",
		"note":null,
		"lang":"中文",
		"shortAuthorityID":"PL2166",
		"names":"",
		"pinyin":[]
	},
	{
		"authorityID":"PL000000002167",
		"name":"西曹谷鋪",
		"dynasty":"北宋",
		"long":"114.1549",
		"lat":"38.8881",
		"districtHistorical":"北宋_河北西路",
		"districtModern":"中國-河北省-保定市-阜平縣",
		"note":null,
		"lang":"中文",
		"shortAuthorityID":"PL2167",
		"names":"",
		"pinyin":[]
	},
	{
		"authorityID":"PL000000002168",
		"name":"東曹谷鋪",
		"dynasty":"北宋",
		"long":"114.1635",
		"lat":"38.8616",
		"districtHistorical":"北宋_河北西路",
		"districtModern":"中國-河北省-保定市-阜平縣",
		"note":null,
		"lang":"中文",
		"shortAuthorityID":"PL2168",
		"names":"",
		"pinyin":[]
	},
	{
		"authorityID":"PL000000002169",
		"name":"阜平",
		"dynasty":"清",
		"long":"114.1973",
		"lat":"38.8524",
		"districtHistorical":"清_直隸",
		"districtModern":"中國-河北省-保定市-阜平縣",
		"note":null,
		"lang":"中文",
		"shortAuthorityID":"PL2169",
		"names":"",
		"pinyin":[]
	},
	{
		"authorityID":"PL000000002170",
		"name":"阜平",
		"dynasty":"明",
		"long":"114.1973",
		"lat":"38.8524",
		"districtHistorical":"明_京師",
		"districtModern":"中國-河北省-保定市-阜平縣",
		"note":"位於河北省西部。屬保定市，與山西省接壤。明朝時，屬真定府所轄。（<a target=\"_blank\" href=\"http:\/\/baike.baidu.com\/view\/22121.htm\">http:\/\/baike.baidu.com\/阜平縣<\/a>，2012.04.06）",
		"lang":"中文",
		"shortAuthorityID":"PL2170",
		"names":"",
		"pinyin":[]
	},
	{
		"authorityID":"PL000000002171",
		"name":"阜平",
		"dynasty":"元",
		"long":"114.1973",
		"lat":"38.8524",
		"districtHistorical":"元_中書省",
		"districtModern":"中國-河北省-保定市-阜平縣",
		"note":null,
		"lang":"中文",
		"shortAuthorityID":"PL2171",
		"names":"",
		"pinyin":[]
	},
	{
		"authorityID":"PL000000002172",
		"name":"北寨",
		"dynasty":"北宋",
		"long":"114.1973",
		"lat":"38.8524",
		"districtHistorical":"北宋_河北西路",
		"districtModern":"中國-河北省-保定市-阜平縣",
		"note":null,
		"lang":"中文",
		"shortAuthorityID":"PL2172",
		"names":"",
		"pinyin":[]
	},
	{
		"authorityID":"PL000000002173",
		"name":"玉柳口鋪",
		"dynasty":"北宋",
		"long":"114.399",
		"lat":"38.8247",
		"districtHistorical":"北宋_河北西路",
		"districtModern":"中國-河北省-保定市-阜平縣",
		"note":null,
		"lang":"中文",
		"shortAuthorityID":"PL2173",
		"names":"",
		"pinyin":[]
	},
	{
		"authorityID":"PL000000002174",
		"name":"王快鎮",
		"dynasty":"清",
		"long":"114.4319",
		"lat":"38.7765",
		"districtHistorical":"清_直隸",
		"districtModern":"中國-河北省-保定市-阜平縣",
		"note":null,
		"lang":"中文",
		"shortAuthorityID":"PL2174",
		"names":"",
		"pinyin":[]
	},
	{
		"authorityID":"PL000000002175",
		"name":"嘉祐鎮",
		"dynasty":"北宋",
		"long":"114.3253",
		"lat":"38.7645",
		"districtHistorical":"北宋_河北西路",
		"districtModern":"中國-河北省-保定市-阜平縣",
		"note":null,
		"lang":"中文",
		"shortAuthorityID":"PL2175",
		"names":"",
		"pinyin":[]
	},
	{
		"authorityID":"PL000000002176",
		"name":"釜山村鋪",
		"dynasty":"北宋",
		"long":"115.4251",
		"lat":"39.1239",
		"districtHistorical":"北宋_河北西路",
		"districtModern":"中國-河北省-保定市-徐水縣",
		"note":null,
		"lang":"中文",
		"shortAuthorityID":"PL2176",
		"names":"",
		"pinyin":[]
	},
	{
		"authorityID":"PL000000002177",
		"name":"長城口",
		"dynasty":"北宋",
		"long":"115.5877",
		"lat":"39.0982",
		"districtHistorical":"北宋_河北西路",
		"districtModern":"中國-河北省-保定市-徐水縣",
		"note":null,
		"lang":"中文",
		"shortAuthorityID":"PL2177",
		"names":"",
		"pinyin":[]
	},
	{
		"authorityID":"PL000000002178",
		"name":"白塔站",
		"dynasty":"元",
		"long":"115.6868",
		"lat":"39.0667",
		"districtHistorical":"元_中書省",
		"districtModern":"中國-河北省-保定市-徐水縣",
		"note":null,
		"lang":"中文",
		"shortAuthorityID":"PL2178",
		"names":"",
		"pinyin":[]
	},
	{
		"authorityID":"PL000000002179",
		"name":"大王店",
		"dynasty":"清",
		"long":"115.4658",
		"lat":"39.06",
		"districtHistorical":"清_直隸",
		"districtModern":"中國-河北省-保定市-徐水縣",
		"note":null,
		"lang":"中文",
		"shortAuthorityID":"PL2179",
		"names":"",
		"pinyin":[]
	},
	{
		"authorityID":"PL000000002180",
		"name":"遂城",
		"dynasty":"元",
		"long":"115.5499",
		"lat":"39.0483",
		"districtHistorical":"元_中書省",
		"districtModern":"中國-河北省-保定市-徐水縣",
		"note":null,
		"lang":"中文",
		"shortAuthorityID":"PL2180",
		"names":"",
		"pinyin":{
			"遂城":"suì chéng"
		}
	},
	{
		"authorityID":"PL000000002181",
		"name":"遂城",
		"dynasty":"北宋",
		"long":"115.5438",
		"lat":"39.0427",
		"districtHistorical":"北宋_河北西路",
		"districtModern":"中國-河北省-保定市-徐水縣",
		"note":null,
		"lang":"中文",
		"shortAuthorityID":"PL2181",
		"names":"",
		"pinyin":{
			"遂城":"suì chéng"
		}
	},
	{
		"authorityID":"PL000000002182",
		"name":"廣信軍",
		"dynasty":"北宋",
		"long":"115.5438",
		"lat":"39.0427",
		"districtHistorical":"北宋_河北西路",
		"districtModern":"中國-河北省-保定市-徐水縣",
		"note":null,
		"lang":"中文",
		"shortAuthorityID":"PL2182",
		"names":"",
		"pinyin":[]
	},
	{
		"authorityID":"PL000000002183",
		"name":"遂城",
		"dynasty":"隋",
		"long":"115.5491",
		"lat":"39.0409",
		"districtHistorical":"隋_上谷郡",
		"districtModern":"中國-河北省-保定市-徐水縣",
		"note":null,
		"lang":"中文",
		"shortAuthorityID":"PL2183",
		"names":"",
		"pinyin":{
			"遂城":"suì chéng"
		}
	},
	{
		"authorityID":"PL000000002184",
		"name":"遂城",
		"dynasty":"唐",
		"long":"115.5481",
		"lat":"39.0401",
		"districtHistorical":"唐_河北道",
		"districtModern":"中國-河北省-保定市-徐水縣",
		"note":null,
		"lang":"中文",
		"shortAuthorityID":"PL2184",
		"names":"",
		"pinyin":{
			"遂城":"suì chéng"
		}
	},
	{
		"authorityID":"PL000000002185",
		"name":"安肅",
		"dynasty":"清",
		"long":"115.6671",
		"lat":"39.0187",
		"districtHistorical":"清_直隸",
		"districtModern":"中國-河北省-保定市-徐水縣",
		"note":null,
		"lang":"中文",
		"shortAuthorityID":"PL2185",
		"names":"",
		"pinyin":{
			"安肅":"ān sù"
		}
	},
	{
		"authorityID":"PL000000002186",
		"name":"安肅",
		"dynasty":"明",
		"long":"115.6671",
		"lat":"39.0187",
		"districtHistorical":"明_京師",
		"districtModern":"中國-河北省-保定市-徐水縣",
		"note":null,
		"lang":"中文",
		"shortAuthorityID":"PL2186",
		"names":"",
		"pinyin":{
			"安肅":"ān sù"
		}
	},
	{
		"authorityID":"PL000000002187",
		"name":"安肅州",
		"dynasty":"元",
		"long":"115.6671",
		"lat":"39.0187",
		"districtHistorical":"元_中書省",
		"districtModern":"中國-河北省-保定市-徐水縣",
		"note":null,
		"lang":"中文",
		"shortAuthorityID":"PL2187",
		"names":"",
		"pinyin":{
			"安肅州":"ān sù zhōu"
		}
	},
	{
		"authorityID":"PL000000002188",
		"name":"安肅",
		"dynasty":"北宋",
		"long":"115.6671",
		"lat":"39.0187",
		"districtHistorical":"北宋_河北西路",
		"districtModern":"中國-河北省-保定市-徐水縣",
		"note":null,
		"lang":"中文",
		"shortAuthorityID":"PL2188",
		"names":"",
		"pinyin":{
			"安肅":"ān sù"
		}
	},
	{
		"authorityID":"PL000000002189",
		"name":"安肅軍",
		"dynasty":"北宋",
		"long":"115.6671",
		"lat":"39.0187",
		"districtHistorical":"北宋_河北西路",
		"districtModern":"中國-河北省-保定市-徐水縣",
		"note":null,
		"lang":"中文",
		"shortAuthorityID":"PL2189",
		"names":"",
		"pinyin":{
			"安肅軍":"ān sù jūn"
		}
	},
	{
		"authorityID":"PL000000002190",
		"name":"北新城",
		"dynasty":"西晉",
		"long":"115.5453",
		"lat":"39.007",
		"districtHistorical":"西晉_冀州",
		"districtModern":"中國-河北省-保定市-徐水縣",
		"note":null,
		"lang":"中文",
		"shortAuthorityID":"PL2190",
		"names":"",
		"pinyin":[]
	},
	{
		"authorityID":"PL000000002191",
		"name":"北新城",
		"dynasty":"曹魏",
		"long":"115.5453",
		"lat":"39.007",
		"districtHistorical":"三國 魏_幽州",
		"districtModern":"中國-河北省-保定市-徐水縣",
		"note":null,
		"lang":"中文",
		"shortAuthorityID":"PL2191",
		"names":"",
		"pinyin":[]
	},
	{
		"authorityID":"PL000000002192",
		"name":"北新城",
		"dynasty":"東漢",
		"long":"115.5701",
		"lat":"38.9951",
		"districtHistorical":"東漢_幽州刺史部",
		"districtModern":"中國-河北省-保定市-徐水縣",
		"note":null,
		"lang":"中文",
		"shortAuthorityID":"PL2192",
		"names":"",
		"pinyin":[]
	},
	{
		"authorityID":"PL000000002193",
		"name":"北新城",
		"dynasty":"西漢",
		"long":"115.5701",
		"lat":"38.9951",
		"districtHistorical":"西漢_冀州刺史部",
		"districtModern":"中國-河北省-保定市-徐水縣",
		"note":null,
		"lang":"中文",
		"shortAuthorityID":"PL2193",
		"names":"",
		"pinyin":[]
	},
	{
		"authorityID":"PL000000002194",
		"name":"新城",
		"dynasty":"北魏",
		"long":"115.5478",
		"lat":"38.9897",
		"districtHistorical":"北朝 魏_瀛州",
		"districtModern":"中國-河北省-保定市-徐水縣",
		"note":"縣城即戰國時武遂城也，趙將李牧攻燕拔武遂方城即此也。後魏孝武帝永熙二年，以韓瓚為營州刺史。行逹此城值盧曹搆逆，就置南營州，以瓚為刺史。所部三千餘人並雄武冠時，因號英雄城。（淵四．元和郡縣志．卷二十二：11）",
		"lang":"中文",
		"shortAuthorityID":"PL2194",
		"names":"[中文] 昌黎郡,南營州,英雄城",
		"pinyin":{
			"新城":"xīn chéng"
		}
	},
	{
		"authorityID":"PL000000002195",
		"name":"樊與亭",
		"dynasty":"東漢",
		"long":"115.7065",
		"lat":"38.9859",
		"districtHistorical":"東漢_幽州刺史部",
		"districtModern":"中國-河北省-保定市-徐水縣",
		"note":null,
		"lang":"中文",
		"shortAuthorityID":"PL2195",
		"names":"",
		"pinyin":[]
	},
	{
		"authorityID":"PL000000002196",
		"name":"五侯寺",
		"dynasty":null,
		"long":"115.693",
		"lat":"39.1316",
		"districtHistorical":null,
		"districtModern":"中國-河北省-保定市-定興縣",
		"note":"",
		"lang":"中文",
		"shortAuthorityID":"PL2196",
		"names":"",
		"pinyin":[]
	},
	{
		"authorityID":"PL000000002197",
		"name":"定興",
		"dynasty":"清",
		"long":"115.784",
		"lat":"39.2688",
		"districtHistorical":"清_直隸",
		"districtModern":"中國-河北省-保定市-定興縣",
		"note":null,
		"lang":"中文",
		"shortAuthorityID":"PL2197",
		"names":"",
		"pinyin":[]
	},
	{
		"authorityID":"PL000000002198",
		"name":"定興",
		"dynasty":"明",
		"long":"115.784",
		"lat":"39.2688",
		"districtHistorical":"明_京師",
		"districtModern":"中國-河北省-保定市-定興縣",
		"note":null,
		"lang":"中文",
		"shortAuthorityID":"PL2198",
		"names":"",
		"pinyin":[]
	},
	{
		"authorityID":"PL000000002199",
		"name":"定興",
		"dynasty":"元",
		"long":"115.784",
		"lat":"39.2688",
		"districtHistorical":"元_中書省",
		"districtModern":"中國-河北省-保定市-定興縣",
		"note":null,
		"lang":"中文",
		"shortAuthorityID":"PL2199",
		"names":"",
		"pinyin":[]
	},
	{
		"authorityID":"PL000000002200",
		"name":"史家鎮",
		"dynasty":"清",
		"long":"115.8837",
		"lat":"39.2567",
		"districtHistorical":"清_直隸",
		"districtModern":"中國-河北省-保定市-定興縣",
		"note":null,
		"lang":"中文",
		"shortAuthorityID":"PL2200",
		"names":"",
		"pinyin":[]
	},
	{
		"authorityID":"PL000000002201",
		"name":"迺縣",
		"dynasty":"隋",
		"long":"115.697",
		"lat":"39.211",
		"districtHistorical":"隋_上谷郡",
		"districtModern":"中國-河北省-保定市-定興縣",
		"note":null,
		"lang":"中文",
		"shortAuthorityID":"PL2201",
		"names":"",
		"pinyin":[]
	},
	{
		"authorityID":"PL000000002202",
		"name":"河陽",
		"dynasty":"明",
		"long":"115.7643",
		"lat":"39.2079",
		"districtHistorical":"明_京師",
		"districtModern":"中國-河北省-保定市-定興縣",
		"note":null,
		"lang":"中文",
		"shortAuthorityID":"PL2202",
		"names":"",
		"pinyin":{
			"河陽":"hé yáng"
		}
	},
	{
		"authorityID":"PL000000002203",
		"name":"容城",
		"dynasty":"遼",
		"long":"115.8599",
		"lat":"39.173",
		"districtHistorical":"遼_南京道",
		"districtModern":"中國-河北省-保定市-定興縣",
		"note":null,
		"lang":"中文",
		"shortAuthorityID":"PL2203",
		"names":"",
		"pinyin":[]
	},
	{
		"authorityID":"PL000000002204",
		"name":"范陽",
		"dynasty":"秦",
		"long":"115.6867",
		"lat":"39.1507",
		"districtHistorical":"秦_廣陽郡",
		"districtModern":"中國-河北省-保定市-定興縣",
		"note":null,
		"lang":"中文",
		"shortAuthorityID":"PL2204",
		"names":"",
		"pinyin":{
			"范陽":"fàn yáng"
		}
	},
	{
		"authorityID":"PL000000002205",
		"name":"武陽城",
		"dynasty":"北魏",
		"long":"115.599",
		"lat":"39.1501",
		"districtHistorical":"北朝 魏_幽州",
		"districtModern":"中國-河北省-保定市-定興縣",
		"note":null,
		"lang":"中文",
		"shortAuthorityID":"PL2205",
		"names":"",
		"pinyin":{
			"武陽城":"wǔ yáng chéng"
		}
	},
	{
		"authorityID":"PL000000002206",
		"name":"范陽",
		"dynasty":"東漢",
		"long":"115.6938",
		"lat":"39.142",
		"districtHistorical":"東漢_幽州刺史部",
		"districtModern":"中國-河北省-保定市-定興縣",
		"note":null,
		"lang":"中文",
		"shortAuthorityID":"PL2206",
		"names":"",
		"pinyin":{
			"范陽":"fàn yáng"
		}
	},
	{
		"authorityID":"PL000000002207",
		"name":"范陽",
		"dynasty":"西漢",
		"long":"115.6938",
		"lat":"39.142",
		"districtHistorical":"西漢_幽州刺史部",
		"districtModern":"中國-河北省-保定市-定興縣",
		"note":null,
		"lang":"中文",
		"shortAuthorityID":"PL2207",
		"names":"",
		"pinyin":{
			"范陽":"fàn yáng"
		}
	},
	{
		"authorityID":"PL000000002208",
		"name":"范陽",
		"dynasty":"西晉",
		"long":"115.6877",
		"lat":"39.1372",
		"districtHistorical":"西晉_幽州",
		"districtModern":"中國-河北省-保定市-定興縣",
		"note":null,
		"lang":"中文",
		"shortAuthorityID":"PL2208",
		"names":"",
		"pinyin":{
			"范陽":"fàn yáng"
		}
	},
	{
		"authorityID":"PL000000002209",
		"name":"范陽",
		"dynasty":"曹魏",
		"long":"115.6877",
		"lat":"39.1372",
		"districtHistorical":"三國 魏_幽州",
		"districtModern":"中國-河北省-保定市-定興縣",
		"note":null,
		"lang":"中文",
		"shortAuthorityID":"PL2209",
		"names":"",
		"pinyin":{
			"范陽":"fàn yáng"
		}
	},
	{
		"authorityID":"PL000000002210",
		"name":"固城鎮",
		"dynasty":"明",
		"long":"115.6951",
		"lat":"39.1348",
		"districtHistorical":"明_京師",
		"districtModern":"中國-河北省-保定市-定興縣",
		"note":null,
		"lang":"中文",
		"shortAuthorityID":"PL2210",
		"names":"",
		"pinyin":[]
	},
	{
		"authorityID":"PL000000002211",
		"name":"范陽",
		"dynasty":"北魏",
		"long":"115.6929",
		"lat":"39.1316",
		"districtHistorical":"北朝 魏_幽州",
		"districtModern":"中國-河北省-保定市-定興縣",
		"note":null,
		"lang":"中文",
		"shortAuthorityID":"PL2211",
		"names":"",
		"pinyin":{
			"范陽":"fàn yáng"
		}
	},
	{
		"authorityID":"PL000000002212",
		"name":"大茂山",
		"dynasty":null,
		"long":"114.503484",
		"lat":"39.052517",
		"districtHistorical":null,
		"districtModern":"中國-河北省-保定市-唐縣",
		"note":"恆山，在阜平、唐縣邊界，西周定大茂山作為北嶽恆山的主峰，漢避帝諱改名常山（漢文帝劉恆）。漢宣帝頒發詔書禪封大茂山為五嶽之一。之後的幾千年裡，這裡歷來是帝王祭祀的場所，直到1660年（清順治十七年）才移祀山西渾源天峰嶺為北嶽恆山。（<a target=\"_blank\" href=\"http:\/\/baike.baidu.com\/view\/3776955.html?goodTagLemma\">http:\/\/baike.baidu.com\/view\/3776955.html?goodTagLemma<\/a>；<a target=\"_blank\" href=\"http:\/\/hi.baidu.com\/pigpop\/blog\/item\/f6a3652ac45de9395343c192.html\">http:\/\/hi.baidu.com\/pigpop\/blog\/item\/f6a3652ac45de9395343c192.html<\/a>，2010.10.14）",
		"lang":"中文",
		"shortAuthorityID":"PL2212",
		"names":"[中文] 古北嶽恆山,神仙山,常山",
		"pinyin":{
			"常山":"cháng shān"
		}
	},
	{
		"authorityID":"PL000000002213",
		"name":"法果寺",
		"dynasty":"唐",
		"long":"114.959303",
		"lat":"38.743821",
		"districtHistorical":null,
		"districtModern":"中國-河北省-保定市-唐縣",
		"note":"在唐縣西，寺前有塔，唐垂拱中建，髙數百尺。（唐寺考：119；<a target=\"_blank\" href=\" http:\/\/chgis.hmdc.harvard.edu\/search_details_1.php?ptid=relig_789\"> http:\/\/chgis.hmdc.harvard.edu\/search_details_1.php?ptid=relig_789<\/a>，2009.06.18；淵四．大清一統志．卷十一：29；四部續．嘉慶一統志．保定府四：7）",
		"lang":"中文",
		"shortAuthorityID":"PL2213",
		"names":"",
		"pinyin":{
			"法果寺":"fǎ guǒ sì"
		}
	},
	{
		"authorityID":"PL000000002214",
		"name":"靈源寺",
		"dynasty":"唐",
		"long":"115.012215",
		"lat":"38.798706",
		"districtHistorical":null,
		"districtModern":"中國-河北省-保定市-唐縣",
		"note":"在唐縣東北靈源山，唐上元二年建。（唐寺考：119；<a target=\"_blank\" href=\" http:\/\/chgis.hmdc.harvard.edu\/search_details_1.php?ptid=relig_881\"> http:\/\/chgis.hmdc.harvard.edu\/search_details_1.php?ptid=relig_881<\/a>，2009.06.18；淵四．大清一統志．卷十一：29；四部續．嘉慶一統志．保定府四：7）",
		"lang":"中文",
		"shortAuthorityID":"PL2214",
		"names":"",
		"pinyin":{
			"靈源寺":"líng yuán sì"
		}
	},
	{
		"authorityID":"PL000000002215",
		"name":"周家鋪堡",
		"dynasty":"清",
		"long":"114.8338",
		"lat":"39.079",
		"districtHistorical":"清_直隸",
		"districtModern":"中國-河北省-保定市-唐縣",
		"note":null,
		"lang":"中文",
		"shortAuthorityID":"PL2215",
		"names":"",
		"pinyin":[]
	},
	{
		"authorityID":"PL000000002216",
		"name":"周家鋪",
		"dynasty":"明",
		"long":"114.839",
		"lat":"39.0758",
		"districtHistorical":"明_京師",
		"districtModern":"中國-河北省-保定市-唐縣",
		"note":null,
		"lang":"中文",
		"shortAuthorityID":"PL2216",
		"names":"",
		"pinyin":[]
	},
	{
		"authorityID":"PL000000002217",
		"name":"倒馬關",
		"dynasty":"清",
		"long":"114.6305",
		"lat":"39.0745",
		"districtHistorical":"清_直隸",
		"districtModern":"中國-河北省-保定市-唐縣",
		"note":null,
		"lang":"中文",
		"shortAuthorityID":"PL2217",
		"names":"",
		"pinyin":[]
	},
	{
		"authorityID":"PL000000002218",
		"name":"花塔子鋪",
		"dynasty":"北宋",
		"long":"114.8057",
		"lat":"39.0684",
		"districtHistorical":"北宋_河北西路",
		"districtModern":"中國-河北省-保定市-唐縣",
		"note":null,
		"lang":"中文",
		"shortAuthorityID":"PL2218",
		"names":"",
		"pinyin":[]
	},
	{
		"authorityID":"PL000000002219",
		"name":"倒馬關",
		"dynasty":"元",
		"long":"114.6351",
		"lat":"39.0608",
		"districtHistorical":"元_中書省",
		"districtModern":"中國-河北省-保定市-唐縣",
		"note":null,
		"lang":"中文",
		"shortAuthorityID":"PL2219",
		"names":"",
		"pinyin":[]
	},
	{
		"authorityID":"PL000000002220",
		"name":"岳嶺口",
		"dynasty":"清",
		"long":"114.5761",
		"lat":"38.9867",
		"districtHistorical":"清_直隸",
		"districtModern":"中國-河北省-保定市-唐縣",
		"note":null,
		"lang":"中文",
		"shortAuthorityID":"PL2220",
		"names":"",
		"pinyin":{
			"岳嶺口":"yuè lǐng kǒu"
		}
	},
	{
		"authorityID":"PL000000002221",
		"name":"岳嶺口",
		"dynasty":"明",
		"long":"114.581",
		"lat":"38.9769",
		"districtHistorical":"明_京師",
		"districtModern":"中國-河北省-保定市-唐縣",
		"note":null,
		"lang":"中文",
		"shortAuthorityID":"PL2221",
		"names":"",
		"pinyin":{
			"岳嶺口":"yuè lǐng kǒu"
		}
	},
	{
		"authorityID":"PL000000002222",
		"name":"石門鋪",
		"dynasty":"北宋",
		"long":"114.6205",
		"lat":"38.9539",
		"districtHistorical":"北宋_河北西路",
		"districtModern":"中國-河北省-保定市-唐縣",
		"note":null,
		"lang":"中文",
		"shortAuthorityID":"PL2222",
		"names":"",
		"pinyin":[]
	},
	{
		"authorityID":"PL000000002223",
		"name":"軍城鎮",
		"dynasty":"清",
		"long":"114.7098",
		"lat":"38.9122",
		"districtHistorical":"清_直隸",
		"districtModern":"中國-河北省-保定市-唐縣",
		"note":null,
		"lang":"中文",
		"shortAuthorityID":"PL2223",
		"names":"",
		"pinyin":[]
	},
	{
		"authorityID":"PL000000002224",
		"name":"唐湄店",
		"dynasty":"清",
		"long":"114.9099",
		"lat":"38.8921",
		"districtHistorical":"清_直隸",
		"districtModern":"中國-河北省-保定市-唐縣",
		"note":null,
		"lang":"中文",
		"shortAuthorityID":"PL2224",
		"names":"",
		"pinyin":{
			"唐湄店":"táng méi diàn"
		}
	},
	{
		"authorityID":"PL000000002225",
		"name":"唐縣",
		"dynasty":"北魏",
		"long":"115.0523",
		"lat":"38.8233",
		"districtHistorical":"北朝 魏_定州",
		"districtModern":"中國-河北省-保定市-唐縣",
		"note":null,
		"lang":"中文",
		"shortAuthorityID":"PL2225",
		"names":"",
		"pinyin":[]
	},
	{
		"authorityID":"PL000000002226",
		"name":"委栗關",
		"dynasty":"西晉",
		"long":"114.9485",
		"lat":"38.8048",
		"districtHistorical":"西晉_冀州",
		"districtModern":"中國-河北省-保定市-唐縣",
		"note":null,
		"lang":"中文",
		"shortAuthorityID":"PL2226",
		"names":"",
		"pinyin":[]
	},
	{
		"authorityID":"PL000000002227",
		"name":"望都",
		"dynasty":"北魏",
		"long":"115.0475",
		"lat":"38.7844",
		"districtHistorical":"北朝 魏_定州",
		"districtModern":"中國-河北省-保定市-唐縣",
		"note":null,
		"lang":"中文",
		"shortAuthorityID":"PL2227",
		"names":"",
		"pinyin":[]
	},
	{
		"authorityID":"PL000000002228",
		"name":"望都",
		"dynasty":"東漢",
		"long":"115.0268",
		"lat":"38.7722",
		"districtHistorical":"東漢_冀州刺史部",
		"districtModern":"中國-河北省-保定市-唐縣",
		"note":null,
		"lang":"中文",
		"shortAuthorityID":"PL2228",
		"names":"",
		"pinyin":[]
	},
	{
		"authorityID":"PL000000002229",
		"name":"望都",
		"dynasty":"西漢",
		"long":"115.0268",
		"lat":"38.7722",
		"districtHistorical":"西漢_冀州刺史部",
		"districtModern":"中國-河北省-保定市-唐縣",
		"note":null,
		"lang":"中文",
		"shortAuthorityID":"PL2229",
		"names":"",
		"pinyin":[]
	},
	{
		"authorityID":"PL000000002230",
		"name":"望都",
		"dynasty":"西晉",
		"long":"115.0243",
		"lat":"38.7655",
		"districtHistorical":"西晉_冀州",
		"districtModern":"中國-河北省-保定市-唐縣",
		"note":null,
		"lang":"中文",
		"shortAuthorityID":"PL2230",
		"names":"",
		"pinyin":[]
	},
	{
		"authorityID":"PL000000002231",
		"name":"望都",
		"dynasty":"曹魏",
		"long":"115.0243",
		"lat":"38.7655",
		"districtHistorical":"三國 魏_冀州",
		"districtModern":"中國-河北省-保定市-唐縣",
		"note":null,
		"lang":"中文",
		"shortAuthorityID":"PL2231",
		"names":"",
		"pinyin":[]
	},
	{
		"authorityID":"PL000000002232",
		"name":"橫河口",
		"dynasty":"清",
		"long":"114.7468",
		"lat":"38.7652",
		"districtHistorical":"清_直隸",
		"districtModern":"中國-河北省-保定市-唐縣",
		"note":null,
		"lang":"中文",
		"shortAuthorityID":"PL2232",
		"names":"",
		"pinyin":{
			"橫河口":"héng hé kǒu"
		}
	},
	{
		"authorityID":"PL000000002233",
		"name":"左人城",
		"dynasty":"北魏",
		"long":"114.8295",
		"lat":"38.7481",
		"districtHistorical":"北朝 魏_定州",
		"districtModern":"中國-河北省-保定市-唐縣",
		"note":null,
		"lang":"中文",
		"shortAuthorityID":"PL2233",
		"names":"",
		"pinyin":{
			"左人城":"zuǒ rén chéng"
		}
	},
	{
		"authorityID":"PL000000002234",
		"name":"左人鄉",
		"dynasty":"東漢",
		"long":"114.8175",
		"lat":"38.7466",
		"districtHistorical":"東漢_冀州刺史部",
		"districtModern":"中國-河北省-保定市-唐縣",
		"note":null,
		"lang":"中文",
		"shortAuthorityID":"PL2234",
		"names":"",
		"pinyin":[]
	},
	{
		"authorityID":"PL000000002235",
		"name":"唐縣",
		"dynasty":"清",
		"long":"114.9788",
		"lat":"38.7408",
		"districtHistorical":"清_直隸",
		"districtModern":"中國-河北省-保定市-唐縣",
		"note":null,
		"lang":"中文",
		"shortAuthorityID":"PL2235",
		"names":"",
		"pinyin":[]
	},
	{
		"authorityID":"PL000000002236",
		"name":"唐縣",
		"dynasty":"明",
		"long":"114.9788",
		"lat":"38.7408",
		"districtHistorical":"明_京師",
		"districtModern":"中國-河北省-保定市-唐縣",
		"note":"",
		"lang":"中文",
		"shortAuthorityID":"PL2236",
		"names":"[中文] 古唐",
		"pinyin":[]
	},
	{
		"authorityID":"PL000000002237",
		"name":"唐縣",
		"dynasty":"元",
		"long":"114.9788",
		"lat":"38.7408",
		"districtHistorical":"元_中書省",
		"districtModern":"中國-河北省-保定市-唐縣",
		"note":null,
		"lang":"中文",
		"shortAuthorityID":"PL2237",
		"names":"",
		"pinyin":[]
	},
	{
		"authorityID":"PL000000002238",
		"name":"唐縣",
		"dynasty":"隋",
		"long":"114.8473",
		"lat":"38.7381",
		"districtHistorical":"隋_博陵郡",
		"districtModern":"中國-河北省-保定市-唐縣",
		"note":null,
		"lang":"中文",
		"shortAuthorityID":"PL2238",
		"names":"",
		"pinyin":[]
	},
	{
		"authorityID":"PL000000002239",
		"name":"中人城",
		"dynasty":"西晉",
		"long":"114.9161",
		"lat":"38.7338",
		"districtHistorical":"西晉_冀州",
		"districtModern":"中國-河北省-保定市-唐縣",
		"note":null,
		"lang":"中文",
		"shortAuthorityID":"PL2239",
		"names":"",
		"pinyin":[]
	},
	{
		"authorityID":"PL000000002240",
		"name":"中人亭",
		"dynasty":"東漢",
		"long":"114.9436",
		"lat":"38.7311",
		"districtHistorical":"東漢_冀州刺史部",
		"districtModern":"中國-河北省-保定市-唐縣",
		"note":null,
		"lang":"中文",
		"shortAuthorityID":"PL2240",
		"names":"",
		"pinyin":[]
	},
	{
		"authorityID":"PL000000002241",
		"name":"左人城",
		"dynasty":"唐",
		"long":"114.8215",
		"lat":"38.7282",
		"districtHistorical":"唐_河北道",
		"districtModern":"中國-河北省-保定市-唐縣",
		"note":null,
		"lang":"中文",
		"shortAuthorityID":"PL2241",
		"names":"",
		"pinyin":{
			"左人城":"zuǒ rén chéng"
		}
	},
	{
		"authorityID":"PL000000002242",
		"name":"唐縣",
		"dynasty":"北宋",
		"long":"114.8325",
		"lat":"38.7083",
		"districtHistorical":"北宋_河北西路",
		"districtModern":"中國-河北省-保定市-唐縣",
		"note":null,
		"lang":"中文",
		"shortAuthorityID":"PL2242",
		"names":"",
		"pinyin":[]
	},
	{
		"authorityID":"PL000000002243",
		"name":"唐縣",
		"dynasty":"唐",
		"long":"114.8339",
		"lat":"38.7047",
		"districtHistorical":"唐_河北道",
		"districtModern":"中國-河北省-保定市-唐縣",
		"note":null,
		"lang":"中文",
		"shortAuthorityID":"PL2243",
		"names":"",
		"pinyin":[]
	},
	{
		"authorityID":"PL000000002244",
		"name":"北羅",
		"dynasty":"清",
		"long":"114.8824",
		"lat":"38.7019",
		"districtHistorical":"清_直隸",
		"districtModern":"中國-河北省-保定市-唐縣",
		"note":null,
		"lang":"中文",
		"shortAuthorityID":"PL2244",
		"names":"",
		"pinyin":[]
	},
	{
		"authorityID":"PL000000002245",
		"name":"倒馬關所",
		"dynasty":"明",
		"long":"114.6268",
		"lat":"39.0633",
		"districtHistorical":"明_京師",
		"districtModern":"中國-河北省-保定市-唐縣",
		"note":null,
		"lang":"中文",
		"shortAuthorityID":"PL2245",
		"names":"",
		"pinyin":[]
	},
	{
		"authorityID":"PL000000002246",
		"name":"龍化鎮",
		"dynasty":"清",
		"long":"115.8875",
		"lat":"38.7327",
		"districtHistorical":"清_直隸",
		"districtModern":"中國-河北省-保定市-高陽縣",
		"note":null,
		"lang":"中文",
		"shortAuthorityID":"PL2246",
		"names":"",
		"pinyin":[]
	},
	{
		"authorityID":"PL000000002247",
		"name":"高陽",
		"dynasty":"北魏",
		"long":"115.911",
		"lat":"38.6893",
		"districtHistorical":"北朝 魏_瀛州",
		"districtModern":"中國-河北省-保定市-高陽縣",
		"note":null,
		"lang":"中文",
		"shortAuthorityID":"PL2247",
		"names":"",
		"pinyin":[]
	},
	{
		"authorityID":"PL000000002248",
		"name":"高陽郡",
		"dynasty":"北魏",
		"long":"115.911",
		"lat":"38.6893",
		"districtHistorical":"北朝 魏_瀛州",
		"districtModern":"中國-河北省-保定市-高陽縣",
		"note":"東漢桓帝置，治高陽，即今河北高陽縣舊城村。西漢初酈食其自稱「高陽酒徒」，是高陽鄉，在今河南，與高陽郡無關。晉治博陸（今河北蠡縣南）。北魏還治高陽。隋開皇三年（583）廢。（<a target=\"_blank\" href=\"http:\/\/baike.baidu.com\/view\/437516.htm\">http:\/\/baike.baidu.com\/view\/437516.htm<\/a>，2012.09.24）",
		"lang":"中文",
		"shortAuthorityID":"PL2248",
		"names":"",
		"pinyin":[]
	},
	{
		"authorityID":"PL000000002249",
		"name":"高陽",
		"dynasty":"東漢",
		"long":"115.913",
		"lat":"38.6889",
		"districtHistorical":"東漢_冀州刺史部",
		"districtModern":"中國-河北省-保定市-高陽縣",
		"note":null,
		"lang":"中文",
		"shortAuthorityID":"PL2249",
		"names":"",
		"pinyin":[]
	},
	{
		"authorityID":"PL000000002250",
		"name":"高陽",
		"dynasty":"清",
		"long":"115.7839",
		"lat":"38.6881",
		"districtHistorical":"清_直隸",
		"districtModern":"中國-河北省-保定市-高陽縣",
		"note":null,
		"lang":"中文",
		"shortAuthorityID":"PL2250",
		"names":"",
		"pinyin":[]
	},
	{
		"authorityID":"PL000000002251",
		"name":"高陽",
		"dynasty":"明",
		"long":"115.7839",
		"lat":"38.6881",
		"districtHistorical":"明_京師",
		"districtModern":"中國-河北省-保定市-高陽縣",
		"note":null,
		"lang":"中文",
		"shortAuthorityID":"PL2251",
		"names":"",
		"pinyin":[]
	},
	{
		"authorityID":"PL000000002252",
		"name":"高陽",
		"dynasty":"秦",
		"long":"115.9137",
		"lat":"38.6855",
		"districtHistorical":"秦_巨鹿郡",
		"districtModern":"中國-河北省-保定市-高陽縣",
		"note":null,
		"lang":"中文",
		"shortAuthorityID":"PL2252",
		"names":"",
		"pinyin":[]
	},
	{
		"authorityID":"PL000000002253",
		"name":"高陽",
		"dynasty":"元",
		"long":"115.9193",
		"lat":"38.6801",
		"districtHistorical":"元_中書省",
		"districtModern":"中國-河北省-保定市-高陽縣",
		"note":null,
		"lang":"中文",
		"shortAuthorityID":"PL2253",
		"names":"",
		"pinyin":[]
	},
	{
		"authorityID":"PL000000002254",
		"name":"高陽",
		"dynasty":"北宋",
		"long":"115.9054",
		"lat":"38.6795",
		"districtHistorical":"北宋_河北西路",
		"districtModern":"中國-河北省-保定市-高陽縣",
		"note":null,
		"lang":"中文",
		"shortAuthorityID":"PL2254",
		"names":"",
		"pinyin":[]
	},
	{
		"authorityID":"PL000000002255",
		"name":"順安軍",
		"dynasty":"北宋",
		"long":"115.9054",
		"lat":"38.6795",
		"districtHistorical":"北宋_河北西路",
		"districtModern":"中國-河北省-保定市-高陽縣",
		"note":null,
		"lang":"中文",
		"shortAuthorityID":"PL2255",
		"names":"",
		"pinyin":{
			"順安軍":"shùn ān jūn"
		}
	},
	{
		"authorityID":"PL000000002256",
		"name":"高陽",
		"dynasty":"西漢",
		"long":"115.9206",
		"lat":"38.6786",
		"districtHistorical":"西漢_幽州刺史部",
		"districtModern":"中國-河北省-保定市-高陽縣",
		"note":null,
		"lang":"中文",
		"shortAuthorityID":"PL2256",
		"names":"",
		"pinyin":[]
	},
	{
		"authorityID":"PL000000002257",
		"name":"高陽",
		"dynasty":"曹魏",
		"long":"115.9078",
		"lat":"38.6763",
		"districtHistorical":"三國 魏_冀州",
		"districtModern":"中國-河北省-保定市-高陽縣",
		"note":null,
		"lang":"中文",
		"shortAuthorityID":"PL2257",
		"names":"",
		"pinyin":[]
	},
	{
		"authorityID":"PL000000002258",
		"name":"高陽",
		"dynasty":"唐",
		"long":"115.912",
		"lat":"38.6729",
		"districtHistorical":"唐_河北道",
		"districtModern":"中國-河北省-保定市-高陽縣",
		"note":"地處華北平原，位於河北省保定東部。唐貞觀元年（627）廢蒲州，高陽先後屬瀛州、鄚州、范陽郡。開元十四年（726）置高陽軍，為軍治。（<a target=\"_blank\" href=\"http:\/\/baike.baidu.com\/view\/373894.htm\">http:\/\/baike.baidu.com\/view\/373894.htm<\/a>，2012.01.04）",
		"lang":"中文",
		"shortAuthorityID":"PL2258",
		"names":"",
		"pinyin":[]
	},
	{
		"authorityID":"PL000000002259",
		"name":"高陽",
		"dynasty":"隋",
		"long":"115.9116",
		"lat":"38.6706",
		"districtHistorical":"隋_河間郡",
		"districtModern":"中國-河北省-保定市-高陽縣",
		"note":null,
		"lang":"中文",
		"shortAuthorityID":"PL2259",
		"names":"",
		"pinyin":[]
	},
	{
		"authorityID":"PL000000002260",
		"name":"侯世城",
		"dynasty":"北魏",
		"long":"115.7372",
		"lat":"38.6603",
		"districtHistorical":"北朝 魏_瀛州",
		"districtModern":"中國-河北省-保定市-高陽縣",
		"note":null,
		"lang":"中文",
		"shortAuthorityID":"PL2260",
		"names":"",
		"pinyin":[]
	},
	{
		"authorityID":"PL000000002261",
		"name":"新橋鎮",
		"dynasty":"北宋",
		"long":"115.8256",
		"lat":"38.6377",
		"districtHistorical":"北宋_河北西路",
		"districtModern":"中國-河北省-保定市-高陽縣",
		"note":null,
		"lang":"中文",
		"shortAuthorityID":"PL2261",
		"names":"",
		"pinyin":[]
	},
	{
		"authorityID":"PL000000002262",
		"name":"利家口",
		"dynasty":"清",
		"long":"115.8565",
		"lat":"38.5783",
		"districtHistorical":"清_直隸",
		"districtModern":"中國-河北省-保定市-高陽縣",
		"note":null,
		"lang":"中文",
		"shortAuthorityID":"PL2262",
		"names":"",
		"pinyin":[]
	},
	{
		"authorityID":"PL000000002263",
		"name":"緒口鋪",
		"dynasty":"北宋",
		"long":"115.8426",
		"lat":"38.5774",
		"districtHistorical":"北宋_河北西路",
		"districtModern":"中國-河北省-保定市-高陽縣",
		"note":null,
		"lang":"中文",
		"shortAuthorityID":"PL2263",
		"names":"",
		"pinyin":[]
	},
	{
		"authorityID":"PL000000002264",
		"name":"高陽",
		"dynasty":"西晉",
		"long":"115.9078",
		"lat":"38.6763",
		"districtHistorical":"西晉_冀州",
		"districtModern":"中國-河北省-保定市-高陽縣",
		"note":"地處華北平原，位於河北省保定市東南部，距京、津、石各為150公里、180公里、150公里。北靠華北明珠白洋淀與安新交界，西與清苑毗鄰，南與蠡縣、肅寧接壤，東與河間、任丘相接。（<a target=\"_blank\" href=\"http:\/\/baike.baidu.com\/view\/373894.htm\">http:\/\/baike.baidu.com\/view\/373894.htm<\/a>、<a target=\"_blank\" href=\"http:\/\/zh.wikipedia.org\/wiki\/%E9%AB%98%E9%98%B3%E5%8E%BF\">http:\/\/zh.wikipedia.org\/wiki\/高陽縣<\/a>，2012.07.19）",
		"lang":"中文",
		"shortAuthorityID":"PL2264",
		"names":"",
		"pinyin":[]
	},
	{
		"authorityID":"PL000000002265",
		"name":"遒縣",
		"dynasty":"唐",
		"long":"115.8639",
		"lat":"39.1189",
		"districtHistorical":"唐_河北道",
		"districtModern":"中國-河北省-保定市-容城縣",
		"note":null,
		"lang":"中文",
		"shortAuthorityID":"PL2265",
		"names":"",
		"pinyin":[]
	},
	{
		"authorityID":"PL000000002266",
		"name":"容城",
		"dynasty":"西漢",
		"long":"115.8652",
		"lat":"39.1106",
		"districtHistorical":"西漢_幽州刺史部",
		"districtModern":"中國-河北省-保定市-容城縣",
		"note":null,
		"lang":"中文",
		"shortAuthorityID":"PL2266",
		"names":"",
		"pinyin":[]
	},
	{
		"authorityID":"PL000000002267",
		"name":"容城",
		"dynasty":"西晉",
		"long":"115.8715",
		"lat":"39.1099",
		"districtHistorical":"西晉_幽州",
		"districtModern":"中國-河北省-保定市-容城縣",
		"note":null,
		"lang":"中文",
		"shortAuthorityID":"PL2267",
		"names":"",
		"pinyin":[]
	},
	{
		"authorityID":"PL000000002268",
		"name":"容城",
		"dynasty":"曹魏",
		"long":"115.8715",
		"lat":"39.1099",
		"districtHistorical":"三國 魏_幽州",
		"districtModern":"中國-河北省-保定市-容城縣",
		"note":null,
		"lang":"中文",
		"shortAuthorityID":"PL2268",
		"names":"",
		"pinyin":[]
	},
	{
		"authorityID":"PL000000002269",
		"name":"容城",
		"dynasty":"北魏",
		"long":"115.8835",
		"lat":"39.1082",
		"districtHistorical":"北朝 魏_幽州",
		"districtModern":"中國-河北省-保定市-容城縣",
		"note":null,
		"lang":"中文",
		"shortAuthorityID":"PL2269",
		"names":"",
		"pinyin":[]
	},
	{
		"authorityID":"PL000000002270",
		"name":"歸義",
		"dynasty":"唐",
		"long":"115.9899",
		"lat":"39.0786",
		"districtHistorical":"唐_河北道",
		"districtModern":"中國-河北省-保定市-容城縣",
		"note":null,
		"lang":"中文",
		"shortAuthorityID":"PL2270",
		"names":"",
		"pinyin":[]
	},
	{
		"authorityID":"PL000000002271",
		"name":"陳家堡",
		"dynasty":"清",
		"long":"115.9078",
		"lat":"39.0749",
		"districtHistorical":"清_直隸",
		"districtModern":"中國-河北省-保定市-容城縣",
		"note":null,
		"lang":"中文",
		"shortAuthorityID":"PL2271",
		"names":"",
		"pinyin":[]
	},
	{
		"authorityID":"PL000000002272",
		"name":"易縣",
		"dynasty":"北魏",
		"long":"115.964",
		"lat":"39.0742",
		"districtHistorical":"北朝 魏_瀛州",
		"districtModern":"中國-河北省-保定市-容城縣",
		"note":null,
		"lang":"中文",
		"shortAuthorityID":"PL2272",
		"names":"",
		"pinyin":[]
	},
	{
		"authorityID":"PL000000002273",
		"name":"容城",
		"dynasty":"清",
		"long":"115.8755",
		"lat":"39.0509",
		"districtHistorical":"清_直隸",
		"districtModern":"中國-河北省-保定市-容城縣",
		"note":null,
		"lang":"中文",
		"shortAuthorityID":"PL2273",
		"names":"",
		"pinyin":[]
	},
	{
		"authorityID":"PL000000002274",
		"name":"容城",
		"dynasty":"明",
		"long":"115.8755",
		"lat":"39.0509",
		"districtHistorical":"明_京師",
		"districtModern":"中國-河北省-保定市-容城縣",
		"note":null,
		"lang":"中文",
		"shortAuthorityID":"PL2274",
		"names":"",
		"pinyin":[]
	},
	{
		"authorityID":"PL000000002275",
		"name":"容城",
		"dynasty":"元",
		"long":"115.8755",
		"lat":"39.0509",
		"districtHistorical":"元_中書省",
		"districtModern":"中國-河北省-保定市-容城縣",
		"note":null,
		"lang":"中文",
		"shortAuthorityID":"PL2275",
		"names":"",
		"pinyin":[]
	},
	{
		"authorityID":"PL000000002276",
		"name":"易城",
		"dynasty":"西晉",
		"long":"116.0495",
		"lat":"39.0257",
		"districtHistorical":"西晉_冀州",
		"districtModern":"中國-河北省-保定市-容城縣",
		"note":null,
		"lang":"中文",
		"shortAuthorityID":"PL2276",
		"names":"",
		"pinyin":{
			"易城":"yì chéng"
		}
	},
	{
		"authorityID":"PL000000002277",
		"name":"易城",
		"dynasty":"曹魏",
		"long":"116.0495",
		"lat":"39.0257",
		"districtHistorical":"三國 魏_冀州",
		"districtModern":"中國-河北省-保定市-容城縣",
		"note":null,
		"lang":"中文",
		"shortAuthorityID":"PL2277",
		"names":"",
		"pinyin":{
			"易城":"yì chéng"
		}
	},
	{
		"authorityID":"PL000000002278",
		"name":"易京",
		"dynasty":"西晉",
		"long":"116.0116",
		"lat":"39.0209",
		"districtHistorical":"西晉_冀州",
		"districtModern":"中國-河北省-保定市-容城縣",
		"note":null,
		"lang":"中文",
		"shortAuthorityID":"PL2278",
		"names":"",
		"pinyin":{
			"易京":"yì jīng"
		}
	},
	{
		"authorityID":"PL000000002279",
		"name":"易京",
		"dynasty":"曹魏",
		"long":"116.0116",
		"lat":"39.0209",
		"districtHistorical":"三國 魏_冀州",
		"districtModern":"中國-河北省-保定市-容城縣",
		"note":null,
		"lang":"中文",
		"shortAuthorityID":"PL2279",
		"names":"",
		"pinyin":{
			"易京":"yì jīng"
		}
	},
	{
		"authorityID":"PL000000002280",
		"name":"易京",
		"dynasty":"東漢",
		"long":"116.0107",
		"lat":"39.0197",
		"districtHistorical":"東漢_冀州刺史部",
		"districtModern":"中國-河北省-保定市-容城縣",
		"note":null,
		"lang":"中文",
		"shortAuthorityID":"PL2280",
		"names":"",
		"pinyin":{
			"易京":"yì jīng"
		}
	},
	{
		"authorityID":"PL000000002281",
		"name":"易縣",
		"dynasty":"秦",
		"long":"116.0521",
		"lat":"39.0191",
		"districtHistorical":"秦_廣陽郡",
		"districtModern":"中國-河北省-保定市-容城縣",
		"note":null,
		"lang":"中文",
		"shortAuthorityID":"PL2281",
		"names":"",
		"pinyin":[]
	},
	{
		"authorityID":"PL000000002282",
		"name":"易京城",
		"dynasty":"北魏",
		"long":"116.0569",
		"lat":"39.0123",
		"districtHistorical":"北朝 魏_瀛州",
		"districtModern":"中國-河北省-保定市-容城縣",
		"note":null,
		"lang":"中文",
		"shortAuthorityID":"PL2282",
		"names":"",
		"pinyin":{
			"易京城":"yì jīng chéng"
		}
	},
	{
		"authorityID":"PL000000002283",
		"name":"飛狐口",
		"dynasty":"西漢",
		"long":"114.6489",
		"lat":"39.5755",
		"districtHistorical":"西漢_并州刺史部",
		"districtModern":"中國-河北省-保定市-淶源縣",
		"note":null,
		"lang":"中文",
		"shortAuthorityID":"PL2283",
		"names":"",
		"pinyin":{
			"飛狐口":"fēi hú kǒu"
		}
	},
	{
		"authorityID":"PL000000002284",
		"name":"烏龍溝口",
		"dynasty":"清",
		"long":"114.9831",
		"lat":"39.4825",
		"districtHistorical":"清_直隸",
		"districtModern":"中國-河北省-保定市-淶源縣",
		"note":null,
		"lang":"中文",
		"shortAuthorityID":"PL2284",
		"names":"",
		"pinyin":[]
	},
	{
		"authorityID":"PL000000002285",
		"name":"塔崖口",
		"dynasty":"明",
		"long":"115.0439",
		"lat":"39.4318",
		"districtHistorical":"明_京師",
		"districtModern":"中國-河北省-保定市-淶源縣",
		"note":null,
		"lang":"中文",
		"shortAuthorityID":"PL2285",
		"names":"",
		"pinyin":[]
	},
	{
		"authorityID":"PL000000002286",
		"name":"大金井",
		"dynasty":"明",
		"long":"114.6837",
		"lat":"39.4161",
		"districtHistorical":"明_山西",
		"districtModern":"中國-河北省-保定市-淶源縣",
		"note":null,
		"lang":"中文",
		"shortAuthorityID":"PL2286",
		"names":"",
		"pinyin":[]
	},
	{
		"authorityID":"PL000000002287",
		"name":"廣昌",
		"dynasty":"西晉",
		"long":"114.6912",
		"lat":"39.404",
		"districtHistorical":"西晉_幽州",
		"districtModern":"中國-河北省-保定市-淶源縣",
		"note":null,
		"lang":"中文",
		"shortAuthorityID":"PL2287",
		"names":"",
		"pinyin":[]
	},
	{
		"authorityID":"PL000000002288",
		"name":"廣昌",
		"dynasty":"曹魏",
		"long":"114.6912",
		"lat":"39.404",
		"districtHistorical":"三國 魏_冀州",
		"districtModern":"中國-河北省-保定市-淶源縣",
		"note":null,
		"lang":"中文",
		"shortAuthorityID":"PL2288",
		"names":"",
		"pinyin":[]
	},
	{
		"authorityID":"PL000000002289",
		"name":"驛馬嶺",
		"dynasty":"明",
		"long":"114.5082",
		"lat":"39.3933",
		"districtHistorical":"明_山西",
		"districtModern":"中國-河北省-保定市-淶源縣",
		"note":null,
		"lang":"中文",
		"shortAuthorityID":"PL2289",
		"names":"",
		"pinyin":{
			"驛馬嶺":"yì mǎ lǐng"
		}
	},
	{
		"authorityID":"PL000000002290",
		"name":"廣昌",
		"dynasty":"東漢",
		"long":"114.7066",
		"lat":"39.3844",
		"districtHistorical":"東漢_冀州刺史部",
		"districtModern":"中國-河北省-保定市-淶源縣",
		"note":null,
		"lang":"中文",
		"shortAuthorityID":"PL2290",
		"names":"",
		"pinyin":[]
	},
	{
		"authorityID":"PL000000002291",
		"name":"廣昌",
		"dynasty":"西漢",
		"long":"114.7066",
		"lat":"39.3844",
		"districtHistorical":"西漢_并州刺史部",
		"districtModern":"中國-河北省-保定市-淶源縣",
		"note":null,
		"lang":"中文",
		"shortAuthorityID":"PL2291",
		"names":"",
		"pinyin":[]
	},
	{
		"authorityID":"PL000000002292",
		"name":"廣昌",
		"dynasty":"清",
		"long":"114.6985",
		"lat":"39.3534",
		"districtHistorical":"清_直隸",
		"districtModern":"中國-河北省-保定市-淶源縣",
		"note":null,
		"lang":"中文",
		"shortAuthorityID":"PL2292",
		"names":"",
		"pinyin":[]
	},
	{
		"authorityID":"PL000000002293",
		"name":"廣昌",
		"dynasty":"明",
		"long":"114.6985",
		"lat":"39.3534",
		"districtHistorical":"明_山西",
		"districtModern":"中國-河北省-保定市-淶源縣",
		"note":null,
		"lang":"中文",
		"shortAuthorityID":"PL2293",
		"names":"",
		"pinyin":[]
	},
	{
		"authorityID":"PL000000002294",
		"name":"飛狐",
		"dynasty":"元",
		"long":"114.6985",
		"lat":"39.3534",
		"districtHistorical":"元_中書省",
		"districtModern":"中國-河北省-保定市-淶源縣",
		"note":null,
		"lang":"中文",
		"shortAuthorityID":"PL2294",
		"names":"",
		"pinyin":{
			"飛狐":"fēi hú"
		}
	},
	{
		"authorityID":"PL000000002295",
		"name":"飛狐",
		"dynasty":"遼",
		"long":"114.6985",
		"lat":"39.3534",
		"districtHistorical":"遼_西京道",
		"districtModern":"中國-河北省-保定市-淶源縣",
		"note":null,
		"lang":"中文",
		"shortAuthorityID":"PL2295",
		"names":"",
		"pinyin":{
			"飛狐":"fēi hú"
		}
	},
	{
		"authorityID":"PL000000002296",
		"name":"飛狐",
		"dynasty":"唐",
		"long":"114.6985",
		"lat":"39.3534",
		"districtHistorical":"唐_河東道",
		"districtModern":"中國-河北省-保定市-淶源縣",
		"note":"飛狐隋縣，隋末陷賊，武德六年，複置，寄治于易州遂城縣。貞觀五年，移治於今所。（<a target=\"_blank\" href=\"http:\/\/zh.wikisource.org\/wiki\/%E8%88%8A%E5%94%90%E6%9B%B8\/%E5%8D%B739\">http:\/\/zh.wikisource.org\/wiki\/%E8%88%8A%E5%94%90%E6%9B%B8\/%E5%8D%B739<\/a>，2011.12.29）",
		"lang":"中文",
		"shortAuthorityID":"PL2296",
		"names":"",
		"pinyin":{
			"飛狐":"fēi hú"
		}
	},
	{
		"authorityID":"PL000000002297",
		"name":"飛狐",
		"dynasty":"隋",
		"long":"114.6985",
		"lat":"39.3534",
		"districtHistorical":"隋_上谷郡",
		"districtModern":"中國-河北省-保定市-淶源縣",
		"note":null,
		"lang":"中文",
		"shortAuthorityID":"PL2297",
		"names":"",
		"pinyin":{
			"飛狐":"fēi hú"
		}
	},
	{
		"authorityID":"PL000000002298",
		"name":"浮團峪口",
		"dynasty":"清",
		"long":"114.8539",
		"lat":"39.3503",
		"districtHistorical":"清_直隸",
		"districtModern":"中國-河北省-保定市-淶源縣",
		"note":null,
		"lang":"中文",
		"shortAuthorityID":"PL2298",
		"names":"",
		"pinyin":[]
	},
	{
		"authorityID":"PL000000002299",
		"name":"浮圖峪",
		"dynasty":"明",
		"long":"114.8764",
		"lat":"39.3434",
		"districtHistorical":"明_山西",
		"districtModern":"中國-河北省-保定市-淶源縣",
		"note":null,
		"lang":"中文",
		"shortAuthorityID":"PL2299",
		"names":"",
		"pinyin":{
			"浮圖峪":"fú tú yù"
		}
	},
	{
		"authorityID":"PL000000002300",
		"name":"三家村",
		"dynasty":"明",
		"long":"114.8035",
		"lat":"39.3373",
		"districtHistorical":"明_山西",
		"districtModern":"中國-河北省-保定市-淶源縣",
		"note":null,
		"lang":"中文",
		"shortAuthorityID":"PL2300",
		"names":"",
		"pinyin":[]
	},
	{
		"authorityID":"PL000000002301",
		"name":"石門峽",
		"dynasty":"明",
		"long":"114.7484",
		"lat":"39.3371",
		"districtHistorical":"明_山西",
		"districtModern":"中國-河北省-保定市-淶源縣",
		"note":null,
		"lang":"中文",
		"shortAuthorityID":"PL2301",
		"names":"",
		"pinyin":[]
	},
	{
		"authorityID":"PL000000002302",
		"name":"凝靜庵口",
		"dynasty":"清",
		"long":"114.8447",
		"lat":"39.27",
		"districtHistorical":"清_直隸",
		"districtModern":"中國-河北省-保定市-淶源縣",
		"note":null,
		"lang":"中文",
		"shortAuthorityID":"PL2302",
		"names":"",
		"pinyin":[]
	},
	{
		"authorityID":"PL000000002303",
		"name":"白石口",
		"dynasty":"清",
		"long":"114.7083",
		"lat":"39.2549",
		"districtHistorical":"清_直隸",
		"districtModern":"中國-河北省-保定市-淶源縣",
		"note":null,
		"lang":"中文",
		"shortAuthorityID":"PL2303",
		"names":"",
		"pinyin":[]
	},
	{
		"authorityID":"PL000000002304",
		"name":"插箭嶺",
		"dynasty":"清",
		"long":"114.652",
		"lat":"39.2421",
		"districtHistorical":"清_直隸",
		"districtModern":"中國-河北省-保定市-淶源縣",
		"note":null,
		"lang":"中文",
		"shortAuthorityID":"PL2304",
		"names":"",
		"pinyin":[]
	},
	{
		"authorityID":"PL000000002305",
		"name":"插箭峪",
		"dynasty":"明",
		"long":"114.6603",
		"lat":"39.2296",
		"districtHistorical":"明_山西",
		"districtModern":"中國-河北省-保定市-淶源縣",
		"note":null,
		"lang":"中文",
		"shortAuthorityID":"PL2305",
		"names":"",
		"pinyin":[]
	},
	{
		"authorityID":"PL000000002306",
		"name":"銀城防",
		"dynasty":"遼",
		"long":"114.7842",
		"lat":"39.1405",
		"districtHistorical":"遼_西京道",
		"districtModern":"中國-河北省-保定市-淶源縣",
		"note":null,
		"lang":"中文",
		"shortAuthorityID":"PL2306",
		"names":"",
		"pinyin":{
			"銀城防":"yín chéng fáng"
		}
	},
	{
		"authorityID":"PL000000002307",
		"name":"望都",
		"dynasty":"清",
		"long":"115.1431",
		"lat":"38.7046",
		"districtHistorical":"清_直隸",
		"districtModern":"中國-河北省-保定市-望都縣",
		"note":null,
		"lang":"中文",
		"shortAuthorityID":"PL2307",
		"names":"",
		"pinyin":[]
	},
	{
		"authorityID":"PL000000002308",
		"name":"慶都",
		"dynasty":"明",
		"long":"115.1431",
		"lat":"38.7046",
		"districtHistorical":"明_京師",
		"districtModern":"中國-河北省-保定市-望都縣",
		"note":null,
		"lang":"中文",
		"shortAuthorityID":"PL2308",
		"names":"",
		"pinyin":[]
	},
	{
		"authorityID":"PL000000002309",
		"name":"慶都",
		"dynasty":"元",
		"long":"115.1431",
		"lat":"38.7046",
		"districtHistorical":"元_中書省",
		"districtModern":"中國-河北省-保定市-望都縣",
		"note":null,
		"lang":"中文",
		"shortAuthorityID":"PL2309",
		"names":"",
		"pinyin":[]
	},
	{
		"authorityID":"PL000000002310",
		"name":"望都",
		"dynasty":"北宋",
		"long":"115.1431",
		"lat":"38.7046",
		"districtHistorical":"北宋_河北西路",
		"districtModern":"中國-河北省-保定市-望都縣",
		"note":null,
		"lang":"中文",
		"shortAuthorityID":"PL2310",
		"names":"",
		"pinyin":[]
	},
	{
		"authorityID":"PL000000002311",
		"name":"望都",
		"dynasty":"唐",
		"long":"115.1431",
		"lat":"38.7046",
		"districtHistorical":"唐_河北道",
		"districtModern":"中國-河北省-保定市-望都縣",
		"note":"《帝王紀》載「堯母北登堯山，南望都山，故名望都」。望都古屬冀州，為堯帝受封故土，故名慶都。周屬并州，秦朝置郡；漢武帝封中山靖王為廣望候，因此改為望都縣；晉宋皆為縣；北齊劃入北平；唐武德四年復又分安喜、北平二縣置，初治安險故城，貞觀八年，移於今治，屬定州。（<a target=\"_blank\" href=\"http:\/\/zh.wikisource.org\/zh-hant\/%E8%88%8A%E5%94%90%E6%9B%B8\/%E5%8D%B739\">http:\/\/zh.wikisource.org\/zh-hant\/%E8%88%8A%E5%94%90%E6%9B%B8\/%E5%8D%B739<\/a>；<a target=\"_blank\" href=\"http:\/\/baike.baidu.com\/view\/642042.htm\">http:\/\/baike.baidu.com\/view\/642042.htm<\/a>，2014.11.26）",
		"lang":"中文",
		"shortAuthorityID":"PL2311",
		"names":"[中文] 慶都",
		"pinyin":{
			"望都":"wàng dū",
			"慶都":"qìng dū"
		}
	},
	{
		"authorityID":"PL000000002312",
		"name":"陽城",
		"dynasty":"西晉",
		"long":"115.2674",
		"lat":"38.7029",
		"districtHistorical":"西晉_冀州",
		"districtModern":"中國-河北省-保定市-望都縣",
		"note":null,
		"lang":"中文",
		"shortAuthorityID":"PL2312",
		"names":"",
		"pinyin":{
			"陽城":"yáng chéng"
		}
	},
	{
		"authorityID":"PL000000002313",
		"name":"新處",
		"dynasty":"西漢",
		"long":"115.0867",
		"lat":"38.6405",
		"districtHistorical":"西漢_冀州刺史部",
		"districtModern":"中國-河北省-保定市-望都縣",
		"note":null,
		"lang":"中文",
		"shortAuthorityID":"PL2313",
		"names":"",
		"pinyin":[]
	},
	{
		"authorityID":"PL000000002314",
		"name":"容城",
		"dynasty":"北宋",
		"long":"115.9623",
		"lat":"38.9992",
		"districtHistorical":"北宋_河北東路",
		"districtModern":"中國-河北省-保定市-安新縣",
		"note":null,
		"lang":"中文",
		"shortAuthorityID":"PL2314",
		"names":"",
		"pinyin":[]
	},
	{
		"authorityID":"PL000000002315",
		"name":"新安",
		"dynasty":"清",
		"long":"115.938",
		"lat":"38.9244",
		"districtHistorical":"清_直隸",
		"districtModern":"中國-河北省-保定市-安新縣",
		"note":null,
		"lang":"中文",
		"shortAuthorityID":"PL2315",
		"names":"",
		"pinyin":{
			"新安":"xīn ān"
		}
	},
	{
		"authorityID":"PL000000002316",
		"name":"新安",
		"dynasty":"明",
		"long":"115.938",
		"lat":"38.9244",
		"districtHistorical":"明_京師",
		"districtModern":"中國-河北省-保定市-安新縣",
		"note":"東漢末年建有依政縣，唐置唐興縣，宋建順安軍，金建安州；東北不自金設渥城縣，元代改名新安縣，明、清因之，民國3年（1914）取安州、新安二地名各首字稱安新縣。（<a target=\"_blank\" href=\"http:\/\/www.hudong.com\/wiki\/%E6%96%B0%E5%AE%89%E5%8E%BF#19\">http:\/\/www.hudong.com\/wiki\/新安縣<\/a>，2011.11.02）",
		"lang":"中文",
		"shortAuthorityID":"PL2316",
		"names":"",
		"pinyin":{
			"新安":"xīn ān"
		}
	},
	{
		"authorityID":"PL000000002317",
		"name":"新安",
		"dynasty":"元",
		"long":"115.938",
		"lat":"38.9244",
		"districtHistorical":"元_中書省",
		"districtModern":"中國-河北省-保定市-安新縣",
		"note":null,
		"lang":"中文",
		"shortAuthorityID":"PL2317",
		"names":"",
		"pinyin":{
			"新安":"xīn ān"
		}
	},
	{
		"authorityID":"PL000000002318",
		"name":"越北口",
		"dynasty":"清",
		"long":"116.1033",
		"lat":"38.9146",
		"districtHistorical":"清_直隸",
		"districtModern":"中國-河北省-保定市-安新縣",
		"note":null,
		"lang":"中文",
		"shortAuthorityID":"PL2318",
		"names":"",
		"pinyin":[]
	},
	{
		"authorityID":"PL000000002319",
		"name":"葛城",
		"dynasty":"東漢",
		"long":"115.8211",
		"lat":"38.8749",
		"districtHistorical":"東漢_冀州刺史部",
		"districtModern":"中國-河北省-保定市-安新縣",
		"note":null,
		"lang":"中文",
		"shortAuthorityID":"PL2319",
		"names":"",
		"pinyin":[]
	},
	{
		"authorityID":"PL000000002320",
		"name":"安州",
		"dynasty":"清",
		"long":"115.8237",
		"lat":"38.8714",
		"districtHistorical":"清_直隸",
		"districtModern":"中國-河北省-保定市-安新縣",
		"note":null,
		"lang":"中文",
		"shortAuthorityID":"PL2320",
		"names":"",
		"pinyin":{
			"安州":"ān zhōu"
		}
	},
	{
		"authorityID":"PL000000002321",
		"name":"安州",
		"dynasty":"明",
		"long":"115.8254",
		"lat":"38.8666",
		"districtHistorical":"明_京師",
		"districtModern":"中國-河北省-保定市-安新縣",
		"note":null,
		"lang":"中文",
		"shortAuthorityID":"PL2321",
		"names":"",
		"pinyin":{
			"安州":"ān zhōu"
		}
	},
	{
		"authorityID":"PL000000002322",
		"name":"葛城",
		"dynasty":"元",
		"long":"115.8254",
		"lat":"38.8666",
		"districtHistorical":"元_中書省",
		"districtModern":"中國-河北省-保定市-安新縣",
		"note":null,
		"lang":"中文",
		"shortAuthorityID":"PL2322",
		"names":"",
		"pinyin":[]
	},
	{
		"authorityID":"PL000000002323",
		"name":"唐興",
		"dynasty":"唐",
		"long":"115.9043",
		"lat":"38.8551",
		"districtHistorical":"唐_河北道",
		"districtModern":"中國-河北省-保定市-安新縣",
		"note":null,
		"lang":"中文",
		"shortAuthorityID":"PL2323",
		"names":"",
		"pinyin":[]
	},
	{
		"authorityID":"PL000000002324",
		"name":"七級口",
		"dynasty":"北宋",
		"long":"115.8134",
		"lat":"38.8376",
		"districtHistorical":"北宋_河北西路",
		"districtModern":"中國-河北省-保定市-安新縣",
		"note":null,
		"lang":"中文",
		"shortAuthorityID":"PL2324",
		"names":"",
		"pinyin":{
			"七級口":"qī jí kǒu"
		}
	},
	{
		"authorityID":"PL000000002325",
		"name":"扶輿",
		"dynasty":"北魏",
		"long":"115.6841",
		"lat":"38.8081",
		"districtHistorical":"北朝 魏_瀛州",
		"districtModern":"中國-河北省-保定市-安新縣",
		"note":null,
		"lang":"中文",
		"shortAuthorityID":"PL2325",
		"names":"",
		"pinyin":[]
	},
	{
		"authorityID":"PL000000002326",
		"name":"安州",
		"dynasty":"元",
		"long":"115.8254",
		"lat":"38.8666",
		"districtHistorical":"元_中書省",
		"districtModern":"中國-河北省-保定市-安新縣",
		"note":null,
		"lang":"中文",
		"shortAuthorityID":"PL2326",
		"names":"",
		"pinyin":{
			"安州":"ān zhōu"
		}
	},
	{
		"authorityID":"PL000000002327",
		"name":"狼山",
		"dynasty":null,
		"long":"115.494566",
		"lat":"39.347429",
		"districtHistorical":null,
		"districtModern":"中國-河北省-保定市-易縣",
		"note":"地處河北省易縣西南部，因其山勢險峻酷似狼牙，峰頂直刺雲天，故稱狼牙山。狼牙山風景秀麗，「狼山競秀」為 易縣十景之一。（<a target=\"_blank\" href=\"http:\/\/www.51766.com\/channel\/intro\/langyashan\">http:\/\/www.51766.com\/channel\/intro\/langyashan<\/a>，2011.01.21）",
		"lang":"中文",
		"shortAuthorityID":"PL2327",
		"names":"[中文] 狼牙山",
		"pinyin":[]
	},
	{
		"authorityID":"PL000000002328",
		"name":"華嚴寺",
		"dynasty":"隋",
		"long":"115.429823",
		"lat":"39.32196",
		"districtHistorical":null,
		"districtModern":"中國-河北省-保定市-易縣",
		"note":"開在州西南二十五里，隋開皇中建。（唐寺考：120；<a target=\"_blank\" href=\" http:\/\/chgis.hmdc.harvard.edu\/search_details_1.php?ptid=relig_170\"> http:\/\/chgis.hmdc.harvard.edu\/search_details_1.php?ptid=relig_170<\/a>，2009.06.19；淵四．大清一統志．卷三十：20；四部續．嘉慶一統志．易州直隸州二：7）",
		"lang":"中文",
		"shortAuthorityID":"PL2328",
		"names":"",
		"pinyin":{
			"華嚴寺":"huá yán sì"
		}
	},
	{
		"authorityID":"PL000000002329",
		"name":"開元寺",
		"dynasty":"唐",
		"long":"115.517408",
		"lat":"39.35407",
		"districtHistorical":null,
		"districtModern":"中國-河北省-保定市-易縣",
		"note":"在易州治東，唐時建。（唐寺考：120；<a target=\"_blank\" href=\" http:\/\/chgis.hmdc.harvard.edu\/search_details_1.php?ptid=relig_538\"> http:\/\/chgis.hmdc.harvard.edu\/search_details_1.php?ptid=relig_538<\/a>，2009.06.19；淵四．大清一統志．卷三十：20；四部續．嘉慶一統志．易州直隸州二：7）",
		"lang":"中文",
		"shortAuthorityID":"PL2329",
		"names":"",
		"pinyin":{
			"開元寺":"kāi yuán sì"
		}
	},
	{
		"authorityID":"PL000000002330",
		"name":"興聖寺",
		"dynasty":null,
		"long":"115.494566",
		"lat":"39.347429",
		"districtHistorical":null,
		"districtModern":"中國-河北省-保定市-易縣",
		"note":"位於保定，元僧<a target=\"_blank\" href=\"http:\/\/authority.dila.edu.tw\/person\/?fromInner=A008758\">釋德富<\/a>住錫於此。（T50n2062_p0934a07；明僧索引：1498）",
		"lang":"中文",
		"shortAuthorityID":"PL2330",
		"names":"",
		"pinyin":[]
	},
	{
		"authorityID":"PL000000002331",
		"name":"興國寺",
		"dynasty":null,
		"long":"115.509953",
		"lat":"39.359274",
		"districtHistorical":null,
		"districtModern":"中國-河北省-保定市-易縣",
		"note":"在易州東北一里，宋太平興國中建。（淵四．大清一統志．卷三十：20；四部續．嘉慶一統志．易州直隸州二：7）",
		"lang":"中文",
		"shortAuthorityID":"PL2331",
		"names":"",
		"pinyin":{
			"興國寺":"xīng guó sì"
		}
	},
	{
		"authorityID":"PL000000002332",
		"name":"保壽院",
		"dynasty":null,
		"long":"115.494566",
		"lat":"39.347429",
		"districtHistorical":null,
		"districtModern":"中國-河北省-保定市-易縣",
		"note":"位於易州。（T51n2077_p0470b17）",
		"lang":"中文",
		"shortAuthorityID":"PL2332",
		"names":"",
		"pinyin":{
			"保壽院":"bǎo shòu yuàn"
		}
	},
	{
		"authorityID":"PL000000002333",
		"name":"黃莊",
		"dynasty":"清",
		"long":"115.3048",
		"lat":"39.5761",
		"districtHistorical":"清_直隸",
		"districtModern":"中國-河北省-保定市-易縣",
		"note":null,
		"lang":"中文",
		"shortAuthorityID":"PL2333",
		"names":"",
		"pinyin":{
			"黃莊":"huáng zhuāng"
		}
	},