[
	{
		"authorityID":"PL000000003001",
		"name":"匠營",
		"dynasty":"清",
		"long":"116.8926",
		"lat":"41.3925",
		"districtHistorical":"清_直隸",
		"districtModern":"中國-河北省-承德市-豐寧滿族自治縣",
		"note":null,
		"lang":"中文",
		"shortAuthorityID":"PL3001",
		"names":"",
		"pinyin":[]
	},
	{
		"authorityID":"PL000000003002",
		"name":"龍須門",
		"dynasty":"清",
		"long":"118.5867",
		"lat":"40.6508",
		"districtHistorical":"清_直隸",
		"districtModern":"中國-河北省-承德市-寬城滿族自治縣",
		"note":null,
		"lang":"中文",
		"shortAuthorityID":"PL3002",
		"names":"",
		"pinyin":[]
	},
	{
		"authorityID":"PL000000003003",
		"name":"湯兔",
		"dynasty":"明",
		"long":"118.9789",
		"lat":"40.6395",
		"districtHistorical":"韃靼瓦剌",
		"districtModern":"中國-河北省-承德市-寬城滿族自治縣",
		"note":null,
		"lang":"中文",
		"shortAuthorityID":"PL3003",
		"names":"",
		"pinyin":[]
	},
	{
		"authorityID":"PL000000003004",
		"name":"聶門",
		"dynasty":"明",
		"long":"118.6559",
		"lat":"40.6084",
		"districtHistorical":"韃靼瓦剌",
		"districtModern":"中國-河北省-承德市-寬城滿族自治縣",
		"note":null,
		"lang":"中文",
		"shortAuthorityID":"PL3004",
		"names":"",
		"pinyin":[]
	},
	{
		"authorityID":"PL000000003005",
		"name":"寬城",
		"dynasty":"清",
		"long":"118.4904",
		"lat":"40.5982",
		"districtHistorical":"清_直隸",
		"districtModern":"中國-河北省-承德市-寬城滿族自治縣",
		"note":null,
		"lang":"中文",
		"shortAuthorityID":"PL3005",
		"names":"",
		"pinyin":{
			"寬城":"kuān chéng"
		}
	},
	{
		"authorityID":"PL000000003006",
		"name":"寬河",
		"dynasty":"明",
		"long":"118.4904",
		"lat":"40.5982",
		"districtHistorical":"韃靼瓦剌",
		"districtModern":"中國-河北省-承德市-寬城滿族自治縣",
		"note":null,
		"lang":"中文",
		"shortAuthorityID":"PL3006",
		"names":"",
		"pinyin":{
			"寬河":"kuān hé"
		}
	},
	{
		"authorityID":"PL000000003007",
		"name":"寬民站",
		"dynasty":"元",
		"long":"118.563",
		"lat":"40.587",
		"districtHistorical":"元_遼陽行省",
		"districtModern":"中國-河北省-承德市-寬城滿族自治縣",
		"note":null,
		"lang":"中文",
		"shortAuthorityID":"PL3007",
		"names":"",
		"pinyin":[]
	},
	{
		"authorityID":"PL000000003008",
		"name":"逃軍兔",
		"dynasty":"明",
		"long":"118.8083",
		"lat":"40.5587",
		"districtHistorical":"韃靼瓦剌",
		"districtModern":"中國-河北省-承德市-寬城滿族自治縣",
		"note":null,
		"lang":"中文",
		"shortAuthorityID":"PL3008",
		"names":"",
		"pinyin":[]
	},
	{
		"authorityID":"PL000000003009",
		"name":"黃崖",
		"dynasty":"明",
		"long":"118.4733",
		"lat":"40.5382",
		"districtHistorical":"韃靼瓦剌",
		"districtModern":"中國-河北省-承德市-寬城滿族自治縣",
		"note":null,
		"lang":"中文",
		"shortAuthorityID":"PL3009",
		"names":"",
		"pinyin":{
			"黃崖":"huáng yá"
		}
	},
	{
		"authorityID":"PL000000003010",
		"name":"忽魯思大",
		"dynasty":"明",
		"long":"118.6983",
		"lat":"40.5096",
		"districtHistorical":"韃靼瓦剌",
		"districtModern":"中國-河北省-承德市-寬城滿族自治縣",
		"note":null,
		"lang":"中文",
		"shortAuthorityID":"PL3010",
		"names":"",
		"pinyin":[]
	},
	{
		"authorityID":"PL000000003011",
		"name":"孤山",
		"dynasty":"明",
		"long":"118.5388",
		"lat":"40.439",
		"districtHistorical":"韃靼瓦剌",
		"districtModern":"中國-河北省-承德市-寬城滿族自治縣",
		"note":null,
		"lang":"中文",
		"shortAuthorityID":"PL3011",
		"names":"",
		"pinyin":{
			"孤山":"gū shān"
		}
	},
	{
		"authorityID":"PL000000003012",
		"name":"青山口",
		"dynasty":"明",
		"long":"118.5752",
		"lat":"40.3922",
		"districtHistorical":"明_京師",
		"districtModern":"中國-河北省-承德市-寬城滿族自治縣",
		"note":null,
		"lang":"中文",
		"shortAuthorityID":"PL3012",
		"names":"",
		"pinyin":[]
	},
	{
		"authorityID":"PL000000003013",
		"name":"青山口關",
		"dynasty":"清",
		"long":"118.5829",
		"lat":"40.3818",
		"districtHistorical":"清_直隸",
		"districtModern":"中國-河北省-承德市-寬城滿族自治縣",
		"note":null,
		"lang":"中文",
		"shortAuthorityID":"PL3013",
		"names":"",
		"pinyin":[]
	},
	{
		"authorityID":"PL000000003014",
		"name":"大姑站",
		"dynasty":"元",
		"long":"118.5953",
		"lat":"40.4528",
		"districtHistorical":"元_遼陽行省",
		"districtModern":"中國-河北省-承德市-寬城滿族自治縣",
		"note":null,
		"lang":"中文",
		"shortAuthorityID":"PL3014",
		"names":"",
		"pinyin":[]
	},
	{
		"authorityID":"PL000000003015",
		"name":"尖山寨",
		"dynasty":"元",
		"long":"117.3573",
		"lat":"42.1373",
		"districtHistorical":"元_中書省",
		"districtModern":"中國-河北省-承德市-圍場滿族蒙古族自治縣",
		"note":null,
		"lang":"中文",
		"shortAuthorityID":"PL3015",
		"names":"",
		"pinyin":[]
	},
	{
		"authorityID":"PL000000003016",
		"name":"圍場廳",
		"dynasty":"清",
		"long":"118.176",
		"lat":"41.9039",
		"districtHistorical":"清_直隸",
		"districtModern":"中國-河北省-承德市-圍場滿族蒙古族自治縣",
		"note":null,
		"lang":"中文",
		"shortAuthorityID":"PL3016",
		"names":"",
		"pinyin":[]
	},
	{
		"authorityID":"PL000000003017",
		"name":"奚",
		"dynasty":"奚",
		"long":"117.0009",
		"lat":"41.8847",
		"districtHistorical":"奚",
		"districtModern":"中國-河北省-承德市-圍場滿族蒙古族自治縣",
		"note":null,
		"lang":"中文",
		"shortAuthorityID":"PL3017",
		"names":"",
		"pinyin":{
			"奚":"xī"
		}
	},
	{
		"authorityID":"PL000000003018",
		"name":"庫莫奚",
		"dynasty":"勿吉",
		"long":"117.8007",
		"lat":"42.4326",
		"districtHistorical":"勿吉",
		"districtModern":"中國-河北省-承德市-圍場滿族蒙古族自治縣",
		"note":null,
		"lang":"中文",
		"shortAuthorityID":"PL3018",
		"names":"",
		"pinyin":[]
	},
	{
		"authorityID":"PL000000003019",
		"name":"宇文部",
		"dynasty":"鮮卑",
		"long":"118.1445",
		"lat":"41.8772",
		"districtHistorical":"鮮卑",
		"districtModern":"中國-河北省-承德市-圍場滿族蒙古族自治縣",
		"note":null,
		"lang":"中文",
		"shortAuthorityID":"PL3019",
		"names":"",
		"pinyin":[]
	},
	{
		"authorityID":"PL000000003020",
		"mergeTo":"PL000000000160",
		"names":"",
		"pinyin":[]
	},
	{
		"authorityID":"PL000000003021",
		"name":"滄州",
		"dynasty":"清",
		"long":"116.8716",
		"lat":"38.3081",
		"districtHistorical":"清_直隸",
		"districtModern":"中國-河北省-滄州市-新華區",
		"note":"清朝時分屬河間府、天津府。（<a target=\"_blank\" href=\"http:\/\/zh.wikipedia.org\/wiki\/%E6%B2%A7%E5%B7%9E\">http:\/\/zh.wikipedia.org\/wiki\/滄州<\/a>，2011.11.16）",
		"lang":"中文",
		"shortAuthorityID":"PL3021",
		"names":"",
		"pinyin":{
			"滄州":"cāng zhōu"
		}
	},
	{
		"authorityID":"PL000000003022",
		"name":"滄州",
		"dynasty":"明",
		"long":"116.8716",
		"lat":"38.3081",
		"districtHistorical":"明_京師",
		"districtModern":"中國-河北省-滄州市-新華區",
		"note":"明朝時屬京師河間府。位於河北省東南部，東臨渤海，西臨太行山，北部緊鄰直轄市天津，南部與山東省相接。（<a target=\"_blank\" href=\"http:\/\/zh.wikipedia.org\/wiki\/%E6%B2%A7%E5%B7%9E\">http:\/\/zh.wikipedia.org\/wiki\/滄州<\/a>，2011.11.15）",
		"lang":"中文",
		"shortAuthorityID":"PL3022",
		"names":"",
		"pinyin":{
			"滄州":"cāng zhōu"
		}
	},
	{
		"authorityID":"PL000000003023",
		"name":"清池",
		"dynasty":"元",
		"long":"116.8716",
		"lat":"38.3081",
		"districtHistorical":"元_中書省",
		"districtModern":"中國-河北省-滄州市-新華區",
		"note":null,
		"lang":"中文",
		"shortAuthorityID":"PL3023",
		"names":"",
		"pinyin":[]
	},
	{
		"authorityID":"PL000000003024",
		"name":"長蘆鎮",
		"dynasty":"北宋",
		"long":"116.8716",
		"lat":"38.3081",
		"districtHistorical":"北宋_河北東路",
		"districtModern":"中國-河北省-滄州市-新華區",
		"note":null,
		"lang":"中文",
		"shortAuthorityID":"PL3024",
		"names":"",
		"pinyin":[]
	},
	{
		"authorityID":"PL000000003025",
		"name":"長蘆",
		"dynasty":"唐",
		"long":"116.8716",
		"lat":"38.3081",
		"districtHistorical":"唐_河北道",
		"districtModern":"中國-河北省-滄州市-新華區",
		"note":null,
		"lang":"中文",
		"shortAuthorityID":"PL3025",
		"names":"",
		"pinyin":[]
	},
	{
		"authorityID":"PL000000003026",
		"name":"滄州",
		"dynasty":"元",
		"long":"116.8716",
		"lat":"38.3081",
		"districtHistorical":"元_中書省",
		"districtModern":"中國-河北省-滄州市-新華區",
		"note":null,
		"lang":"中文",
		"shortAuthorityID":"PL3026",
		"names":"",
		"pinyin":{
			"滄州":"cāng zhōu"
		}
	},
	{
		"authorityID":"PL000000003027",
		"name":"水月寺",
		"dynasty":null,
		"long":"116.853376",
		"lat":"38.322232",
		"districtHistorical":null,
		"districtModern":"中國-河北省-滄州市-運河區",
		"note":"在滄州城北三里許，後周廣順中建，或云元時建。明正統十年建千佛閣，嘉靖中於閣下鑄三大佛。（明清序：226；淵四．大清一統志．卷十七：32；四部續．嘉慶一統志．天津府二：12、13）",
		"lang":"中文",
		"shortAuthorityID":"PL3027",
		"names":"",
		"pinyin":{
			"水月寺":"shuǐ yuè sì"
		}
	},
	{
		"authorityID":"PL000000003028",
		"name":"長蘆",
		"dynasty":"隋",
		"long":"116.8376",
		"lat":"38.2942",
		"districtHistorical":"隋_河間郡",
		"districtModern":"中國-河北省-滄州市-運河區",
		"note":null,
		"lang":"中文",
		"shortAuthorityID":"PL3028",
		"names":"",
		"pinyin":[]
	},
	{
		"authorityID":"PL000000003029",
		"name":"長蘆",
		"dynasty":"北魏",
		"long":"116.7",
		"lat":"38.3",
		"districtHistorical":null,
		"districtModern":"中國-河北省-滄州市-滄縣",
		"note":"北周大象二年置，屬章武郡。（歷地史：429）",
		"lang":"中文",
		"shortAuthorityID":"PL3029",
		"names":"[中文] 盧",
		"pinyin":[]
	},
	{
		"authorityID":"PL000000003030",
		"name":"安定寺",
		"dynasty":null,
		"long":"116.871841",
		"lat":"38.292197",
		"districtHistorical":null,
		"districtModern":"中國-河北省-滄州市-滄縣",
		"note":"位於滄州。又釋香育有道性，常研習《莊》《老》，根器奮發。俄於釋典留神，決捐俗態。趨滄州安定寺智元律師所，乞求削染。滿足戒後，精力律學，垂欲卒業。（T50n2061_p0759c21；宋僧索引：394）",
		"lang":"中文",
		"shortAuthorityID":"PL3030",
		"names":"",
		"pinyin":[]
	},
	{
		"authorityID":"PL000000003031",
		"name":"興濟",
		"dynasty":"明",
		"long":"116.9153",
		"lat":"38.4625",
		"districtHistorical":"明_京師",
		"districtModern":"中國-河北省-滄州市-滄縣",
		"note":null,
		"lang":"中文",
		"shortAuthorityID":"PL3031",
		"names":"",
		"pinyin":[]
	},
	{
		"authorityID":"PL000000003032",
		"name":"興濟",
		"dynasty":"元",
		"long":"116.9153",
		"lat":"38.4625",
		"districtHistorical":"元_中書省",
		"districtModern":"中國-河北省-滄州市-滄縣",
		"note":null,
		"lang":"中文",
		"shortAuthorityID":"PL3032",
		"names":"",
		"pinyin":[]
	},
	{
		"authorityID":"PL000000003033",
		"name":"興濟鎮",
		"dynasty":"清",
		"long":"116.9127",
		"lat":"38.4572",
		"districtHistorical":"清_直隸",
		"districtModern":"中國-河北省-滄州市-滄縣",
		"note":null,
		"lang":"中文",
		"shortAuthorityID":"PL3033",
		"names":"",
		"pinyin":[]
	},
	{
		"authorityID":"PL000000003034",
		"name":"竇店",
		"dynasty":"清",
		"long":"116.9585",
		"lat":"38.4048",
		"districtHistorical":"清_直隸",
		"districtModern":"中國-河北省-滄州市-滄縣",
		"note":null,
		"lang":"中文",
		"shortAuthorityID":"PL3034",
		"names":"",
		"pinyin":[]
	},
	{
		"authorityID":"PL000000003035",
		"name":"中邑",
		"dynasty":"西漢",
		"long":"117.068",
		"lat":"38.3837",
		"districtHistorical":"西漢_幽州刺史部",
		"districtModern":"中國-河北省-滄州市-滄縣",
		"note":null,
		"lang":"中文",
		"shortAuthorityID":"PL3035",
		"names":"",
		"pinyin":[]
	},
	{
		"authorityID":"PL000000003036",
		"name":"杜林鎮",
		"dynasty":"清",
		"long":"116.7418",
		"lat":"38.3389",
		"districtHistorical":"清_直隸",
		"districtModern":"中國-河北省-滄州市-滄縣",
		"note":null,
		"lang":"中文",
		"shortAuthorityID":"PL3036",
		"names":"",
		"pinyin":[]
	},
	{
		"authorityID":"PL000000003037",
		"name":"景城鎮",
		"dynasty":"北宋",
		"long":"116.539",
		"lat":"38.3174",
		"districtHistorical":"北宋_河北東路",
		"districtModern":"中國-河北省-滄州市-滄縣",
		"note":null,
		"lang":"中文",
		"shortAuthorityID":"PL3037",
		"names":"",
		"pinyin":[]
	},
	{
		"authorityID":"PL000000003038",
		"name":"景城",
		"dynasty":"唐",
		"long":"116.5531",
		"lat":"38.3121",
		"districtHistorical":"唐_河北道",
		"districtModern":"中國-河北省-滄州市-滄縣",
		"note":"漢縣，屬渤海郡。武德四年，屬瀛州。貞觀元年，屬滄州。大中後，割屬瀛州。（<a target=\"_blank\" href=\"http:\/\/zh.wikisource.org\/wiki\/%E8%88%8A%E5%94%90%E6%9B%B8\/%E5%8D%B739\">http:\/\/zh.wikisource.org\/wiki\/%E8%88%8A%E5%94%90%E6%9B%B8\/%E5%8D%B739<\/a>，2012.02.02）",
		"lang":"中文",
		"shortAuthorityID":"PL3038",
		"names":"",
		"pinyin":[]
	},
	{
		"authorityID":"PL000000003039",
		"name":"京城",
		"dynasty":"北魏",
		"long":"116.5298",
		"lat":"38.3104",
		"districtHistorical":"北朝 魏_瀛州",
		"districtModern":"中國-河北省-滄州市-滄縣",
		"note":null,
		"lang":"中文",
		"shortAuthorityID":"PL3039",
		"names":"",
		"pinyin":{
			"京城":"jīng chéng"
		}
	},
	{
		"authorityID":"PL000000003040",
		"name":"景城",
		"dynasty":"隋",
		"long":"116.5469",
		"lat":"38.3058",
		"districtHistorical":"隋_河間郡",
		"districtModern":"中國-河北省-滄州市-滄縣",
		"note":null,
		"lang":"中文",
		"shortAuthorityID":"PL3040",
		"names":"",
		"pinyin":[]
	},
	{
		"authorityID":"PL000000003041",
		"name":"景成",
		"dynasty":"西漢",
		"long":"116.5639",
		"lat":"38.302",
		"districtHistorical":"西漢_幽州刺史部",
		"districtModern":"中國-河北省-滄州市-滄縣",
		"note":null,
		"lang":"中文",
		"shortAuthorityID":"PL3041",
		"names":"",
		"pinyin":[]
	},
	{
		"authorityID":"PL000000003042",
		"name":"風化店",
		"dynasty":"清",
		"long":"116.9983",
		"lat":"38.2864",
		"districtHistorical":"清_直隸",
		"districtModern":"中國-河北省-滄州市-滄縣",
		"note":null,
		"lang":"中文",
		"shortAuthorityID":"PL3042",
		"names":"",
		"pinyin":[]
	},
	{
		"authorityID":"PL000000003043",
		"name":"捷地",
		"dynasty":"清",
		"long":"116.8796",
		"lat":"38.2549",
		"districtHistorical":"清_直隸",
		"districtModern":"中國-河北省-滄州市-滄縣",
		"note":null,
		"lang":"中文",
		"shortAuthorityID":"PL3043",
		"names":"",
		"pinyin":[]
	},
	{
		"authorityID":"PL000000003044",
		"name":"浮陽",
		"dynasty":"東漢",
		"long":"117.0401",
		"lat":"38.2373",
		"districtHistorical":"東漢_冀州刺史部",
		"districtModern":"中國-河北省-滄州市-滄縣",
		"note":null,
		"lang":"中文",
		"shortAuthorityID":"PL3044",
		"names":"",
		"pinyin":{
			"浮陽":"fú yáng"
		}
	},
	{
		"authorityID":"PL000000003045",
		"name":"高川鎮",
		"dynasty":"清",
		"long":"116.5678",
		"lat":"38.2346",
		"districtHistorical":"清_直隸",
		"districtModern":"中國-河北省-滄州市-滄縣",
		"note":null,
		"lang":"中文",
		"shortAuthorityID":"PL3045",
		"names":"",
		"pinyin":[]
	},
	{
		"authorityID":"PL000000003046",
		"name":"清池",
		"dynasty":"唐",
		"long":"117.044",
		"lat":"38.2283",
		"districtHistorical":"唐_河北道",
		"districtModern":"中國-河北省-滄州市-滄縣",
		"note":null,
		"lang":"中文",
		"shortAuthorityID":"PL3046",
		"names":"",
		"pinyin":[]
	},
	{
		"authorityID":"PL000000003047",
		"name":"滄州",
		"dynasty":"唐",
		"long":"117.044",
		"lat":"38.2283",
		"districtHistorical":"唐_河北道",
		"districtModern":"中國-河北省-滄州市-滄縣",
		"note":"漢渤海郡，隋因之。武德元年，改為滄州，移治饒安。天寶元年，改為景城郡。乾元元年，復為滄州 。（<a target=\"_blank\" href=\"http:\/\/zh.wikisource.org\/zh-hant\/%E8%88%8A%E5%94%90%E6%9B%B8\/%E5%8D%B739\">http:\/\/zh.wikisource.org\/zh-hant\/%E8%88%8A%E5%94%90%E6%9B%B8\/%E5%8D%B739<\/a>，2012.04.23）",
		"lang":"中文",
		"shortAuthorityID":"PL3047",
		"names":"[中文] 景城郡",
		"pinyin":{
			"滄州":"cāng zhōu"
		}
	},
	{
		"authorityID":"PL000000003048",
		"name":"浮陽",
		"dynasty":"北魏",
		"long":"117.0266",
		"lat":"38.2254",
		"districtHistorical":"北朝 魏_瀛州",
		"districtModern":"中國-河北省-滄州市-滄縣",
		"note":null,
		"lang":"中文",
		"shortAuthorityID":"PL3048",
		"names":"",
		"pinyin":{
			"浮陽":"fú yáng"
		}
	},
	{
		"authorityID":"PL000000003049",
		"name":"浮陽郡",
		"dynasty":"北魏",
		"long":"117.0266",
		"lat":"38.2254",
		"districtHistorical":"北朝 魏_瀛州",
		"districtModern":"中國-河北省-滄州市-滄縣",
		"note":null,
		"lang":"中文",
		"shortAuthorityID":"PL3049",
		"names":"",
		"pinyin":{
			"浮陽郡":"fú yáng jùn"
		}
	},
	{
		"authorityID":"PL000000003050",
		"name":"浮陽",
		"dynasty":"西晉",
		"long":"117.0266",
		"lat":"38.225",
		"districtHistorical":"西晉_冀州",
		"districtModern":"中國-河北省-滄州市-滄縣",
		"note":null,
		"lang":"中文",
		"shortAuthorityID":"PL3050",
		"names":"",
		"pinyin":{
			"浮陽":"fú yáng"
		}
	},
	{
		"authorityID":"PL000000003051",
		"name":"浮陽",
		"dynasty":"曹魏",
		"long":"117.0266",
		"lat":"38.225",
		"districtHistorical":"三國 魏_冀州",
		"districtModern":"中國-河北省-滄州市-滄縣",
		"note":null,
		"lang":"中文",
		"shortAuthorityID":"PL3051",
		"names":"",
		"pinyin":{
			"浮陽":"fú yáng"
		}
	},
	{
		"authorityID":"PL000000003052",
		"name":"北皮城",
		"dynasty":"東漢",
		"long":"116.7104",
		"lat":"38.2235",
		"districtHistorical":"東漢_冀州刺史部",
		"districtModern":"中國-河北省-滄州市-滄縣",
		"note":null,
		"lang":"中文",
		"shortAuthorityID":"PL3052",
		"names":"",
		"pinyin":[]
	},
	{
		"authorityID":"PL000000003053",
		"name":"成平",
		"dynasty":"東漢",
		"long":"116.5704",
		"lat":"38.2228",
		"districtHistorical":"東漢_冀州刺史部",
		"districtModern":"中國-河北省-滄州市-滄縣",
		"note":null,
		"lang":"中文",
		"shortAuthorityID":"PL3053",
		"names":"",
		"pinyin":[]
	},
	{
		"authorityID":"PL000000003054",
		"name":"舊滄州集",
		"dynasty":"清",
		"long":"117.0359",
		"lat":"38.2145",
		"districtHistorical":"清_直隸",
		"districtModern":"中國-河北省-滄州市-滄縣",
		"note":null,
		"lang":"中文",
		"shortAuthorityID":"PL3054",
		"names":"",
		"pinyin":{
			"舊滄州集":"jiù cāng zhōu jí"
		}
	},
	{
		"authorityID":"PL000000003055",
		"name":"成平",
		"dynasty":"西晉",
		"long":"116.5657",
		"lat":"38.214",
		"districtHistorical":"西晉_冀州",
		"districtModern":"中國-河北省-滄州市-滄縣",
		"note":null,
		"lang":"中文",
		"shortAuthorityID":"PL3055",
		"names":"",
		"pinyin":[]
	},
	{
		"authorityID":"PL000000003056",
		"name":"成平",
		"dynasty":"曹魏",
		"long":"116.5657",
		"lat":"38.214",
		"districtHistorical":"三國 魏_冀州",
		"districtModern":"中國-河北省-滄州市-滄縣",
		"note":null,
		"lang":"中文",
		"shortAuthorityID":"PL3056",
		"names":"",
		"pinyin":[]
	},
	{
		"authorityID":"PL000000003057",
		"name":"勃海郡",
		"dynasty":"西漢",
		"long":"117.0484",
		"lat":"38.2137",
		"districtHistorical":"西漢_幽州刺史部",
		"districtModern":"中國-河北省-滄州市-滄縣",
		"note":"在今河北滄州一帶。最早設立與漢高帝五年，屬幽州。東漢改由冀州管轄。北魏登國元年改勃海郡為渤海郡。治南皮，今河北南皮東北。轄今天津及河北、山東各一部分。（<a target=\"_blank\" href=\"http:\/\/baike.baidu.com\/view\/437305.htm\">http:\/\/baike.baidu.com\/view\/437305.htm<\/a>，2011.12.12）",
		"lang":"中文",
		"shortAuthorityID":"PL3057",
		"names":"[中文] 渤海郡",
		"pinyin":{
			"勃海郡":"bó hǎi jùn",
			"渤海郡":"bó hǎi jùn"
		}
	},
	{
		"authorityID":"PL000000003058",
		"name":"浮陽",
		"dynasty":"西漢",
		"long":"117.0484",
		"lat":"38.2137",
		"districtHistorical":"西漢_幽州刺史部",
		"districtModern":"中國-河北省-滄州市-滄縣",
		"note":null,
		"lang":"中文",
		"shortAuthorityID":"PL3058",
		"names":"",
		"pinyin":{
			"浮陽":"fú yáng"
		}
	},
	{
		"authorityID":"PL000000003059",
		"name":"清池",
		"dynasty":"隋",
		"long":"117.038",
		"lat":"38.2129",
		"districtHistorical":"隋_渤海郡",
		"districtModern":"中國-河北省-滄州市-滄縣",
		"note":null,
		"lang":"中文",
		"shortAuthorityID":"PL3059",
		"names":"",
		"pinyin":[]
	},
	{
		"authorityID":"PL000000003060",
		"name":"七里淀",
		"dynasty":"清",
		"long":"116.93",
		"lat":"38.2072",
		"districtHistorical":"清_直隸",
		"districtModern":"中國-河北省-滄州市-滄縣",
		"note":null,
		"lang":"中文",
		"shortAuthorityID":"PL3060",
		"names":"",
		"pinyin":{
			"七里淀":"qī lǐ diàn"
		}
	},
	{
		"authorityID":"PL000000003061",
		"name":"成平",
		"dynasty":"北魏",
		"long":"116.5781",
		"lat":"38.2039",
		"districtHistorical":"北朝 魏_瀛州",
		"districtModern":"中國-河北省-滄州市-滄縣",
		"note":null,
		"lang":"中文",
		"shortAuthorityID":"PL3061",
		"names":"",
		"pinyin":[]
	},
	{
		"authorityID":"PL000000003062",
		"name":"白楊橋",
		"dynasty":"清",
		"long":"116.7489",
		"lat":"38.1976",
		"districtHistorical":"清_直隸",
		"districtModern":"中國-河北省-滄州市-滄縣",
		"note":null,
		"lang":"中文",
		"shortAuthorityID":"PL3062",
		"names":"",
		"pinyin":[]
	},
	{
		"authorityID":"PL000000003063",
		"name":"滄州",
		"dynasty":"五代十國",
		"long":"117.0373",
		"lat":"38.1885",
		"districtHistorical":"五代十國_晉",
		"districtModern":"中國-河北省-滄州市-滄縣",
		"note":null,
		"lang":"中文",
		"shortAuthorityID":"PL3063",
		"names":"",
		"pinyin":{
			"滄州":"cāng zhōu"
		}
	},
	{
		"authorityID":"PL000000003064",
		"name":"王官屯",
		"dynasty":"清",
		"long":"116.9956",
		"lat":"38.1653",
		"districtHistorical":"清_直隸",
		"districtModern":"中國-河北省-滄州市-滄縣",
		"note":null,
		"lang":"中文",
		"shortAuthorityID":"PL3064",
		"names":"",
		"pinyin":[]
	},
	{
		"authorityID":"PL000000003065",
		"name":"勃海郡",
		"dynasty":"前秦",
		"long":"116.8798",
		"lat":"38.1512",
		"districtHistorical":"前秦",
		"districtModern":"中國-河北省-滄州市-滄縣",
		"note":"",
		"lang":"中文",
		"shortAuthorityID":"PL3065",
		"names":"[中文] 渤海郡",
		"pinyin":{
			"勃海郡":"bó hǎi jùn",
			"渤海郡":"bó hǎi jùn"
		}
	},
	{
		"authorityID":"PL000000003066",
		"name":"郎兒口",
		"dynasty":"元",
		"long":"116.8791",
		"lat":"38.1309",
		"districtHistorical":"元_中書省",
		"districtModern":"中國-河北省-滄州市-滄縣",
		"note":null,
		"lang":"中文",
		"shortAuthorityID":"PL3066",
		"names":"",
		"pinyin":[]
	},
	{
		"authorityID":"PL000000003067",
		"name":"磚河鎮",
		"dynasty":"清",
		"long":"116.791",
		"lat":"38.2204",
		"districtHistorical":"清_直隸",
		"districtModern":"中國-河北省-滄州市-滄縣",
		"note":null,
		"lang":"中文",
		"shortAuthorityID":"PL3067",
		"names":"",
		"pinyin":[]
	},
	{
		"authorityID":"PL000000003068",
		"name":"滄州",
		"dynasty":"北宋",
		"long":"117.0434",
		"lat":"38.2278",
		"districtHistorical":"北宋_河北東路",
		"districtModern":"中國-河北省-滄州市-滄縣",
		"note":"滄州，上，景城郡，橫海軍節度。崇甯戶六萬五千八百五十一，口一十一萬八千二百一十八。貢大絹、大柳箱。（<a target=\"_blank\" href=\"http:\/\/zh.wikisource.org\/wiki\/%E5%AE%8B%E5%8F%B2\/%E5%8D%B7086\">http:\/\/zh.wikisource.org\/wiki\/%E5%AE%8B%E5%8F%B2\/%E5%8D%B7086<\/a>，2011.12.06）",
		"lang":"中文",
		"shortAuthorityID":"PL3068",
		"names":"",
		"pinyin":{
			"滄州":"cāng zhōu"
		}
	},
	{
		"authorityID":"PL000000003069",
		"name":"清池",
		"dynasty":"北宋",
		"long":"117.0434",
		"lat":"38.2278",
		"districtHistorical":"北宋_河北東路",
		"districtModern":"中國-河北省-滄州市-滄縣",
		"note":null,
		"lang":"中文",
		"shortAuthorityID":"PL3069",
		"names":"",
		"pinyin":[]
	},
	{
		"authorityID":"PL000000003070",
		"name":"橫海節度使",
		"dynasty":"五代十國",
		"long":"117.0373",
		"lat":"38.1885",
		"districtHistorical":"五代十國_晉",
		"districtModern":"中國-河北省-滄州市-滄縣",
		"note":null,
		"lang":"中文",
		"shortAuthorityID":"PL3070",
		"names":"",
		"pinyin":[]
	},
	{
		"authorityID":"PL000000003071",
		"name":"流河鎮",
		"dynasty":"清",
		"long":"116.8578",
		"lat":"38.6909",
		"districtHistorical":"清_直隸",
		"districtModern":"中國-河北省-滄州市-青縣",
		"note":null,
		"lang":"中文",
		"shortAuthorityID":"PL3071",
		"names":"",
		"pinyin":[]
	},
	{
		"authorityID":"PL000000003072",
		"name":"東平舒",
		"dynasty":"東漢",
		"long":"116.8013",
		"lat":"38.6796",
		"districtHistorical":"東漢_冀州刺史部",
		"districtModern":"中國-河北省-滄州市-青縣",
		"note":null,
		"lang":"中文",
		"shortAuthorityID":"PL3072",
		"names":"",
		"pinyin":[]
	},
	{
		"authorityID":"PL000000003073",
		"name":"東平舒",
		"dynasty":"西漢",
		"long":"116.8239",
		"lat":"38.6734",
		"districtHistorical":"西漢_幽州刺史部",
		"districtModern":"中國-河北省-滄州市-青縣",
		"note":null,
		"lang":"中文",
		"shortAuthorityID":"PL3073",
		"names":"",
		"pinyin":[]
	},
	{
		"authorityID":"PL000000003074",
		"name":"東平舒",
		"dynasty":"西晉",
		"long":"116.8073",
		"lat":"38.6284",
		"districtHistorical":"西晉_冀州",
		"districtModern":"中國-河北省-滄州市-青縣",
		"note":null,
		"lang":"中文",
		"shortAuthorityID":"PL3074",
		"names":"",
		"pinyin":[]
	},
	{
		"authorityID":"PL000000003075",
		"name":"東平舒",
		"dynasty":"曹魏",
		"long":"116.8073",
		"lat":"38.6284",
		"districtHistorical":"三國 魏_冀州",
		"districtModern":"中國-河北省-滄州市-青縣",
		"note":null,
		"lang":"中文",
		"shortAuthorityID":"PL3075",
		"names":"",
		"pinyin":[]
	},
	{
		"authorityID":"PL000000003076",
		"name":"青縣",
		"dynasty":"清",
		"long":"116.8352",
		"lat":"38.5798",
		"districtHistorical":"清_直隸",
		"districtModern":"中國-河北省-滄州市-青縣",
		"note":null,
		"lang":"中文",
		"shortAuthorityID":"PL3076",
		"names":"",
		"pinyin":[]
	},
	{
		"authorityID":"PL000000003077",
		"name":"青縣",
		"dynasty":"明",
		"long":"116.8352",
		"lat":"38.5798",
		"districtHistorical":"明_京師",
		"districtModern":"中國-河北省-滄州市-青縣",
		"note":null,
		"lang":"中文",
		"shortAuthorityID":"PL3077",
		"names":"",
		"pinyin":[]
	},
	{
		"authorityID":"PL000000003078",
		"name":"會川",
		"dynasty":"元",
		"long":"116.8352",
		"lat":"38.5798",
		"districtHistorical":"元_中書省",
		"districtModern":"中國-河北省-滄州市-青縣",
		"note":null,
		"lang":"中文",
		"shortAuthorityID":"PL3078",
		"names":"",
		"pinyin":[]
	},
	{
		"authorityID":"PL000000003079",
		"name":"清州",
		"dynasty":"北宋",
		"long":"116.8352",
		"lat":"38.5798",
		"districtHistorical":"北宋_河北東路",
		"districtModern":"中國-河北省-滄州市-青縣",
		"note":null,
		"lang":"中文",
		"shortAuthorityID":"PL3079",
		"names":"",
		"pinyin":[]
	},
	{
		"authorityID":"PL000000003080",
		"name":"乾寧軍",
		"dynasty":"唐",
		"long":"116.8312",
		"lat":"38.5704",
		"districtHistorical":"唐_河北道",
		"districtModern":"中國-河北省-滄州市-青縣",
		"note":null,
		"lang":"中文",
		"shortAuthorityID":"PL3080",
		"names":"",
		"pinyin":[]
	},
	{
		"authorityID":"PL000000003081",
		"name":"木門鎮",
		"dynasty":"北宋",
		"long":"116.8441",
		"lat":"38.5085",
		"districtHistorical":"北宋_河北東路",
		"districtModern":"中國-河北省-滄州市-青縣",
		"note":null,
		"lang":"中文",
		"shortAuthorityID":"PL3081",
		"names":"",
		"pinyin":[]
	},
	{
		"authorityID":"PL000000003082",
		"name":"參戶亭",
		"dynasty":"東漢",
		"long":"116.7583",
		"lat":"38.4923",
		"districtHistorical":"東漢_冀州刺史部",
		"districtModern":"中國-河北省-滄州市-青縣",
		"note":null,
		"lang":"中文",
		"shortAuthorityID":"PL3082",
		"names":"",
		"pinyin":[]
	},
	{
		"authorityID":"PL000000003083",
		"name":"參戶",
		"dynasty":"西漢",
		"long":"116.768",
		"lat":"38.4835",
		"districtHistorical":"西漢_幽州刺史部",
		"districtModern":"中國-河北省-滄州市-青縣",
		"note":null,
		"lang":"中文",
		"shortAuthorityID":"PL3083",
		"names":"",
		"pinyin":[]
	},
	{
		"authorityID":"PL000000003084",
		"name":"苑橋鎮",
		"dynasty":"北宋",
		"long":"116.7802",
		"lat":"38.4318",
		"districtHistorical":"北宋_河北東路",
		"districtModern":"中國-河北省-滄州市-青縣",
		"note":null,
		"lang":"中文",
		"shortAuthorityID":"PL3084",
		"names":"",
		"pinyin":[]
	},
	{
		"authorityID":"PL000000003085",
		"name":"新集鎮",
		"dynasty":"清",
		"long":"116.7816",
		"lat":"38.429",
		"districtHistorical":"清_直隸",
		"districtModern":"中國-河北省-滄州市-青縣",
		"note":null,
		"lang":"中文",
		"shortAuthorityID":"PL3085",
		"names":"",
		"pinyin":[]
	},
	{
		"authorityID":"PL000000003086",
		"name":"崇仙鎮",
		"dynasty":"清",
		"long":"116.6376",
		"lat":"38.4216",
		"districtHistorical":"清_直隸",
		"districtModern":"中國-河北省-滄州市-青縣",
		"note":null,
		"lang":"中文",
		"shortAuthorityID":"PL3086",
		"names":"",
		"pinyin":[]
	},
	{
		"authorityID":"PL000000003087",
		"name":"清州",
		"dynasty":"元",
		"long":"116.8352",
		"lat":"38.5798",
		"districtHistorical":"元_中書省",
		"districtModern":"中國-河北省-滄州市-青縣",
		"note":null,
		"lang":"中文",
		"shortAuthorityID":"PL3087",
		"names":"",
		"pinyin":[]
	},
	{
		"authorityID":"PL000000003088",
		"name":"下口鎮",
		"dynasty":"清",
		"long":"116.5855",
		"lat":"37.969",
		"districtHistorical":"清_直隸",
		"districtModern":"中國-河北省-滄州市-東光縣",
		"note":null,
		"lang":"中文",
		"shortAuthorityID":"PL3088",
		"names":"",
		"pinyin":[]
	},
	{
		"authorityID":"PL000000003089",
		"name":"新樂",
		"dynasty":"西晉",
		"long":"116.8005",
		"lat":"37.9595",
		"districtHistorical":"西晉_冀州",
		"districtModern":"中國-河北省-滄州市-東光縣",
		"note":null,
		"lang":"中文",
		"shortAuthorityID":"PL3089",
		"names":"",
		"pinyin":[]
	},
	{
		"authorityID":"PL000000003090",
		"name":"新樂",
		"dynasty":"曹魏",
		"long":"116.8005",
		"lat":"37.9595",
		"districtHistorical":"三國 魏_冀州",
		"districtModern":"中國-河北省-滄州市-東光縣",
		"note":null,
		"lang":"中文",
		"shortAuthorityID":"PL3090",
		"names":"",
		"pinyin":[]
	},
	{
		"authorityID":"PL000000003091",
		"name":"東光",
		"dynasty":"西晉",
		"long":"116.646",
		"lat":"37.8979",
		"districtHistorical":"西晉_冀州",
		"districtModern":"中國-河北省-滄州市-東光縣",
		"note":null,
		"lang":"中文",
		"shortAuthorityID":"PL3091",
		"names":"",
		"pinyin":[]
	},
	{
		"authorityID":"PL000000003092",
		"name":"東光",
		"dynasty":"曹魏",
		"long":"116.646",
		"lat":"37.8979",
		"districtHistorical":"三國 魏_冀州",
		"districtModern":"中國-河北省-滄州市-東光縣",
		"note":null,
		"lang":"中文",
		"shortAuthorityID":"PL3092",
		"names":"",
		"pinyin":[]
	},
	{
		"authorityID":"PL000000003093",
		"name":"東光",
		"dynasty":"東漢",
		"long":"116.6611",
		"lat":"37.8853",
		"districtHistorical":"東漢_冀州刺史部",
		"districtModern":"中國-河北省-滄州市-東光縣",
		"note":null,
		"lang":"中文",
		"shortAuthorityID":"PL3093",
		"names":"",
		"pinyin":[]
	},
	{
		"authorityID":"PL000000003094",
		"name":"東光",
		"dynasty":"西漢",
		"long":"116.6611",
		"lat":"37.8853",
		"districtHistorical":"西漢_幽州刺史部",
		"districtModern":"中國-河北省-滄州市-東光縣",
		"note":null,
		"lang":"中文",
		"shortAuthorityID":"PL3094",
		"names":"",
		"pinyin":[]
	},
	{
		"authorityID":"PL000000003095",
		"name":"東光",
		"dynasty":"北魏",
		"long":"116.6535",
		"lat":"37.8853",
		"districtHistorical":"北朝 魏_冀州",
		"districtModern":"中國-河北省-滄州市-東光縣",
		"note":null,
		"lang":"中文",
		"shortAuthorityID":"PL3095",
		"names":"",
		"pinyin":[]
	},
	{
		"authorityID":"PL000000003096",
		"name":"東光",
		"dynasty":"清",
		"long":"116.5424",
		"lat":"37.8837",
		"districtHistorical":"清_直隸",
		"districtModern":"中國-河北省-滄州市-東光縣",
		"note":null,
		"lang":"中文",
		"shortAuthorityID":"PL3096",
		"names":"",
		"pinyin":[]
	},
	{
		"authorityID":"PL000000003097",
		"name":"東光",
		"dynasty":"明",
		"long":"116.5424",
		"lat":"37.8837",
		"districtHistorical":"明_京師",
		"districtModern":"中國-河北省-滄州市-東光縣",
		"note":null,
		"lang":"中文",
		"shortAuthorityID":"PL3097",
		"names":"",
		"pinyin":[]
	},
	{
		"authorityID":"PL000000003098",
		"name":"東光",
		"dynasty":"元",
		"long":"116.5424",
		"lat":"37.8837",
		"districtHistorical":"元_中書省",
		"districtModern":"中國-河北省-滄州市-東光縣",
		"note":null,
		"lang":"中文",
		"shortAuthorityID":"PL3098",
		"names":"",
		"pinyin":[]
	},
	{
		"authorityID":"PL000000003099",
		"name":"永靜軍",
		"dynasty":"北宋",
		"long":"116.5424",
		"lat":"37.8837",
		"districtHistorical":"北宋_河北東路",
		"districtModern":"中國-河北省-滄州市-東光縣",
		"note":null,
		"lang":"中文",
		"shortAuthorityID":"PL3099",
		"names":"",
		"pinyin":{
			"永靜軍":"yǒng jìng jūn"
		}
	},
	{
		"authorityID":"PL000000003100",
		"name":"東光",
		"dynasty":"北宋",
		"long":"116.5424",
		"lat":"37.8837",
		"districtHistorical":"北宋_河北東路",
		"districtModern":"中國-河北省-滄州市-東光縣",
		"note":null,
		"lang":"中文",
		"shortAuthorityID":"PL3100",
		"names":"",
		"pinyin":[]
	},
	{
		"authorityID":"PL000000003101",
		"name":"景州",
		"dynasty":"五代十國",
		"long":"116.5424",
		"lat":"37.8837",
		"districtHistorical":"五代十國_晉",
		"districtModern":"中國-河北省-滄州市-東光縣",
		"note":null,
		"lang":"中文",
		"shortAuthorityID":"PL3101",
		"names":"",
		"pinyin":[]
	},
	{
		"authorityID":"PL000000003102",
		"name":"東光",
		"dynasty":"唐",
		"long":"116.5424",
		"lat":"37.8837",
		"districtHistorical":"唐_河北道",
		"districtModern":"中國-河北省-滄州市-東光縣",
		"note":"唐朝時稱景州。（<a target=\"_blank\" href=\"http:\/\/baike.baidu.com\/view\/984220.html\">http:\/\/baike.baidu.com\/view\/984220.html<\/a>，2009.03.31）",
		"lang":"中文",
		"shortAuthorityID":"PL3102",
		"names":"[中文] 景州",
		"pinyin":[]
	},
	{
		"authorityID":"PL000000003103",
		"name":"東光",
		"dynasty":"隋",
		"long":"116.5424",
		"lat":"37.8837",
		"districtHistorical":"隋_平原郡",
		"districtModern":"中國-河北省-滄州市-東光縣",
		"note":"隋朝又稱觀州與歡州。（<a target=\"_blank\" href=\"http:\/\/baike.baidu.com\/view\/984220.html\">http:\/\/baike.baidu.com\/view\/984220.html<\/a>，2009.03.31；唐僧索引：416）",
		"lang":"中文",
		"shortAuthorityID":"PL3103",
		"names":"[中文] 觀州,歡州",
		"pinyin":{
			"歡州":"huān zhōu"
		}
	},
	{
		"authorityID":"PL000000003104",
		"name":"胡蘇",
		"dynasty":"唐",
		"long":"116.7153",
		"lat":"37.8176",
		"districtHistorical":"唐_河北道",
		"districtModern":"中國-河北省-滄州市-東光縣",
		"note":null,
		"lang":"中文",
		"shortAuthorityID":"PL3104",
		"names":"",
		"pinyin":{
			"胡蘇":"hú sū"
		}
	},
	{
		"authorityID":"PL000000003105",
		"name":"胡蘇",
		"dynasty":"隋",
		"long":"116.7176",
		"lat":"37.8113",
		"districtHistorical":"隋_平原郡",
		"districtModern":"中國-河北省-滄州市-東光縣",
		"note":null,
		"lang":"中文",
		"shortAuthorityID":"PL3105",
		"names":"",
		"pinyin":{
			"胡蘇":"hú sū"
		}
	},
	{
		"authorityID":"PL000000003106",
		"name":"臨津鎮",
		"dynasty":"北宋",
		"long":"116.6902",
		"lat":"37.808",
		"districtHistorical":"北宋_河北東路",
		"districtModern":"中國-河北省-滄州市-東光縣",
		"note":null,
		"lang":"中文",
		"shortAuthorityID":"PL3106",
		"names":"",
		"pinyin":[]
	},
	{
		"authorityID":"PL000000003107",
		"name":"連鎮",
		"dynasty":"清",
		"long":"116.4956",
		"lat":"37.7935",
		"districtHistorical":"清_直隸",
		"districtModern":"中國-河北省-滄州市-東光縣",
		"note":null,
		"lang":"中文",
		"shortAuthorityID":"PL3107",
		"names":"",
		"pinyin":[]
	},
	{
		"authorityID":"PL000000003108",
		"name":"漢武帝望海南臺",
		"dynasty":"北魏",
		"long":"117.6822",
		"lat":"38.2682",
		"districtHistorical":"北朝 魏_瀛州",
		"districtModern":"中國-河北省-滄州市-海興縣",
		"note":null,
		"lang":"中文",
		"shortAuthorityID":"PL3108",
		"names":"",
		"pinyin":[]
	},
	{
		"authorityID":"PL000000003109",
		"name":"丁村",
		"dynasty":"清",
		"long":"117.4447",
		"lat":"38.1986",
		"districtHistorical":"清_直隸",
		"districtModern":"中國-河北省-滄州市-海興縣",
		"note":null,
		"lang":"中文",
		"shortAuthorityID":"PL3109",
		"names":"",
		"pinyin":[]
	},
	{
		"authorityID":"PL000000003110",
		"name":"柳國",
		"dynasty":"西漢",
		"long":"117.4125",
		"lat":"38.192",
		"districtHistorical":"西漢_幽州刺史部",
		"districtModern":"中國-河北省-滄州市-海興縣",
		"note":null,
		"lang":"中文",
		"shortAuthorityID":"PL3110",
		"names":"",
		"pinyin":{
			"柳國":"liǔ guó"
		}
	},
	{
		"authorityID":"PL000000003111",
		"name":"小山",
		"dynasty":"清",
		"long":"117.6213",
		"lat":"38.1884",
		"districtHistorical":"清_山東",
		"districtModern":"中國-河北省-滄州市-海興縣",
		"note":null,
		"lang":"中文",
		"shortAuthorityID":"PL3111",
		"names":"",
		"pinyin":{
			"小山":"xiǎo shān"
		}
	},
	{
		"authorityID":"PL000000003112",
		"name":"蘇基鎮",
		"dynasty":"清",
		"long":"117.508",
		"lat":"38.1343",
		"districtHistorical":"清_直隸",
		"districtModern":"中國-河北省-滄州市-海興縣",
		"note":null,
		"lang":"中文",
		"shortAuthorityID":"PL3112",
		"names":"",
		"pinyin":[]
	},
	{
		"authorityID":"PL000000003113",
		"name":"海盈場",
		"dynasty":"元",
		"long":"117.508",
		"lat":"38.1343",
		"districtHistorical":"元_中書省",
		"districtModern":"中國-河北省-滄州市-海興縣",
		"note":null,
		"lang":"中文",
		"shortAuthorityID":"PL3113",
		"names":"",
		"pinyin":[]
	},
	{
		"authorityID":"PL000000003114",
		"name":"阜財場",
		"dynasty":"元",
		"long":"117.4794",
		"lat":"38.0459",
		"districtHistorical":"元_中書省",
		"districtModern":"中國-河北省-滄州市-海興縣",
		"note":null,
		"lang":"中文",
		"shortAuthorityID":"PL3114",
		"names":"",
		"pinyin":[]
	},
	{
		"authorityID":"PL000000003115",
		"name":"高家灣鎮",
		"dynasty":"清",
		"long":"117.4799",
		"lat":"38.042",
		"districtHistorical":"清_直隸",
		"districtModern":"中國-河北省-滄州市-海興縣",
		"note":null,
		"lang":"中文",
		"shortAuthorityID":"PL3115",
		"names":"",
		"pinyin":[]
	},
	{
		"authorityID":"PL000000003116",
		"name":"鹽山",
		"dynasty":"清",
		"long":"117.2352",
		"lat":"38.0544",
		"districtHistorical":"清_直隸",
		"districtModern":"中國-河北省-滄州市-鹽山縣",
		"note":null,
		"lang":"中文",
		"shortAuthorityID":"PL3116",
		"names":"",
		"pinyin":[]
	},
	{
		"authorityID":"PL000000003117",
		"name":"鹽山",
		"dynasty":"明",
		"long":"117.2352",
		"lat":"38.0544",
		"districtHistorical":"明_京師",
		"districtModern":"中國-河北省-滄州市-鹽山縣",
		"note":null,
		"lang":"中文",
		"shortAuthorityID":"PL3117",
		"names":"",
		"pinyin":[]
	},
	{
		"authorityID":"PL000000003118",
		"name":"高城",
		"dynasty":"北魏",
		"long":"117.3385",
		"lat":"38.019",
		"districtHistorical":"北朝 魏_瀛州",
		"districtModern":"中國-河北省-滄州市-鹽山縣",
		"note":null,
		"lang":"中文",
		"shortAuthorityID":"PL3118",
		"names":"",
		"pinyin":[]
	},
	{
		"authorityID":"PL000000003119",
		"name":"高城",
		"dynasty":"西晉",
		"long":"117.3387",
		"lat":"38.0175",
		"districtHistorical":"西晉_冀州",
		"districtModern":"中國-河北省-滄州市-鹽山縣",
		"note":null,
		"lang":"中文",
		"shortAuthorityID":"PL3119",
		"names":"",
		"pinyin":[]
	},
	{
		"authorityID":"PL000000003120",
		"name":"高城",
		"dynasty":"曹魏",
		"long":"117.3387",
		"lat":"38.0175",
		"districtHistorical":"三國 魏_冀州",
		"districtModern":"中國-河北省-滄州市-鹽山縣",
		"note":null,
		"lang":"中文",
		"shortAuthorityID":"PL3120",
		"names":"",
		"pinyin":[]
	},
	{
		"authorityID":"PL000000003121",
		"name":"高成",
		"dynasty":"西漢",
		"long":"117.355",
		"lat":"38.0161",
		"districtHistorical":"西漢_幽州刺史部",
		"districtModern":"中國-河北省-滄州市-鹽山縣",
		"note":null,
		"lang":"中文",
		"shortAuthorityID":"PL3121",
		"names":"",
		"pinyin":[]
	},
	{
		"authorityID":"PL000000003122",
		"name":"高城",
		"dynasty":"東漢",
		"long":"117.3256",
		"lat":"38.0064",
		"districtHistorical":"東漢_冀州刺史部",
		"districtModern":"中國-河北省-滄州市-鹽山縣",
		"note":null,
		"lang":"中文",
		"shortAuthorityID":"PL3122",
		"names":"",
		"pinyin":[]
	},
	{
		"authorityID":"PL000000003123",
		"name":"望樹鎮",
		"dynasty":"清",
		"long":"117.3322",
		"lat":"37.948",
		"districtHistorical":"清_直隸",
		"districtModern":"中國-河北省-滄州市-鹽山縣",
		"note":null,
		"lang":"中文",
		"shortAuthorityID":"PL3123",
		"names":"",
		"pinyin":[]
	},
	{
		"authorityID":"PL000000003124",
		"name":"饒安",
		"dynasty":"北魏",
		"long":"117.1357",
		"lat":"37.8772",
		"districtHistorical":"北朝 魏_瀛州",
		"districtModern":"中國-河北省-滄州市-鹽山縣",
		"note":"滄州（熙平二年分瀛、冀二州置，治饒安城。）（淵四．魏書．卷一百六上：19）",
		"lang":"中文",
		"shortAuthorityID":"PL3124",
		"names":"",
		"pinyin":{
			"饒安":"ráo ān"
		}
	},
	{
		"authorityID":"PL000000003125",
		"name":"饒安",
		"dynasty":"西晉",
		"long":"117.1375",
		"lat":"37.8748",
		"districtHistorical":"西晉_冀州",
		"districtModern":"中國-河北省-滄州市-鹽山縣",
		"note":null,
		"lang":"中文",
		"shortAuthorityID":"PL3125",
		"names":"",
		"pinyin":{
			"饒安":"ráo ān"
		}
	},
	{
		"authorityID":"PL000000003126",
		"name":"饒安",
		"dynasty":"曹魏",
		"long":"117.1375",
		"lat":"37.8748",
		"districtHistorical":"三國 魏_冀州",
		"districtModern":"中國-河北省-滄州市-鹽山縣",
		"note":null,
		"lang":"中文",
		"shortAuthorityID":"PL3126",
		"names":"",
		"pinyin":{
			"饒安":"ráo ān"
		}
	},
	{
		"authorityID":"PL000000003127",
		"name":"饒安",
		"dynasty":"隋",
		"long":"117.1413",
		"lat":"37.8727",
		"districtHistorical":"隋_渤海郡",
		"districtModern":"中國-河北省-滄州市-鹽山縣",
		"note":null,
		"lang":"中文",
		"shortAuthorityID":"PL3127",
		"names":"",
		"pinyin":{
			"饒安":"ráo ān"
		}
	},
	{
		"authorityID":"PL000000003128",
		"name":"無棣",
		"dynasty":"唐",
		"long":"117.4245",
		"lat":"37.8715",
		"districtHistorical":"唐_河北道",
		"districtModern":"中國-河北省-滄州市-鹽山縣",
		"note":"漢陽信縣，屬渤海郡。改為無棣。貞觀元年，併入陽信。八年，復置。大和二年，屬棣州，又復還滄州。（<a target=\"_blank\" href=\"http:\/\/zh.wikisource.org\/wiki\/%E8%88%8A%E5%94%90%E6%9B%B8\/%E5%8D%B739\">http:\/\/zh.wikisource.org\/wiki\/%E8%88%8A%E5%94%90%E6%9B%B8\/%E5%8D%B739<\/a>，2012.01.02）",
		"lang":"中文",
		"shortAuthorityID":"PL3128",
		"names":"",
		"pinyin":[]
	},
	{
		"authorityID":"PL000000003129",
		"name":"千童",
		"dynasty":"西漢",
		"long":"117.1504",
		"lat":"37.8697",
		"districtHistorical":"西漢_幽州刺史部",
		"districtModern":"中國-河北省-滄州市-鹽山縣",
		"note":null,
		"lang":"中文",
		"shortAuthorityID":"PL3129",
		"names":"",
		"pinyin":[]
	},
	{
		"authorityID":"PL000000003130",
		"name":"平津鄉",
		"dynasty":"北魏",
		"long":"117.2578",
		"lat":"37.8689",
		"districtHistorical":"北朝 魏_瀛州",
		"districtModern":"中國-河北省-滄州市-鹽山縣",
		"note":null,
		"lang":"中文",
		"shortAuthorityID":"PL3130",
		"names":"",
		"pinyin":[]
	},
	{
		"authorityID":"PL000000003131",
		"name":"舊縣鎮",
		"dynasty":"明",
		"long":"117.1467",
		"lat":"37.868",
		"districtHistorical":"明_山東",
		"districtModern":"中國-河北省-滄州市-鹽山縣",
		"note":null,
		"lang":"中文",
		"shortAuthorityID":"PL3131",
		"names":"",
		"pinyin":[]
	},
	{
		"authorityID":"PL000000003132",
		"name":"舊縣倉",
		"dynasty":"元",
		"long":"117.1467",
		"lat":"37.868",
		"districtHistorical":"元_中書省",
		"districtModern":"中國-河北省-滄州市-鹽山縣",
		"note":null,
		"lang":"中文",
		"shortAuthorityID":"PL3132",
		"names":"",
		"pinyin":[]
	},
	{
		"authorityID":"PL000000003133",
		"name":"舊縣",
		"dynasty":"清",
		"long":"117.1395",
		"lat":"37.8656",
		"districtHistorical":"清_直隸",
		"districtModern":"中國-河北省-滄州市-鹽山縣",
		"note":null,
		"lang":"中文",
		"shortAuthorityID":"PL3133",
		"names":"",
		"pinyin":[]
	},
	{
		"authorityID":"PL000000003134",
		"name":"無棣",
		"dynasty":"隋",
		"long":"117.4257",
		"lat":"37.8648",
		"districtHistorical":"隋_渤海郡",
		"districtModern":"中國-河北省-滄州市-鹽山縣",
		"note":null,
		"lang":"中文",
		"shortAuthorityID":"PL3134",
		"names":"",
		"pinyin":[]
	},
	{
		"authorityID":"PL000000003135",
		"name":"無棣鎮",
		"dynasty":"北宋",
		"long":"117.4222",
		"lat":"37.862",
		"districtHistorical":"北宋_河北東路",
		"districtModern":"中國-河北省-滄州市-鹽山縣",
		"note":null,
		"lang":"中文",
		"shortAuthorityID":"PL3135",
		"names":"",
		"pinyin":[]
	},
	{
		"authorityID":"PL000000003136",
		"name":"慶雲",
		"dynasty":"明",
		"long":"117.4043",
		"lat":"37.8591",
		"districtHistorical":"明_京師",
		"districtModern":"中國-河北省-滄州市-鹽山縣",
		"note":null,
		"lang":"中文",
		"shortAuthorityID":"PL3136",
		"names":"",
		"pinyin":[]
	},
	{
		"authorityID":"PL000000003137",
		"name":"無棣",
		"dynasty":"元",
		"long":"117.4043",
		"lat":"37.8591",
		"districtHistorical":"元_中書省",
		"districtModern":"中國-河北省-滄州市-鹽山縣",
		"note":null,
		"lang":"中文",
		"shortAuthorityID":"PL3137",
		"names":"",
		"pinyin":[]
	},
	{
		"authorityID":"PL000000003138",
		"name":"慶雲",
		"dynasty":"清",
		"long":"117.4147",
		"lat":"37.852",
		"districtHistorical":"清_直隸",
		"districtModern":"中國-河北省-滄州市-鹽山縣",
		"note":null,
		"lang":"中文",
		"shortAuthorityID":"PL3138",
		"names":"",
		"pinyin":[]
	},
	{
		"authorityID":"PL000000003139",
		"name":"都尉",
		"dynasty":"西漢",
		"long":"117.355",
		"lat":"38.0161",
		"districtHistorical":"西漢_幽州刺史部",
		"districtModern":"中國-河北省-滄州市-鹽山縣",
		"note":null,
		"lang":"中文",
		"shortAuthorityID":"PL3139",
		"names":"",
		"pinyin":[]
	},
	{
		"authorityID":"PL000000003140",
		"name":"太史堡",
		"dynasty":"清",
		"long":"115.8247",
		"lat":"38.4936",
		"districtHistorical":"清_直隸",
		"districtModern":"中國-河北省-滄州市-肅寧縣",
		"note":null,
		"lang":"中文",
		"shortAuthorityID":"PL3140",
		"names":"",
		"pinyin":[]
	},
	{
		"authorityID":"PL000000003141",
		"name":"肅寧",
		"dynasty":"清",
		"long":"115.8415",
		"lat":"38.431",
		"districtHistorical":"清_直隸",
		"districtModern":"中國-河北省-滄州市-肅寧縣",
		"note":null,
		"lang":"中文",
		"shortAuthorityID":"PL3141",
		"names":"",
		"pinyin":[]
	},
	{
		"authorityID":"PL000000003142",
		"name":"肅寧",
		"dynasty":"明",
		"long":"115.8415",
		"lat":"38.431",
		"districtHistorical":"明_京師",
		"districtModern":"中國-河北省-滄州市-肅寧縣",
		"note":null,
		"lang":"中文",
		"shortAuthorityID":"PL3142",
		"names":"",
		"pinyin":[]
	},
	{
		"authorityID":"PL000000003143",
		"name":"肅寧",
		"dynasty":"元",
		"long":"115.8415",
		"lat":"38.431",
		"districtHistorical":"元_中書省",
		"districtModern":"中國-河北省-滄州市-肅寧縣",
		"note":null,
		"lang":"中文",
		"shortAuthorityID":"PL3143",
		"names":"",
		"pinyin":[]
	},
	{
		"authorityID":"PL000000003144",
		"name":"肅寧寨",
		"dynasty":"北宋",
		"long":"115.8415",
		"lat":"38.431",
		"districtHistorical":"北宋_河北東路",
		"districtModern":"中國-河北省-滄州市-肅寧縣",
		"note":null,
		"lang":"中文",
		"shortAuthorityID":"PL3144",
		"names":"",
		"pinyin":[]
	},
	{
		"authorityID":"PL000000003145",
		"name":"豐樂堡",
		"dynasty":"清",
		"long":"115.9374",
		"lat":"38.4235",
		"districtHistorical":"清_直隸",
		"districtModern":"中國-河北省-滄州市-肅寧縣",
		"note":null,
		"lang":"中文",
		"shortAuthorityID":"PL3145",
		"names":"",
		"pinyin":[]
	},
	{
		"authorityID":"PL000000003146",
		"name":"武垣城",
		"dynasty":"北魏",
		"long":"115.8962",
		"lat":"38.3956",
		"districtHistorical":"北朝 魏_瀛州",
		"districtModern":"中國-河北省-滄州市-肅寧縣",
		"note":null,
		"lang":"中文",
		"shortAuthorityID":"PL3146",
		"names":"",
		"pinyin":{
			"武垣城":"wǔ yuán chéng"
		}
	},
	{
		"authorityID":"PL000000003147",
		"name":"武垣",
		"dynasty":"秦",
		"long":"115.9",
		"lat":"38.3874",
		"districtHistorical":"秦_巨鹿郡",
		"districtModern":"中國-河北省-滄州市-肅寧縣",
		"note":null,
		"lang":"中文",
		"shortAuthorityID":"PL3147",
		"names":"",
		"pinyin":{
			"武垣":"wǔ yuán"
		}
	},
	{
		"authorityID":"PL000000003148",
		"name":"武垣",
		"dynasty":"東漢",
		"long":"115.9092",
		"lat":"38.3832",
		"districtHistorical":"東漢_冀州刺史部",
		"districtModern":"中國-河北省-滄州市-肅寧縣",
		"note":null,
		"lang":"中文",
		"shortAuthorityID":"PL3148",
		"names":"",
		"pinyin":{
			"武垣":"wǔ yuán"
		}
	},
	{
		"authorityID":"PL000000003149",
		"name":"武垣",
		"dynasty":"西漢",
		"long":"115.9092",
		"lat":"38.3832",
		"districtHistorical":"西漢_幽州刺史部",
		"districtModern":"中國-河北省-滄州市-肅寧縣",
		"note":null,
		"lang":"中文",
		"shortAuthorityID":"PL3149",
		"names":"",
		"pinyin":{
			"武垣":"wǔ yuán"
		}
	},
	{
		"authorityID":"PL000000003150",
		"name":"無蔞亭",
		"dynasty":"東漢",
		"long":"115.8345",
		"lat":"38.3685",
		"districtHistorical":"東漢_冀州刺史部",
		"districtModern":"中國-河北省-滄州市-肅寧縣",
		"note":null,
		"lang":"中文",
		"shortAuthorityID":"PL3150",
		"names":"",
		"pinyin":[]
	},
	{
		"authorityID":"PL000000003151",
		"name":"張國寺",
		"dynasty":null,
		"long":"116.702822",
		"lat":"38.038475",
		"districtHistorical":null,
		"districtModern":"中國-河北省-滄州市-南皮縣",
		"note":"位於南皮。（T50n2063_p0938b29）",
		"lang":"中文",
		"shortAuthorityID":"PL3151",
		"names":"",
		"pinyin":[]
	},
	{
		"authorityID":"PL000000003152",
		"name":"半壁店",
		"dynasty":"明",
		"long":"116.7563",
		"lat":"38.1255",
		"districtHistorical":"明_京師",
		"districtModern":"中國-河北省-滄州市-南皮縣",
		"note":null,
		"lang":"中文",
		"shortAuthorityID":"PL3152",
		"names":"",
		"pinyin":[]
	},
	{
		"authorityID":"PL000000003153",
		"name":"薛家窩",
		"dynasty":"清",
		"long":"116.6712",
		"lat":"38.1104",
		"districtHistorical":"清_直隸",
		"districtModern":"中國-河北省-滄州市-南皮縣",
		"note":null,
		"lang":"中文",
		"shortAuthorityID":"PL3153",
		"names":"",
		"pinyin":[]
	},
	{
		"authorityID":"PL000000003154",
		"name":"南皮",
		"dynasty":"北魏",
		"long":"116.7091",
		"lat":"38.1003",
		"districtHistorical":"北朝 魏_冀州",
		"districtModern":"中國-河北省-滄州市-南皮縣",
		"note":null,
		"lang":"中文",
		"shortAuthorityID":"PL3154",
		"names":"",
		"pinyin":[]
	},
	{
		"authorityID":"PL000000003155",
		"name":"渤海郡",
		"dynasty":"北魏",
		"long":"116.7091",
		"lat":"38.1003",
		"districtHistorical":"北朝 魏_冀州",
		"districtModern":"中國-河北省-滄州市-南皮縣",
		"note":"在今河北滄州一帶。最早設立與漢高帝五年，屬幽州。東漢改由冀州管轄。北魏登國元年改勃海郡為渤海郡。治南皮，今河北南皮東北。轄今天津及河北、山東各一部分。（<a target=\"_blank\" href=\"http:\/\/baike.baidu.com\/view\/437305.htm\">http:\/\/baike.baidu.com\/view\/437305.htm<\/a>，2012.10.09）",
		"lang":"中文",
		"shortAuthorityID":"PL3155",
		"names":"[中文] 勃海郡",
		"pinyin":{
			"渤海郡":"bó hǎi jùn",
			"勃海郡":"bó hǎi jùn"
		}
	},
	{
		"authorityID":"PL000000003156",
		"name":"勃海郡",
		"dynasty":"西晉",
		"long":"116.7043",
		"lat":"38.0953",
		"districtHistorical":"西晉_冀州",
		"districtModern":"中國-河北省-滄州市-南皮縣",
		"note":"",
		"lang":"中文",
		"shortAuthorityID":"PL3156",
		"names":"[中文] 渤海郡",
		"pinyin":{
			"勃海郡":"bó hǎi jùn",
			"渤海郡":"bó hǎi jùn"
		}
	},
	{
		"authorityID":"PL000000003157",
		"name":"南皮",
		"dynasty":"西晉",
		"long":"116.7043",
		"lat":"38.0953",
		"districtHistorical":"西晉_冀州",
		"districtModern":"中國-河北省-滄州市-南皮縣",
		"note":null,
		"lang":"中文",
		"shortAuthorityID":"PL3157",
		"names":"",
		"pinyin":[]
	},
	{
		"authorityID":"PL000000003158",
		"name":"勃海郡",
		"dynasty":"曹魏",
		"long":"116.7043",
		"lat":"38.0953",
		"districtHistorical":"三國 魏_冀州",
		"districtModern":"中國-河北省-滄州市-南皮縣",
		"note":"",
		"lang":"中文",
		"shortAuthorityID":"PL3158",
		"names":"[中文] 渤海郡",
		"pinyin":{
			"勃海郡":"bó hǎi jùn",
			"渤海郡":"bó hǎi jùn"
		}
	},
	{
		"authorityID":"PL000000003159",
		"name":"南皮",
		"dynasty":"曹魏",
		"long":"116.7043",
		"lat":"38.0953",
		"districtHistorical":"三國 魏_冀州",
		"districtModern":"中國-河北省-滄州市-南皮縣",
		"note":null,
		"lang":"中文",
		"shortAuthorityID":"PL3159",
		"names":"",
		"pinyin":[]
	},
	{
		"authorityID":"PL000000003160",
		"name":"南皮",
		"dynasty":"秦",
		"long":"116.7181",
		"lat":"38.0952",
		"districtHistorical":"秦_巨鹿郡",
		"districtModern":"中國-河北省-滄州市-南皮縣",
		"note":null,
		"lang":"中文",
		"shortAuthorityID":"PL3160",
		"names":"",
		"pinyin":[]
	},
	{
		"authorityID":"PL000000003161",
		"name":"勃海郡",
		"dynasty":"東漢",
		"long":"116.7259",
		"lat":"38.0857",
		"districtHistorical":"東漢_冀州刺史部",
		"districtModern":"中國-河北省-滄州市-南皮縣",
		"note":"",
		"lang":"中文",
		"shortAuthorityID":"PL3161",
		"names":"[中文] 渤海郡",
		"pinyin":{
			"勃海郡":"bó hǎi jùn",
			"渤海郡":"bó hǎi jùn"
		}
	},
	{
		"authorityID":"PL000000003162",
		"name":"南皮",
		"dynasty":"東漢",
		"long":"116.7259",
		"lat":"38.0857",
		"districtHistorical":"東漢_冀州刺史部",
		"districtModern":"中國-河北省-滄州市-南皮縣",
		"note":null,
		"lang":"中文",
		"shortAuthorityID":"PL3162",
		"names":"",
		"pinyin":[]
	},
	{
		"authorityID":"PL000000003163",
		"name":"南皮",
		"dynasty":"西漢",
		"long":"116.7259",
		"lat":"38.0857",
		"districtHistorical":"西漢_幽州刺史部",
		"districtModern":"中國-河北省-滄州市-南皮縣",
		"note":null,
		"lang":"中文",
		"shortAuthorityID":"PL3163",
		"names":"",
		"pinyin":[]
	},
	{
		"authorityID":"PL000000003164",
		"name":"南皮",
		"dynasty":"隋",
		"long":"116.7115",
		"lat":"38.0392",
		"districtHistorical":"隋_渤海郡",
		"districtModern":"中國-河北省-滄州市-南皮縣",
		"note":null,
		"lang":"中文",
		"shortAuthorityID":"PL3164",
		"names":"",
		"pinyin":[]
	},
	{
		"authorityID":"PL000000003165",
		"name":"南皮",
		"dynasty":"清",
		"long":"116.7064",
		"lat":"38.0367",
		"districtHistorical":"清_直隸",
		"districtModern":"中國-河北省-滄州市-南皮縣",
		"note":null,
		"lang":"中文",
		"shortAuthorityID":"PL3165",
		"names":"",
		"pinyin":[]
	},
	{
		"authorityID":"PL000000003166",
		"name":"南皮",
		"dynasty":"明",
		"long":"116.7064",
		"lat":"38.0367",
		"districtHistorical":"明_京師",
		"districtModern":"中國-河北省-滄州市-南皮縣",
		"note":null,
		"lang":"中文",
		"shortAuthorityID":"PL3166",
		"names":"",
		"pinyin":[]
	},
	{
		"authorityID":"PL000000003167",
		"name":"南皮",
		"dynasty":"元",
		"long":"116.7064",
		"lat":"38.0367",
		"districtHistorical":"元_中書省",
		"districtModern":"中國-河北省-滄州市-南皮縣",
		"note":null,
		"lang":"中文",
		"shortAuthorityID":"PL3167",
		"names":"",
		"pinyin":[]
	},
	{
		"authorityID":"PL000000003168",
		"name":"魏家莊",
		"dynasty":"元",
		"long":"116.7064",
		"lat":"38.0367",
		"districtHistorical":"元_中書省",
		"districtModern":"中國-河北省-滄州市-南皮縣",
		"note":null,
		"lang":"中文",
		"shortAuthorityID":"PL3168",
		"names":"",
		"pinyin":[]
	},
	{
		"authorityID":"PL000000003169",
		"name":"南皮",
		"dynasty":"北宋",
		"long":"116.7064",
		"lat":"38.0367",
		"districtHistorical":"北宋_河北東路",
		"districtModern":"中國-河北省-滄州市-南皮縣",
		"note":null,
		"lang":"中文",
		"shortAuthorityID":"PL3169",
		"names":"",
		"pinyin":[]
	},
	{
		"authorityID":"PL000000003170",
		"name":"南皮鎮",
		"dynasty":"北宋",
		"long":"116.7064",
		"lat":"38.0367",
		"districtHistorical":"北宋_河北東路",
		"districtModern":"中國-河北省-滄州市-南皮縣",
		"note":null,
		"lang":"中文",
		"shortAuthorityID":"PL3170",
		"names":"",
		"pinyin":[]
	},
	{
		"authorityID":"PL000000003171",
		"name":"南皮",
		"dynasty":"唐",
		"long":"116.7064",
		"lat":"38.0367",
		"districtHistorical":"唐_河北道",
		"districtModern":"中國-河北省-滄州市-南皮縣",
		"note":null,
		"lang":"中文",
		"shortAuthorityID":"PL3171",
		"names":"",
		"pinyin":[]
	},
	{
		"authorityID":"PL000000003172",
		"name":"張為村",
		"dynasty":"北宋",
		"long":"117.0221",
		"lat":"37.9929",
		"districtHistorical":"北宋_河北東路",
		"districtModern":"中國-河北省-滄州市-南皮縣",
		"note":null,
		"lang":"中文",
		"shortAuthorityID":"PL3172",
		"names":"",
		"pinyin":[]
	},
	{
		"authorityID":"PL000000003173",
		"name":"新鄉城",
		"dynasty":"北魏",
		"long":"116.8848",
		"lat":"37.9355",
		"districtHistorical":"北朝 魏_瀛州",
		"districtModern":"中國-河北省-滄州市-南皮縣",
		"note":null,
		"lang":"中文",
		"shortAuthorityID":"PL3173",
		"names":"",
		"pinyin":[]
	},
	{
		"authorityID":"PL000000003174",
		"name":"高樂",
		"dynasty":"西漢",
		"long":"116.9129",
		"lat":"37.915",
		"districtHistorical":"西漢_幽州刺史部",
		"districtModern":"中國-河北省-滄州市-南皮縣",
		"note":null,
		"lang":"中文",
		"shortAuthorityID":"PL3174",
		"names":"",
		"pinyin":[]
	},
	{
		"authorityID":"PL000000003175",
		"name":"安陵",
		"dynasty":"北魏",
		"long":"116.4075",
		"lat":"37.6989",
		"districtHistorical":"北朝 魏_冀州",
		"districtModern":"中國-河北省-滄州市-吳橋縣",
		"note":null,
		"lang":"中文",
		"shortAuthorityID":"PL3175",
		"names":"",
		"pinyin":{
			"安陵":"ān líng"
		}
	},
	{
		"authorityID":"PL000000003176",
		"name":"東安陵",
		"dynasty":"西晉",
		"long":"116.4104",
		"lat":"37.6929",
		"districtHistorical":"西晉_冀州",
		"districtModern":"中國-河北省-滄州市-吳橋縣",
		"note":null,
		"lang":"中文",
		"shortAuthorityID":"PL3176",
		"names":"",
		"pinyin":{
			"東安陵":"dōng ān líng"
		}
	},
	{
		"authorityID":"PL000000003177",
		"name":"范屯",
		"dynasty":"清",
		"long":"116.5826",
		"lat":"37.6919",
		"districtHistorical":"清_直隸",
		"districtModern":"中國-河北省-滄州市-吳橋縣",
		"note":null,
		"lang":"中文",
		"shortAuthorityID":"PL3177",
		"names":"",
		"pinyin":[]
	},
	{
		"authorityID":"PL000000003178",
		"name":"安陵",
		"dynasty":"西漢",
		"long":"116.439",
		"lat":"37.6737",
		"districtHistorical":"西漢_青州刺史部",
		"districtModern":"中國-河北省-滄州市-吳橋縣",
		"note":null,
		"lang":"中文",
		"shortAuthorityID":"PL3178",
		"names":"",
		"pinyin":{
			"安陵":"ān líng"
		}
	},
	{
		"authorityID":"PL000000003179",
		"name":"桑園鎮",
		"dynasty":"清",
		"long":"116.3841",
		"lat":"37.622",
		"districtHistorical":"清_山東",
		"districtModern":"中國-河北省-滄州市-吳橋縣",
		"note":null,
		"lang":"中文",
		"shortAuthorityID":"PL3179",
		"names":"",
		"pinyin":[]
	},
	{
		"authorityID":"PL000000003180",
		"name":"吳橋",
		"dynasty":"元",
		"long":"116.5133",
		"lat":"37.6059",
		"districtHistorical":"元_中書省",
		"districtModern":"中國-河北省-滄州市-吳橋縣",
		"note":null,
		"lang":"中文",
		"shortAuthorityID":"PL3180",
		"names":"",
		"pinyin":[]
	},
	{
		"authorityID":"PL000000003181",
		"name":"吳橋鎮",
		"dynasty":"北宋",
		"long":"116.5098",
		"lat":"37.6032",
		"districtHistorical":"北宋_河北東路",
		"districtModern":"中國-河北省-滄州市-吳橋縣",
		"note":null,
		"lang":"中文",
		"shortAuthorityID":"PL3181",
		"names":"",
		"pinyin":[]
	},
	{
		"authorityID":"PL000000003182",
		"name":"吳橋",
		"dynasty":"明",
		"long":"116.5244",
		"lat":"37.6005",
		"districtHistorical":"明_京師",
		"districtModern":"中國-河北省-滄州市-吳橋縣",
		"note":null,
		"lang":"中文",
		"shortAuthorityID":"PL3182",
		"names":"",
		"pinyin":[]
	},
	{
		"authorityID":"PL000000003183",
		"name":"吳橋",
		"dynasty":"清",
		"long":"116.5169",
		"lat":"37.6001",
		"districtHistorical":"清_直隸",
		"districtModern":"中國-河北省-滄州市-吳橋縣",
		"note":null,
		"lang":"中文",
		"shortAuthorityID":"PL3183",
		"names":"",
		"pinyin":[]
	},
	{
		"authorityID":"PL000000003184",
		"name":"白鶴寺",
		"dynasty":"唐",
		"long":"116.117923",
		"lat":"38.183573",
		"districtHistorical":null,
		"districtModern":"中國-河北省-滄州市-獻縣",
		"note":"在獻縣，又名白馬寺。唐沈佺期有樂城白鶴寺詩。（唐寺考：121；<a target=\"_blank\" href=\" http:\/\/chgis.hmdc.harvard.edu\/search_details_1.php?ptid=relig_922\"> http:\/\/chgis.hmdc.harvard.edu\/search_details_1.php?ptid=relig_922<\/a>，2009.06.18；淵四．大清一統志．卷十六：7；四部續．嘉慶一統志．河間府二：13）",
		"lang":"中文",
		"shortAuthorityID":"PL3184",
		"names":"[中文] 白馬寺",
		"pinyin":{
			"白鶴寺":"bái hè sì",
			"白馬寺":"bái mǎ sì"
		}
	},
	{
		"authorityID":"PL000000003185",
		"name":"商家林",
		"dynasty":"清",
		"long":"116.0819",
		"lat":"38.307",
		"districtHistorical":"清_直隸",
		"districtModern":"中國-河北省-滄州市-獻縣",
		"note":null,
		"lang":"中文",
		"shortAuthorityID":"PL3185",
		"names":"",
		"pinyin":[]
	},
	{
		"authorityID":"PL000000003186",
		"name":"韓村",
		"dynasty":"清",
		"long":"116.3581",
		"lat":"38.3055",
		"districtHistorical":"清_直隸",
		"districtModern":"中國-河北省-滄州市-獻縣",
		"note":null,
		"lang":"中文",
		"shortAuthorityID":"PL3186",
		"names":"",
		"pinyin":{
			"韓村":"hán cūn"
		}
	},
	{
		"authorityID":"PL000000003187",
		"name":"中水",
		"dynasty":"東漢",
		"long":"115.9963",
		"lat":"38.2937",
		"districtHistorical":"東漢_冀州刺史部",
		"districtModern":"中國-河北省-滄州市-獻縣",
		"note":null,
		"lang":"中文",
		"shortAuthorityID":"PL3187",
		"names":"",
		"pinyin":[]
	},
	{
		"authorityID":"PL000000003188",
		"name":"北林鎮",
		"dynasty":"北宋",
		"long":"116.2381",
		"lat":"38.2867",
		"districtHistorical":"北宋_河北東路",
		"districtModern":"中國-河北省-滄州市-獻縣",
		"note":null,
		"lang":"中文",
		"shortAuthorityID":"PL3188",
		"names":"",
		"pinyin":[]
	},
	{
		"authorityID":"PL000000003189",
		"name":"永寧鎮",
		"dynasty":"北宋",
		"long":"116.3146",
		"lat":"38.2859",
		"districtHistorical":"北宋_河北東路",
		"districtModern":"中國-河北省-滄州市-獻縣",
		"note":null,
		"lang":"中文",
		"shortAuthorityID":"PL3189",
		"names":"",
		"pinyin":[]
	},
	{
		"authorityID":"PL000000003190",
		"name":"中水",
		"dynasty":"北魏",
		"long":"115.9876",
		"lat":"38.2833",
		"districtHistorical":"北朝 魏_瀛州",
		"districtModern":"中國-河北省-滄州市-獻縣",
		"note":null,
		"lang":"中文",
		"shortAuthorityID":"PL3190",
		"names":"",
		"pinyin":[]
	},
	{
		"authorityID":"PL000000003191",
		"name":"中水",
		"dynasty":"西晉",
		"long":"115.9824",
		"lat":"38.2791",
		"districtHistorical":"西晉_冀州",
		"districtModern":"中國-河北省-滄州市-獻縣",
		"note":null,
		"lang":"中文",
		"shortAuthorityID":"PL3191",
		"names":"",
		"pinyin":[]
	},
	{
		"authorityID":"PL000000003192",
		"name":"中水",
		"dynasty":"曹魏",
		"long":"115.9824",
		"lat":"38.2791",
		"districtHistorical":"三國 魏_冀州",
		"districtModern":"中國-河北省-滄州市-獻縣",
		"note":null,
		"lang":"中文",
		"shortAuthorityID":"PL3192",
		"names":"",
		"pinyin":[]
	},
	{
		"authorityID":"PL000000003193",
		"name":"淮鎮店",
		"dynasty":"明",
		"long":"116.3611",
		"lat":"38.2222",
		"districtHistorical":"明_京師",
		"districtModern":"中國-河北省-滄州市-獻縣",
		"note":null,
		"lang":"中文",
		"shortAuthorityID":"PL3193",
		"names":"",
		"pinyin":[]
	},
	{
		"authorityID":"PL000000003194",
		"name":"淮鎮",
		"dynasty":"清",
		"long":"116.371",
		"lat":"38.2172",
		"districtHistorical":"清_直隸",
		"districtModern":"中國-河北省-滄州市-獻縣",
		"note":null,
		"lang":"中文",
		"shortAuthorityID":"PL3194",
		"names":"",
		"pinyin":[]
	},
	{
		"authorityID":"PL000000003195",
		"name":"獻縣",
		"dynasty":"清",
		"long":"116.1245",
		"lat":"38.1899",
		"districtHistorical":"清_直隸",
		"districtModern":"中國-河北省-滄州市-獻縣",
		"note":null,
		"lang":"中文",
		"shortAuthorityID":"PL3195",
		"names":"",
		"pinyin":[]
	},
	{
		"authorityID":"PL000000003196",
		"name":"獻縣",
		"dynasty":"明",
		"long":"116.1245",
		"lat":"38.1899",
		"districtHistorical":"明_京師",
		"districtModern":"中國-河北省-滄州市-獻縣",
		"note":null,
		"lang":"中文",
		"shortAuthorityID":"PL3196",
		"names":"",
		"pinyin":[]
	},
	{
		"authorityID":"PL000000003197",
		"name":"樂壽",
		"dynasty":"元",
		"long":"116.1245",
		"lat":"38.1899",
		"districtHistorical":"元_中書省",
		"districtModern":"中國-河北省-滄州市-獻縣",
		"note":null,
		"lang":"中文",
		"shortAuthorityID":"PL3197",
		"names":"",
		"pinyin":[]
	},
	{
		"authorityID":"PL000000003198",
		"name":"樂壽",
		"dynasty":"北宋",
		"long":"116.1245",
		"lat":"38.1899",
		"districtHistorical":"北宋_河北東路",
		"districtModern":"中國-河北省-滄州市-獻縣",
		"note":null,
		"lang":"中文",
		"shortAuthorityID":"PL3198",
		"names":"",
		"pinyin":[]
	},
	{
		"authorityID":"PL000000003199",
		"name":"樂壽",
		"dynasty":"唐",
		"long":"116.1245",
		"lat":"38.1899",
		"districtHistorical":"唐_河北道",
		"districtModern":"中國-河北省-滄州市-獻縣",
		"note":null,
		"lang":"中文",
		"shortAuthorityID":"PL3199",
		"names":"",
		"pinyin":[]
	},
	{
		"authorityID":"PL000000003200",
		"name":"樂壽",
		"dynasty":"隋",
		"long":"116.1245",
		"lat":"38.1899",
		"districtHistorical":"隋_河間郡",
		"districtModern":"中國-河北省-滄州市-獻縣",
		"note":null,
		"lang":"中文",
		"shortAuthorityID":"PL3200",
		"names":"",
		"pinyin":[]
	},
	{
		"authorityID":"PL000000003201",
		"name":"樂城",
		"dynasty":"北魏",
		"long":"116.1245",
		"lat":"38.1899",
		"districtHistorical":"北朝 魏_瀛州",
		"districtModern":"中國-河北省-滄州市-獻縣",
		"note":null,
		"lang":"中文",
		"shortAuthorityID":"PL3201",
		"names":"",
		"pinyin":[]
	},
	{
		"authorityID":"PL000000003202",
		"name":"河間國",
		"dynasty":"東漢",
		"long":"116.2067",
		"lat":"38.1576",
		"districtHistorical":"東漢_冀州刺史部",
		"districtModern":"中國-河北省-滄州市-獻縣",
		"note":null,
		"lang":"中文",
		"shortAuthorityID":"PL3202",
		"names":"",
		"pinyin":[]
	},
	{
		"authorityID":"PL000000003203",
		"name":"樂成",
		"dynasty":"東漢",
		"long":"116.2067",
		"lat":"38.1576",
		"districtHistorical":"東漢_冀州刺史部",
		"districtModern":"中國-河北省-滄州市-獻縣",
		"note":null,
		"lang":"中文",
		"shortAuthorityID":"PL3203",
		"names":"",
		"pinyin":[]
	},
	{
		"authorityID":"PL000000003204",
		"name":"河間國",
		"dynasty":"西漢",
		"long":"116.2067",
		"lat":"38.1576",
		"districtHistorical":"西漢_冀州刺史部",
		"districtModern":"中國-河北省-滄州市-獻縣",
		"note":null,
		"lang":"中文",
		"shortAuthorityID":"PL3204",
		"names":"",
		"pinyin":[]
	},
	{
		"authorityID":"PL000000003205",
		"name":"樂成",
		"dynasty":"西漢",
		"long":"116.2067",
		"lat":"38.1576",
		"districtHistorical":"西漢_冀州刺史部",
		"districtModern":"中國-河北省-滄州市-獻縣",
		"note":null,
		"lang":"中文",
		"shortAuthorityID":"PL3205",
		"names":"",
		"pinyin":[]
	},
	{
		"authorityID":"PL000000003206",
		"name":"河間國",
		"dynasty":"西晉",
		"long":"116.1899",
		"lat":"38.1436",
		"districtHistorical":"西晉_冀州",
		"districtModern":"中國-河北省-滄州市-獻縣",
		"note":"西晉置河間國，改國都樂成縣為樂城縣（縣治在今河北獻縣東），八王之亂後，河間國廢。（<a target=\"_blank\" href=\"http:\/\/zh.wikipedia.org\/wiki\/%E6%B2%B3%E9%96%93%E9%83%A1\">http:\/\/zh.wikipedia.org\/wiki\/%E6%B2%B3%E9%96%93%E9%83%A1<\/a>、<a target=\"_blank\" href=\"http:\/\/zh.wikipedia.org\/wiki\/%E6%B2%B3%E9%96%93%E5%B8%82\">http:\/\/zh.wikipedia.org\/wiki\/%E6%B2%B3%E9%96%93%E5%B8%82<\/a>，2012.07.18）",
		"lang":"中文",
		"shortAuthorityID":"PL3206",
		"names":"",
		"pinyin":[]
	},
	{
		"authorityID":"PL000000003207",
		"name":"樂城",
		"dynasty":"西晉",
		"long":"116.1899",
		"lat":"38.1436",
		"districtHistorical":"西晉_冀州",
		"districtModern":"中國-河北省-滄州市-獻縣",
		"note":null,
		"lang":"中文",
		"shortAuthorityID":"PL3207",
		"names":"",
		"pinyin":[]
	},
	{
		"authorityID":"PL000000003208",
		"name":"河間郡",
		"dynasty":"曹魏",
		"long":"116.1928",
		"lat":"38.1401",
		"districtHistorical":"三國 魏_冀州",
		"districtModern":"中國-河北省-滄州市-獻縣",
		"note":null,
		"lang":"中文",
		"shortAuthorityID":"PL3208",
		"names":"",
		"pinyin":[]
	},
	{
		"authorityID":"PL000000003209",
		"name":"樂成",
		"dynasty":"曹魏",
		"long":"116.1928",
		"lat":"38.1401",
		"districtHistorical":"三國 魏_冀州",
		"districtModern":"中國-河北省-滄州市-獻縣",
		"note":null,
		"lang":"中文",
		"shortAuthorityID":"PL3209",
		"names":"",
		"pinyin":[]
	},
	{
		"authorityID":"PL000000003210",
		"name":"單家橋",
		"dynasty":"明",
		"long":"116.1658",
		"lat":"38.13",
		"districtHistorical":"明_京師",
		"districtModern":"中國-河北省-滄州市-獻縣",
		"note":null,
		"lang":"中文",
		"shortAuthorityID":"PL3210",
		"names":"",
		"pinyin":[]
	},
	{
		"authorityID":"PL000000003211",
		"name":"獻州",
		"dynasty":"元",
		"long":"116.1245",
		"lat":"38.1899",
		"districtHistorical":"元_中書省",
		"districtModern":"中國-河北省-滄州市-獻縣",
		"note":null,
		"lang":"中文",
		"shortAuthorityID":"PL3211",
		"names":"",
		"pinyin":[]
	},
	{
		"authorityID":"PL000000003212",
		"name":"孟村",
		"dynasty":"清",
		"long":"117.107",
		"lat":"38.0657",
		"districtHistorical":"清_直隸",
		"districtModern":"中國-河北省-滄州市-孟村回族自治縣",
		"note":null,
		"lang":"中文",
		"shortAuthorityID":"PL3212",
		"names":"",
		"pinyin":{
			"孟村":"mèng cūn"
		}
	},
	{
		"authorityID":"PL000000003213",
		"name":"孟村",
		"dynasty":"元",
		"long":"117.1079",
		"lat":"38.0553",
		"districtHistorical":"元_中書省",
		"districtModern":"中國-河北省-滄州市-孟村回族自治縣",
		"note":null,
		"lang":"中文",
		"shortAuthorityID":"PL3213",
		"names":"",
		"pinyin":{
			"孟村":"mèng cūn"
		}
	},
	{
		"authorityID":"PL000000003214",
		"name":"饒安",
		"dynasty":"唐",
		"long":"117.1042",
		"lat":"37.9996",
		"districtHistorical":"唐_河北道",
		"districtModern":"中國-河北省-滄州市-孟村回族自治縣",
		"note":null,
		"lang":"中文",
		"shortAuthorityID":"PL3214",
		"names":"",
		"pinyin":{
			"饒安":"ráo ān"
		}
	},
	{
		"authorityID":"PL000000003215",
		"name":"饒安鎮",
		"dynasty":"北宋",
		"long":"117.1041",
		"lat":"37.9809",
		"districtHistorical":"北宋_河北東路",
		"districtModern":"中國-河北省-滄州市-孟村回族自治縣",
		"note":null,
		"lang":"中文",
		"shortAuthorityID":"PL3215",
		"names":"",
		"pinyin":[]
	},
	{
		"authorityID":"PL000000003216",
		"name":"實性寺",
		"dynasty":"唐",
		"long":"116.57277",
		"lat":"38.083354",
		"districtHistorical":null,
		"districtModern":"中國-河北省-滄州市-泊頭市",
		"note":"（唐寺考：118）",
		"lang":"中文",
		"shortAuthorityID":"PL3216",
		"names":"",
		"pinyin":[]
	},
	{
		"authorityID":"PL000000003217",
		"name":"建成",
		"dynasty":"西漢",
		"long":"116.587",
		"lat":"38.1662",
		"districtHistorical":"西漢_幽州刺史部",
		"districtModern":"中國-河北省-滄州市-泊頭市",
		"note":null,
		"lang":"中文",
		"shortAuthorityID":"PL3217",
		"names":"",
		"pinyin":{
			"建成":"jiàn chéng"
		}
	},
	{
		"authorityID":"PL000000003218",
		"name":"劉解鎮",
		"dynasty":"清",
		"long":"116.3575",
		"lat":"38.1271",
		"districtHistorical":"清_直隸",
		"districtModern":"中國-河北省-滄州市-泊頭市",
		"note":null,
		"lang":"中文",
		"shortAuthorityID":"PL3218",
		"names":"",
		"pinyin":[]
	},
	{
		"authorityID":"PL000000003219",
		"name":"劉解鎮",
		"dynasty":"北宋",
		"long":"116.3562",
		"lat":"38.126",
		"districtHistorical":"北宋_河北東路",
		"districtModern":"中國-河北省-滄州市-泊頭市",
		"note":null,
		"lang":"中文",
		"shortAuthorityID":"PL3219",
		"names":"",
		"pinyin":[]
	},
	{
		"authorityID":"PL000000003220",
		"name":"齊家堰",
		"dynasty":"清",
		"long":"116.6127",
		"lat":"38.1136",
		"districtHistorical":"清_直隸",
		"districtModern":"中國-河北省-滄州市-泊頭市",
		"note":null,
		"lang":"中文",
		"shortAuthorityID":"PL3220",
		"names":"",
		"pinyin":[]
	},
	{
		"authorityID":"PL000000003221",
		"name":"泊頭鎮",
		"dynasty":"清",
		"long":"116.5862",
		"lat":"38.0503",
		"districtHistorical":"清_直隸",
		"districtModern":"中國-河北省-滄州市-泊頭市",
		"note":null,
		"lang":"中文",
		"shortAuthorityID":"PL3221",
		"names":"",
		"pinyin":[]
	},
	{
		"authorityID":"PL000000003222",
		"name":"泊頭鎮",
		"dynasty":"明",
		"long":"116.5949",
		"lat":"38.038",
		"districtHistorical":"明_京師",
		"districtModern":"中國-河北省-滄州市-泊頭市",
		"note":null,
		"lang":"中文",
		"shortAuthorityID":"PL3222",
		"names":"",
		"pinyin":[]
	},
	{
		"authorityID":"PL000000003223",
		"name":"富莊驛",
		"dynasty":"清",
		"long":"116.1346",
		"lat":"38.0273",
		"districtHistorical":"清_直隸",
		"districtModern":"中國-河北省-滄州市-泊頭市",
		"note":null,
		"lang":"中文",
		"shortAuthorityID":"PL3223",
		"names":"",
		"pinyin":{
			"富莊驛":"fù zhuāng yì"
		}
	},
	{
		"authorityID":"PL000000003224",
		"name":"弓高",
		"dynasty":"唐",
		"long":"116.4573",
		"lat":"38.0222",
		"districtHistorical":"唐_河北道",
		"districtModern":"中國-河北省-滄州市-泊頭市",
		"note":null,
		"lang":"中文",
		"shortAuthorityID":"PL3224",
		"names":"",
		"pinyin":[]
	},
	{
		"authorityID":"PL000000003225",
		"name":"候井",
		"dynasty":"西漢",
		"long":"116.4673",
		"lat":"38.0199",
		"districtHistorical":"西漢_冀州刺史部",
		"districtModern":"中國-河北省-滄州市-泊頭市",
		"note":null,
		"lang":"中文",
		"shortAuthorityID":"PL3225",
		"names":"",
		"pinyin":[]
	},
	{
		"authorityID":"PL000000003226",
		"name":"南大樹鎮",
		"dynasty":"北宋",
		"long":"116.3803",
		"lat":"38.0198",
		"districtHistorical":"北宋_河北東路",
		"districtModern":"中國-河北省-滄州市-泊頭市",
		"note":null,
		"lang":"中文",
		"shortAuthorityID":"PL3226",
		"names":"",
		"pinyin":[]
	},
	{
		"authorityID":"PL000000003227",
		"name":"弓高鎮",
		"dynasty":"北宋",
		"long":"116.4715",
		"lat":"38.0185",
		"districtHistorical":"北宋_河北東路",
		"districtModern":"中國-河北省-滄州市-泊頭市",
		"note":null,
		"lang":"中文",
		"shortAuthorityID":"PL3227",
		"names":"",
		"pinyin":[]
	},
	{
		"authorityID":"PL000000003228",
		"name":"交河",
		"dynasty":"清",
		"long":"116.2948",
		"lat":"38.0162",
		"districtHistorical":"清_直隸",
		"districtModern":"中國-河北省-滄州市-泊頭市",
		"note":null,
		"lang":"中文",
		"shortAuthorityID":"PL3228",
		"names":"",
		"pinyin":{
			"交河":"jiāo hé"
		}
	},
	{
		"authorityID":"PL000000003229",
		"name":"交河",
		"dynasty":"明",
		"long":"116.2948",
		"lat":"38.0162",
		"districtHistorical":"明_京師",
		"districtModern":"中國-河北省-滄州市-泊頭市",
		"note":null,
		"lang":"中文",
		"shortAuthorityID":"PL3229",
		"names":"",
		"pinyin":{
			"交河":"jiāo hé"
		}
	},
	{
		"authorityID":"PL000000003230",
		"name":"交河",
		"dynasty":"元",
		"long":"116.2948",
		"lat":"38.0162",
		"districtHistorical":"元_中書省",
		"districtModern":"中國-河北省-滄州市-泊頭市",
		"note":null,
		"lang":"中文",
		"shortAuthorityID":"PL3230",
		"names":"",
		"pinyin":{
			"交河":"jiāo hé"
		}
	},
	{
		"authorityID":"PL000000003231",
		"name":"弓高",
		"dynasty":"隋",
		"long":"116.4701",
		"lat":"38.0137",
		"districtHistorical":"隋_平原郡",
		"districtModern":"中國-河北省-滄州市-泊頭市",
		"note":null,
		"lang":"中文",
		"shortAuthorityID":"PL3231",
		"names":"",
		"pinyin":[]
	},
	{
		"authorityID":"PL000000003232",
		"name":"北望鎮",
		"dynasty":"北宋",
		"long":"116.123",
		"lat":"37.9977",
		"districtHistorical":"北宋_河北東路",
		"districtModern":"中國-河北省-滄州市-泊頭市",
		"note":null,
		"lang":"中文",
		"shortAuthorityID":"PL3232",
		"names":"",
		"pinyin":[]
	},
	{
		"authorityID":"PL000000003233",
		"name":"開元寺",
		"dynasty":"唐",
		"long":"116.134139",
		"lat":"38.848778",
		"districtHistorical":null,
		"districtModern":"中國-河北省-滄州市-任丘市",
		"note":"在任邱縣鄚城東南，唐開元間建。（唐寺考：121；淵四．畿輔通志．卷五十一：43；四部續．嘉慶一統志．河間府二：14）",
		"lang":"中文",
		"shortAuthorityID":"PL3233",
		"names":"",
		"pinyin":[]
	},
	{
		"authorityID":"PL000000003234",
		"name":"鄚縣",
		"dynasty":"東漢",
		"long":"116.1348",
		"lat":"38.8732",
		"districtHistorical":"東漢_冀州刺史部",
		"districtModern":"中國-河北省-滄州市-任丘市",
		"note":null,
		"lang":"中文",
		"shortAuthorityID":"PL3234",
		"names":"",
		"pinyin":[]
	},
	{
		"authorityID":"PL000000003235",
		"name":"鄚縣",
		"dynasty":"西晉",
		"long":"116.1381",
		"lat":"38.8712",
		"districtHistorical":"西晉_冀州",
		"districtModern":"中國-河北省-滄州市-任丘市",
		"note":null,
		"lang":"中文",
		"shortAuthorityID":"PL3235",
		"names":"",
		"pinyin":[]
	},
	{
		"authorityID":"PL000000003236",
		"name":"鄚縣",
		"dynasty":"曹魏",
		"long":"116.1381",
		"lat":"38.8712",
		"districtHistorical":"三國 魏_冀州",
		"districtModern":"中國-河北省-滄州市-任丘市",
		"note":null,
		"lang":"中文",
		"shortAuthorityID":"PL3236",
		"names":"",
		"pinyin":[]
	},
	{
		"authorityID":"PL000000003237",
		"name":"鄚縣",
		"dynasty":"北魏",
		"long":"116.1342",
		"lat":"38.8568",
		"districtHistorical":"北朝 魏_瀛州",
		"districtModern":"中國-河北省-滄州市-任丘市",
		"note":null,
		"lang":"中文",
		"shortAuthorityID":"PL3237",
		"names":"",
		"pinyin":[]
	},
	{
		"authorityID":"PL000000003238",
		"name":"鄚市鎮",
		"dynasty":"清",
		"long":"116.1236",
		"lat":"38.8541",
		"districtHistorical":"清_直隸",
		"districtModern":"中國-河北省-滄州市-任丘市",
		"note":null,
		"lang":"中文",
		"shortAuthorityID":"PL3238",
		"names":"",
		"pinyin":[]
	},
	{
		"authorityID":"PL000000003239",
		"name":"莫亭",
		"dynasty":"元",
		"long":"116.123",
		"lat":"38.8506",
		"districtHistorical":"元_中書省",
		"districtModern":"中國-河北省-滄州市-任丘市",
		"note":null,
		"lang":"中文",
		"shortAuthorityID":"PL3239",
		"names":"",
		"pinyin":[]
	},
	{
		"authorityID":"PL000000003240",
		"name":"鄀縣",
		"dynasty":"隋",
		"long":"116.1238",
		"lat":"38.8505",
		"districtHistorical":"隋_河間郡",
		"districtModern":"中國-河北省-滄州市-任丘市",
		"note":null,
		"lang":"中文",
		"shortAuthorityID":"PL3240",
		"names":"",
		"pinyin":[]
	},
	{
		"authorityID":"PL000000003241",
		"name":"莫州",
		"dynasty":"唐",
		"long":"116.1096",
		"lat":"38.8492",
		"districtHistorical":"唐_河北道",
		"districtModern":"中國-河北省-滄州市-任丘市",
		"note":"本瀛州之鄚縣。景雲二年，於縣置鄚州，割瀛州之鄚、任丘、文安、清苑，幽州之歸義等五縣屬之。其年，歸義復還幽州。開元十三年，以「鄚」字類「鄭」字，改為莫。天寶元年，改為文安郡。乾元元年，復為莫州 。（<a target=\"_blank\" href=\"http:\/\/zh.wikisource.org\/wiki\/%E8%88%8A%E5%94%90%E6%9B%B8\/%E5%8D%B739\">http:\/\/zh.wikisource.org\/wiki\/%E8%88%8A%E5%94%90%E6%9B%B8\/%E5%8D%B739<\/a>，2010.12.21）",
		"lang":"中文",
		"shortAuthorityID":"PL3241",
		"names":"[中文] 鄚州,文安郡",
		"pinyin":{
			"文安郡":"wén ān jùn"
		}
	},
	{
		"authorityID":"PL000000003242",
		"name":"莫縣",
		"dynasty":"唐",
		"long":"116.1096",
		"lat":"38.8492",
		"districtHistorical":"唐_河北道",
		"districtModern":"中國-河北省-滄州市-任丘市",
		"note":null,
		"lang":"中文",
		"shortAuthorityID":"PL3242",
		"names":"",
		"pinyin":[]
	},
	{
		"authorityID":"PL000000003243",
		"name":"鄚鎮",
		"dynasty":"北宋",
		"long":"116.1205",
		"lat":"38.849",
		"districtHistorical":"北宋_河北東路",
		"districtModern":"中國-河北省-滄州市-任丘市",
		"note":null,
		"lang":"中文",
		"shortAuthorityID":"PL3243",
		"names":"",
		"pinyin":[]
	},
	{
		"authorityID":"PL000000003244",
		"name":"阿陵城",
		"dynasty":"北魏",
		"long":"116.2024",
		"lat":"38.7786",
		"districtHistorical":"北朝 魏_瀛州",
		"districtModern":"中國-河北省-滄州市-任丘市",
		"note":null,
		"lang":"中文",
		"shortAuthorityID":"PL3244",
		"names":"",
		"pinyin":[]
	},
	{
		"authorityID":"PL000000003245",
		"name":"阿陵",
		"dynasty":"西漢",
		"long":"116.1721",
		"lat":"38.7778",
		"districtHistorical":"西漢_幽州刺史部",
		"districtModern":"中國-河北省-滄州市-任丘市",
		"note":null,
		"lang":"中文",
		"shortAuthorityID":"PL3245",
		"names":"",
		"pinyin":[]
	},
	{
		"authorityID":"PL000000003246",
		"name":"長茅鎮",
		"dynasty":"清",
		"long":"116.3768",
		"lat":"38.7583",
		"districtHistorical":"清_直隸",
		"districtModern":"中國-河北省-滄州市-任丘市",
		"note":null,
		"lang":"中文",
		"shortAuthorityID":"PL3246",
		"names":"",
		"pinyin":[]
	},
	{
		"authorityID":"PL000000003247",
		"name":"長豐鎮",
		"dynasty":"北宋",
		"long":"116.3756",
		"lat":"38.7573",
		"districtHistorical":"北宋_河北東路",
		"districtModern":"中國-河北省-滄州市-任丘市",
		"note":null,
		"lang":"中文",
		"shortAuthorityID":"PL3247",
		"names":"",
		"pinyin":[]
	},
	{
		"authorityID":"PL000000003248",
		"name":"長豐",
		"dynasty":"唐",
		"long":"116.3785",
		"lat":"38.7509",
		"districtHistorical":"唐_河北道",
		"districtModern":"中國-河北省-滄州市-任丘市",
		"note":null,
		"lang":"中文",
		"shortAuthorityID":"PL3248",
		"names":"",
		"pinyin":[]
	},
	{
		"authorityID":"PL000000003249",
		"name":"任丘",
		"dynasty":"清",
		"long":"116.1002",
		"lat":"38.7069",
		"districtHistorical":"清_直隸",
		"districtModern":"中國-河北省-滄州市-任丘市",
		"note":null,
		"lang":"中文",
		"shortAuthorityID":"PL3249",
		"names":"",
		"pinyin":[]
	},
	{
		"authorityID":"PL000000003250",
		"name":"任丘",
		"dynasty":"明",
		"long":"116.1002",
		"lat":"38.7069",
		"districtHistorical":"明_京師",
		"districtModern":"中國-河北省-滄州市-任丘市",
		"note":null,
		"lang":"中文",
		"shortAuthorityID":"PL3250",
		"names":"",
		"pinyin":[]
	},
	{
		"authorityID":"PL000000003251",
		"name":"任丘",
		"dynasty":"元",
		"long":"116.1002",
		"lat":"38.7069",
		"districtHistorical":"元_中書省",
		"districtModern":"中國-河北省-滄州市-任丘市",
		"note":null,
		"lang":"中文",
		"shortAuthorityID":"PL3251",
		"names":"",
		"pinyin":[]
	},
	{
		"authorityID":"PL000000003252",
		"name":"任丘",
		"dynasty":"北宋",
		"long":"116.1002",
		"lat":"38.7069",
		"districtHistorical":"北宋_河北東路",
		"districtModern":"中國-河北省-滄州市-任丘市",
		"note":null,
		"lang":"中文",
		"shortAuthorityID":"PL3252",
		"names":"",
		"pinyin":[]
	},
	{
		"authorityID":"PL000000003253",
		"name":"莫州",
		"dynasty":"北宋",
		"long":"116.1002",
		"lat":"38.7069",
		"districtHistorical":"北宋_河北東路",
		"districtModern":"中國-河北省-滄州市-任丘市",
		"note":null,
		"lang":"中文",
		"shortAuthorityID":"PL3253",
		"names":"",
		"pinyin":[]
	},
	{
		"authorityID":"PL000000003254",
		"name":"任丘",
		"dynasty":"唐",
		"long":"116.1002",
		"lat":"38.7069",
		"districtHistorical":"唐_河北道",
		"districtModern":"中國-河北省-滄州市-任丘市",
		"note":null,
		"lang":"中文",
		"shortAuthorityID":"PL3254",
		"names":"",
		"pinyin":[]
	},
	{
		"authorityID":"PL000000003255",
		"name":"鎖井口",
		"dynasty":"元",
		"long":"116.3446",
		"lat":"38.6843",
		"districtHistorical":"元_中書省",
		"districtModern":"中國-河北省-滄州市-任丘市",
		"note":null,
		"lang":"中文",
		"shortAuthorityID":"PL3255",
		"names":"",
		"pinyin":[]
	},
	{
		"authorityID":"PL000000003256",
		"name":"新中鎮",
		"dynasty":"清",
		"long":"116.0646",
		"lat":"38.5792",
		"districtHistorical":"清_直隸",
		"districtModern":"中國-河北省-滄州市-任丘市",
		"note":null,
		"lang":"中文",
		"shortAuthorityID":"PL3256",
		"names":"",
		"pinyin":[]
	},
	{
		"authorityID":"PL000000003257",
		"name":"莫州",
		"dynasty":"元",
		"long":"116.123",
		"lat":"38.8506",
		"districtHistorical":"元_中書省",
		"districtModern":"中國-河北省-滄州市-任丘市",
		"note":null,
		"lang":"中文",
		"shortAuthorityID":"PL3257",
		"names":"",
		"pinyin":[]
	},
	{
		"authorityID":"PL000000003258",
		"name":"同居鎮",
		"dynasty":"清",
		"long":"117.213",
		"lat":"38.5956",
		"districtHistorical":"清_直隸",
		"districtModern":"中國-河北省-滄州市-黃驊市",
		"note":null,
		"lang":"中文",
		"shortAuthorityID":"PL3258",
		"names":"",
		"pinyin":[]
	},
	{
		"authorityID":"PL000000003259",
		"name":"祁口",
		"dynasty":"清",
		"long":"117.571",
		"lat":"38.5933",
		"districtHistorical":"清_直隸",
		"districtModern":"中國-河北省-滄州市-黃驊市",
		"note":null,
		"lang":"中文",
		"shortAuthorityID":"PL3259",
		"names":"",
		"pinyin":[]
	},
	{
		"authorityID":"PL000000003260",
		"name":"乾符寨",
		"dynasty":"北宋",
		"long":"117.17",
		"lat":"38.5852",
		"districtHistorical":"北宋_河北東路",
		"districtModern":"中國-河北省-滄州市-黃驊市",
		"note":null,
		"lang":"中文",
		"shortAuthorityID":"PL3260",
		"names":"",
		"pinyin":[]
	},
	{
		"authorityID":"PL000000003261",
		"name":"魯城",
		"dynasty":"唐",
		"long":"117.1524",
		"lat":"38.5835",
		"districtHistorical":"唐_河北道",
		"districtModern":"中國-河北省-滄州市-黃驊市",
		"note":null,
		"lang":"中文",
		"shortAuthorityID":"PL3261",
		"names":"",
		"pinyin":[]
	},
	{
		"authorityID":"PL000000003262",
		"name":"章武",
		"dynasty":"西晉",
		"long":"117.1762",
		"lat":"38.5763",
		"districtHistorical":"西晉_冀州",
		"districtModern":"中國-河北省-滄州市-黃驊市",
		"note":null,
		"lang":"中文",
		"shortAuthorityID":"PL3262",
		"names":"",
		"pinyin":[]
	},
	{
		"authorityID":"PL000000003263",
		"name":"章武",
		"dynasty":"曹魏",
		"long":"117.1762",
		"lat":"38.5763",
		"districtHistorical":"三國 魏_冀州",
		"districtModern":"中國-河北省-滄州市-黃驊市",
		"note":null,
		"lang":"中文",
		"shortAuthorityID":"PL3263",
		"names":"",
		"pinyin":[]
	},
	{
		"authorityID":"PL000000003264",
		"name":"魯城",
		"dynasty":"隋",
		"long":"117.1666",
		"lat":"38.5691",
		"districtHistorical":"隋_河間郡",
		"districtModern":"中國-河北省-滄州市-黃驊市",
		"note":null,
		"lang":"中文",
		"shortAuthorityID":"PL3264",
		"names":"",
		"pinyin":[]
	},
	{
		"authorityID":"PL000000003265",
		"name":"嚴鎮場",
		"dynasty":"元",
		"long":"117.3226",
		"lat":"38.5531",
		"districtHistorical":"元_中書省",
		"districtModern":"中國-河北省-滄州市-黃驊市",
		"note":null,
		"lang":"中文",
		"shortAuthorityID":"PL3265",
		"names":"",
		"pinyin":[]
	},
	{
		"authorityID":"PL000000003266",
		"name":"章武",
		"dynasty":"東漢",
		"long":"117.1091",
		"lat":"38.542",
		"districtHistorical":"東漢_冀州刺史部",
		"districtModern":"中國-河北省-滄州市-黃驊市",
		"note":null,
		"lang":"中文",
		"shortAuthorityID":"PL3266",
		"names":"",
		"pinyin":[]
	},
	{
		"authorityID":"PL000000003267",
		"name":"孫正莊",
		"dynasty":"清",
		"long":"117.3002",
		"lat":"38.536",
		"districtHistorical":"清_直隸",
		"districtModern":"中國-河北省-滄州市-黃驊市",
		"note":null,
		"lang":"中文",
		"shortAuthorityID":"PL3267",
		"names":"",
		"pinyin":[]
	},
	{
		"authorityID":"PL000000003268",
		"name":"章武",
		"dynasty":"西漢",
		"long":"117.1555",
		"lat":"38.5329",
		"districtHistorical":"西漢_幽州刺史部",
		"districtModern":"中國-河北省-滄州市-黃驊市",
		"note":null,
		"lang":"中文",
		"shortAuthorityID":"PL3268",
		"names":"",
		"pinyin":[]
	},
	{
		"authorityID":"PL000000003269",
		"name":"李村",
		"dynasty":"清",
		"long":"117.1703",
		"lat":"38.5217",
		"districtHistorical":"清_直隸",
		"districtModern":"中國-河北省-滄州市-黃驊市",
		"note":null,
		"lang":"中文",
		"shortAuthorityID":"PL3269",
		"names":"",
		"pinyin":{
			"李村":"lǐ cūn"
		}
	},
	{
		"authorityID":"PL000000003270",
		"name":"呂家橋",
		"dynasty":"清",
		"long":"117.266",
		"lat":"38.5098",
		"districtHistorical":"清_直隸",
		"districtModern":"中國-河北省-滄州市-黃驊市",
		"note":null,
		"lang":"中文",
		"shortAuthorityID":"PL3270",
		"names":"",
		"pinyin":[]
	},
	{
		"authorityID":"PL000000003271",
		"name":"吳家莊",
		"dynasty":"清",
		"long":"117.1668",
		"lat":"38.4369",
		"districtHistorical":"清_直隸",
		"districtModern":"中國-河北省-滄州市-黃驊市",
		"note":null,
		"lang":"中文",
		"shortAuthorityID":"PL3271",
		"names":"",
		"pinyin":[]
	},
	{
		"authorityID":"PL000000003272",
		"name":"韓村鎮",
		"dynasty":"清",
		"long":"117.3655",
		"lat":"38.3683",
		"districtHistorical":"清_直隸",
		"districtModern":"中國-河北省-滄州市-黃驊市",
		"note":null,
		"lang":"中文",
		"shortAuthorityID":"PL3272",
		"names":"",
		"pinyin":[]
	},
	{
		"authorityID":"PL000000003273",
		"name":"利國場",
		"dynasty":"元",
		"long":"117.3615",
		"lat":"38.3656",
		"districtHistorical":"元_中書省",
		"districtModern":"中國-河北省-滄州市-黃驊市",
		"note":null,
		"lang":"中文",
		"shortAuthorityID":"PL3273",
		"names":"",
		"pinyin":[]
	},
	{
		"authorityID":"PL000000003274",
		"name":"漢武帝望海北臺",
		"dynasty":"北魏",
		"long":"117.5901",
		"lat":"38.3598",
		"districtHistorical":"北朝 魏_瀛州",
		"districtModern":"中國-河北省-滄州市-黃驊市",
		"note":null,
		"lang":"中文",
		"shortAuthorityID":"PL3274",
		"names":"",
		"pinyin":[]
	},
	{
		"authorityID":"PL000000003275",
		"name":"海豐鎮",
		"dynasty":"清",
		"long":"117.5933",
		"lat":"38.305",
		"districtHistorical":"清_直隸",
		"districtModern":"中國-河北省-滄州市-黃驊市",
		"note":null,
		"lang":"中文",
		"shortAuthorityID":"PL3275",
		"names":"",
		"pinyin":[]
	},
	{
		"authorityID":"PL000000003276",
		"name":"阜民場",
		"dynasty":"元",
		"long":"117.2977",
		"lat":"38.3028",
		"districtHistorical":"元_中書省",
		"districtModern":"中國-河北省-滄州市-黃驊市",
		"note":null,
		"lang":"中文",
		"shortAuthorityID":"PL3276",
		"names":"",
		"pinyin":[]
	},
	{
		"authorityID":"PL000000003277",
		"name":"海豐場",
		"dynasty":"元",
		"long":"117.5275",
		"lat":"38.2862",
		"districtHistorical":"元_中書省",
		"districtModern":"中國-河北省-滄州市-黃驊市",
		"note":null,
		"lang":"中文",
		"shortAuthorityID":"PL3277",
		"names":"",
		"pinyin":[]
	},
	{
		"authorityID":"PL000000003278",
		"name":"章武",
		"dynasty":"北魏",
		"long":"117.2939",
		"lat":"38.2862",
		"districtHistorical":"北朝 魏_瀛州",
		"districtModern":"中國-河北省-滄州市-黃驊市",
		"note":null,
		"lang":"中文",
		"shortAuthorityID":"PL3278",
		"names":"",
		"pinyin":[]
	},
	{
		"authorityID":"PL000000003279",
		"name":"羊兒莊",
		"dynasty":"清",
		"long":"117.5207",
		"lat":"38.2827",
		"districtHistorical":"清_直隸",
		"districtModern":"中國-河北省-滄州市-黃驊市",
		"note":null,
		"lang":"中文",
		"shortAuthorityID":"PL3279",
		"names":"",
		"pinyin":[]
	},
	{
		"authorityID":"PL000000003280",
		"name":"常郭鎮",
		"dynasty":"清",
		"long":"117.2556",
		"lat":"38.2728",
		"districtHistorical":"清_直隸",
		"districtModern":"中國-河北省-滄州市-黃驊市",
		"note":null,
		"lang":"中文",
		"shortAuthorityID":"PL3280",
		"names":"",
		"pinyin":[]
	},
	{
		"authorityID":"PL000000003281",
		"name":"畢孟鎮",
		"dynasty":"清",
		"long":"117.1976",
		"lat":"38.2491",
		"districtHistorical":"清_直隸",
		"districtModern":"中國-河北省-滄州市-黃驊市",
		"note":null,
		"lang":"中文",
		"shortAuthorityID":"PL3281",
		"names":"",
		"pinyin":[]
	},
	{
		"authorityID":"PL000000003282",
		"name":"利民場",
		"dynasty":"元",
		"long":"117.1899",
		"lat":"38.2374",
		"districtHistorical":"元_中書省",
		"districtModern":"中國-河北省-滄州市-黃驊市",
		"note":null,
		"lang":"中文",
		"shortAuthorityID":"PL3282",
		"names":"",
		"pinyin":[]
	},
	{
		"authorityID":"PL000000003283",
		"name":"鹽山",
		"dynasty":"唐",
		"long":"117.3296",
		"lat":"38.1997",
		"districtHistorical":"唐_河北道",
		"districtModern":"中國-河北省-滄州市-黃驊市",
		"note":null,
		"lang":"中文",
		"shortAuthorityID":"PL3283",
		"names":"",
		"pinyin":[]
	},
	{
		"authorityID":"PL000000003284",
		"name":"鹽山",
		"dynasty":"北宋",
		"long":"117.3255",
		"lat":"38.1966",
		"districtHistorical":"北宋_河北東路",
		"districtModern":"中國-河北省-滄州市-黃驊市",
		"note":null,
		"lang":"中文",
		"shortAuthorityID":"PL3284",
		"names":"",
		"pinyin":[]
	},
	{
		"authorityID":"PL000000003285",
		"name":"鹽山",
		"dynasty":"元",
		"long":"117.3278",
		"lat":"38.1963",
		"districtHistorical":"元_中書省",
		"districtModern":"中國-河北省-滄州市-黃驊市",
		"note":null,
		"lang":"中文",
		"shortAuthorityID":"PL3285",
		"names":"",
		"pinyin":[]
	},
	{
		"authorityID":"PL000000003286",
		"name":"鹽山",
		"dynasty":"隋",
		"long":"117.328",
		"lat":"38.1888",
		"districtHistorical":"隋_渤海郡",
		"districtModern":"中國-河北省-滄州市-黃驊市",
		"note":null,
		"lang":"中文",
		"shortAuthorityID":"PL3286",
		"names":"",
		"pinyin":[]
	},
	{
		"authorityID":"PL000000003287",
		"name":"河北東路",
		"dynasty":null,
		"long":"116.0952",
		"lat":"38.4349",
		"districtHistorical":null,
		"districtModern":"中國-河北省-滄州市-河間市",
		"note":"河北東路。天會七年析河北為東、西路，各置本路兵馬都總管。府一，領節鎮二，防禦一，刺郡五，縣三十，鎮三十五。（淵四．金史．卷二十五：10；<a target=\"_blank\" href=\"http:\/\/zh.wikipedia.org\/zh-tw\/%E6%B2%B3%E5%8C%97%E6%9D%B1%E8%B7%AF\">http:\/\/zh.wikipedia.org\/zh-tw\/%E6%B2%B3%E5%8C%97%E6%9D%B1%E8%B7%AF<\/a>，2009.12.23）",
		"lang":"中文",
		"shortAuthorityID":"PL3287",
		"names":"",
		"pinyin":[]
	},
	{
		"authorityID":"PL000000003288",
		"mergeTo":"PL000000003313",
		"names":"",
		"pinyin":[]
	},
	{
		"authorityID":"PL000000003289",
		"name":"弘博寺",
		"dynasty":"隋",
		"long":"116.093354",
		"lat":"38.445768",
		"districtHistorical":null,
		"districtModern":"中國-河北省-滄州市-河間市",
		"note":"",
		"lang":"中文",
		"shortAuthorityID":"PL3289",
		"names":"",
		"pinyin":[]
	},
	{
		"authorityID":"PL000000003290",
		"name":"興化寺",
		"dynasty":"唐",
		"long":"116.276514",
		"lat":"38.026385",
		"districtHistorical":null,
		"districtModern":"中國-河北省-滄州市-泊頭市",
		"note":"在交河縣治西北，唐貞觀初建，明洪武中重建。（唐寺考：121；<a target=\"_blank\" href=\" http:\/\/chgis.hmdc.harvard.edu\/search_details_1.php?ptid=relig_107\"> http:\/\/chgis.hmdc.harvard.edu\/search_details_1.php?ptid=relig_107<\/a>，2009.06.18；淵四．大清一統志．卷十六：6；四部續．嘉慶一統志．河間府二：14）",
		"lang":"中文",
		"shortAuthorityID":"PL3290",
		"names":"",
		"pinyin":{
			"興化寺":"xīng huà sì"
		}
	},
	{
		"authorityID":"PL000000003291",
		"name":"瀛西寺",
		"dynasty":null,
		"long":"115.971443",
		"lat":"38.508865",
		"districtHistorical":null,
		"districtModern":"中國-河北省-滄州市-河間市",
		"note":"清乾隆中重修。（明清序：244）",
		"lang":"中文",
		"shortAuthorityID":"PL3291",
		"names":"",
		"pinyin":[]
	},
	{
		"authorityID":"PL000000003292",
		"name":"州鄉",
		"dynasty":"西漢",
		"long":"116.2086",
		"lat":"38.5432",
		"districtHistorical":"西漢_幽州刺史部",
		"districtModern":"中國-河北省-滄州市-河間市",
		"note":null,
		"lang":"中文",
		"shortAuthorityID":"PL3292",
		"names":"",
		"pinyin":[]
	},
	{
		"authorityID":"PL000000003293",
		"name":"君子館",
		"dynasty":"北宋",
		"long":"116.0779",
		"lat":"38.5405",
		"districtHistorical":"北宋_河北東路",
		"districtModern":"中國-河北省-滄州市-河間市",
		"note":null,
		"lang":"中文",
		"shortAuthorityID":"PL3293",
		"names":"",
		"pinyin":[]
	},
	{
		"authorityID":"PL000000003294",
		"name":"束城",
		"dynasty":"北宋",
		"long":"116.3954",
		"lat":"38.5313",
		"districtHistorical":"北宋_河北東路",
		"districtModern":"中國-河北省-滄州市-河間市",
		"note":null,
		"lang":"中文",
		"shortAuthorityID":"PL3294",
		"names":"",
		"pinyin":{
			"束城":"shù chéng"
		}
	},
	{
		"authorityID":"PL000000003295",
		"name":"束城",
		"dynasty":"清",
		"long":"116.3989",
		"lat":"38.5298",
		"districtHistorical":"清_直隸",
		"districtModern":"中國-河北省-滄州市-河間市",
		"note":null,
		"lang":"中文",
		"shortAuthorityID":"PL3295",
		"names":"",
		"pinyin":{
			"束城":"shù chéng"
		}
	},
	{
		"authorityID":"PL000000003296",
		"name":"束城",
		"dynasty":"唐",
		"long":"116.3924",
		"lat":"38.5282",
		"districtHistorical":"唐_河北道",
		"districtModern":"中國-河北省-滄州市-河間市",
		"note":null,
		"lang":"中文",
		"shortAuthorityID":"PL3296",
		"names":"",
		"pinyin":{
			"束城":"shù chéng"
		}
	},
	{
		"authorityID":"PL000000003297",
		"name":"劉古庄",
		"dynasty":"清",
		"long":"116.2221",
		"lat":"38.5272",
		"districtHistorical":"清_直隸",
		"districtModern":"中國-河北省-滄州市-河間市",
		"note":null,
		"lang":"中文",
		"shortAuthorityID":"PL3297",
		"names":"",
		"pinyin":[]
	},
	{
		"authorityID":"PL000000003298",
		"name":"束城",
		"dynasty":"隋",
		"long":"116.3943",
		"lat":"38.5227",
		"districtHistorical":"隋_河間郡",
		"districtModern":"中國-河北省-滄州市-河間市",
		"note":null,
		"lang":"中文",
		"shortAuthorityID":"PL3298",
		"names":"",
		"pinyin":{
			"束城":"shù chéng"
		}
	},
	{
		"authorityID":"PL000000003299",
		"name":"小陵城",
		"dynasty":"北魏",
		"long":"116.0592",
		"lat":"38.455",
		"districtHistorical":"北朝 魏_瀛州",
		"districtModern":"中國-河北省-滄州市-河間市",
		"note":null,
		"lang":"中文",
		"shortAuthorityID":"PL3299",
		"names":"",
		"pinyin":{
			"小陵城":"xiǎo líng chéng"
		}
	},
	{
		"authorityID":"PL000000003300",
		"name":"河間",
		"dynasty":"清",
		"long":"116.0952",
		"lat":"38.4349",
		"districtHistorical":"清_直隸",
		"districtModern":"中國-河北省-滄州市-河間市",
		"note":null,
		"lang":"中文",
		"shortAuthorityID":"PL3300",
		"names":"",
		"pinyin":[]
	},
	{
		"authorityID":"PL000000003301",
		"name":"河間府",
		"dynasty":"清",
		"long":"116.0952",
		"lat":"38.4349",
		"districtHistorical":"清_直隸",
		"districtModern":"中國-河北省-滄州市-河間市",
		"note":"元為河間路。明洪武初，改河間府，屬北平布政司。永樂中，改直隸京師，領州二縣十六。皇清因之。順治十六年，省興濟縣併入青縣，領州二縣十五衛一。（<a target=\"_blank\" href=\"http:\/\/hi.baidu.com\/hjfz\/blog\/item\/e25c03eedca56af9b3fb95f3.html\">http:\/\/hi.baidu.com\/河間府建置沿革考<\/a>，2011.12.09）",
		"lang":"中文",
		"shortAuthorityID":"PL3301",
		"names":"",
		"pinyin":[]
	},
	{
		"authorityID":"PL000000003302",
		"name":"河間",
		"dynasty":"明",
		"long":"116.0952",
		"lat":"38.4349",
		"districtHistorical":"明_京師",
		"districtModern":"中國-河北省-滄州市-河間市",
		"note":"位於河北省中部、冀中平原的腹地。河間之名據《禹貢》和《水經注》所載，原指上古九河流域之間的區域。元代設河間路，明、清復為河間府。（<a target=\"_blank\" href=\"http:\/\/zh.wikipedia.org\/wiki\/%E6%B2%B3%E9%96%93%E5%B8%82\">http:\/\/zh.wikipedia.org\/河間市<\/a>，2012.04.26）",
		"lang":"中文",
		"shortAuthorityID":"PL3302",
		"names":"",
		"pinyin":[]
	},
	{
		"authorityID":"PL000000003303",
		"name":"河間府",
		"dynasty":"明",
		"long":"116.0952",
		"lat":"38.4349",
		"districtHistorical":"明_京師",
		"districtModern":"中國-河北省-滄州市-河間市",
		"note":null,
		"lang":"中文",
		"shortAuthorityID":"PL3303",
		"names":"",
		"pinyin":[]
	},
	{
		"authorityID":"PL000000003304",
		"name":"河間",
		"dynasty":"元",
		"long":"116.0952",
		"lat":"38.4349",
		"districtHistorical":"元_中書省",
		"districtModern":"中國-河北省-滄州市-河間市",
		"note":null,
		"lang":"中文",
		"shortAuthorityID":"PL3304",
		"names":"",
		"pinyin":[]
	},
	{
		"authorityID":"PL000000003305",
		"name":"河間路",
		"dynasty":"元",
		"long":"116.0952",
		"lat":"38.4349",
		"districtHistorical":"元_中書省",
		"districtModern":"中國-河北省-滄州市-河間市",
		"note":"位於中國河北省中部、冀中平原的腹地。其名稱始出現於戰國時代，當時屬於燕國的武垣縣。至隋代，武垣縣改名為河間縣，並設河間郡。唐代沿襲隋制，仍為河間郡。宋代設河間府，元代設河間路。（<a target=\"_blank\" href=\"http:\/\/zh.wikipedia.org\/wiki\/%E6%B2%B3%E9%96%93%E5%B8%82\">http:\/\/zh.wikipedia.org\/河間市<\/a>，2012.04.05）",
		"lang":"中文",
		"shortAuthorityID":"PL3305",
		"names":"[中文] 瀛州",
		"pinyin":{
			"瀛州":"yíng zhōu"
		}
	},
	{
		"authorityID":"PL000000003306",
		"name":"河間府",
		"dynasty":"金",
		"long":"116.0952",
		"lat":"38.4349",
		"districtHistorical":"金",
		"districtModern":"中國-河北省-滄州市-河間市",
		"note":null,
		"lang":"中文",
		"shortAuthorityID":"PL3306",
		"names":"",
		"pinyin":[]
	},
	{
		"authorityID":"PL000000003307",
		"name":"河間",
		"dynasty":"北宋",
		"long":"116.0952",
		"lat":"38.4349",
		"districtHistorical":"北宋_河北東路",
		"districtModern":"中國-河北省-滄州市-河間市",
		"note":"位於河北省清苑縣東南、子牙河與瀦龍河之間。（<a target=\"_blank\" href=\"http:\/\/mywoodic.appspot.com\/dic\/dic?id=11236\">http:\/\/mywoodic.appspot.com\/河間縣<\/a>，2012.08.14）",
		"lang":"中文",
		"shortAuthorityID":"PL3307",
		"names":"",
		"pinyin":{
			"河間":"hé jiān"
		}
	},
	{
		"authorityID":"PL000000003308",
		"name":"河間府",
		"dynasty":"北宋",
		"long":"116.0952",
		"lat":"38.4349",
		"districtHistorical":"北宋_河北東路",
		"districtModern":"中國-河北省-滄州市-河間市",
		"note":null,
		"lang":"中文",
		"shortAuthorityID":"PL3308",
		"names":"",
		"pinyin":[]
	},
	{
		"authorityID":"PL000000003309",
		"name":"河間",
		"dynasty":"唐",
		"long":"116.0952",
		"lat":"38.4349",
		"districtHistorical":"唐_河北道",
		"districtModern":"中國-河北省-滄州市-河間市",
		"note":null,
		"lang":"中文",
		"shortAuthorityID":"PL3309",
		"names":"",
		"pinyin":[]
	},
	{
		"authorityID":"PL000000003310",
		"name":"瀛州",
		"dynasty":"唐",
		"long":"116.0952",
		"lat":"38.4349",
		"districtHistorical":"唐_河北道",
		"districtModern":"中國-河北省-滄州市-河間市",
		"note":"隋河間郡。武德四年，討平竇建德，改為瀛州。天寶元年，改為河間郡。乾元元年，復為瀛州。 舊領縣十： 河間 、高陽、樂壽、博野、清苑、鄚、任丘、文安、平舒、束城。景雲二年，分鄚、文 安、任丘、清苑置鄚州。大曆後，割博野、樂壽隸深州。（<a target=\"_blank\" href=\"http:\/\/zh.wikisource.org\/zh-hant\/%E8%88%8A%E5%94%90%E6%9B%B8\/%E5%8D%B739\">http:\/\/zh.wikisource.org\/zh-hant\/%E8%88%8A%E5%94%90%E6%9B%B8\/%E5%8D%B739<\/a>，2013.04.11）",
		"lang":"中文",
		"shortAuthorityID":"PL3310",
		"names":"[中文] 河間郡",
		"pinyin":{
			"瀛州":"yíng zhōu",
			"河間郡":"hé jiān jùn"
		}
	},
	{
		"authorityID":"PL000000003311",
		"name":"河間",
		"dynasty":"隋",
		"long":"116.0952",
		"lat":"38.4349",
		"districtHistorical":"隋_河間郡",
		"districtModern":"中國-河北省-滄州市-河間市",
		"note":null,
		"lang":"中文",
		"shortAuthorityID":"PL3311",
		"names":"",
		"pinyin":[]
	},
	{
		"authorityID":"PL000000003312",
		"name":"河間郡",
		"dynasty":"隋",
		"long":"116.0952",
		"lat":"38.4349",
		"districtHistorical":"隋_河間郡",
		"districtModern":"中國-河北省-滄州市-河間市",
		"note":null,
		"lang":"中文",
		"shortAuthorityID":"PL3312",
		"names":"",
		"pinyin":[]
	},
	{
		"authorityID":"PL000000003313",
		"name":"瀛州",
		"dynasty":"北魏",
		"long":"116.0952",
		"lat":"38.4349",
		"districtHistorical":"北朝 魏_瀛州",
		"districtModern":"中國-河北省-滄州市-河間市",
		"note":"瀛州（太和十一年分定州河間、高陽，冀州章武、浮陽置，治趙都軍城。）領郡三，縣十八。（魏書．卷一百六上．地形二上：9）",
		"lang":"中文",
		"shortAuthorityID":"PL3313",
		"names":"",
		"pinyin":{
			"瀛州":"yíng zhōu"
		}
	},
	{
		"authorityID":"PL000000003314",
		"name":"束州",
		"dynasty":"北魏",
		"long":"116.4597",
		"lat":"38.4281",
		"districtHistorical":"北朝 魏_瀛州",
		"districtModern":"中國-河北省-滄州市-河間市",
		"note":null,
		"lang":"中文",
		"shortAuthorityID":"PL3314",
		"names":"",
		"pinyin":{
			"束州":"shù zhōu"
		}
	},
	{
		"authorityID":"PL000000003315",
		"name":"束州",
		"dynasty":"西晉",
		"long":"116.4535",
		"lat":"38.4189",
		"districtHistorical":"西晉_冀州",
		"districtModern":"中國-河北省-滄州市-河間市",
		"note":null,
		"lang":"中文",
		"shortAuthorityID":"PL3315",
		"names":"",
		"pinyin":{
			"束州":"shù zhōu"
		}
	},
	{
		"authorityID":"PL000000003316",
		"name":"七里井",
		"dynasty":"隋",
		"long":"116.0828",
		"lat":"38.3952",
		"districtHistorical":"隋_河間郡",
		"districtModern":"中國-河北省-滄州市-河間市",
		"note":null,
		"lang":"中文",
		"shortAuthorityID":"PL3316",
		"names":"",
		"pinyin":[]
	},
	{
		"authorityID":"PL000000003317",
		"name":"沙河橋",
		"dynasty":"清",
		"long":"116.3242",
		"lat":"38.3922",
		"districtHistorical":"清_直隸",
		"districtModern":"中國-河北省-滄州市-河間市",
		"note":null,
		"lang":"中文",
		"shortAuthorityID":"PL3317",
		"names":"",
		"pinyin":[]
	},
	{
		"authorityID":"PL000000003318",
		"name":"景和鎮",
		"dynasty":"清",
		"long":"116.4598",
		"lat":"38.3871",
		"districtHistorical":"清_直隸",
		"districtModern":"中國-河北省-滄州市-河間市",
		"note":null,
		"lang":"中文",
		"shortAuthorityID":"PL3318",
		"names":"",
		"pinyin":[]
	},
	{
		"authorityID":"PL000000003319",
		"name":"景和鎮",
		"dynasty":"明",
		"long":"116.4667",
		"lat":"38.3826",
		"districtHistorical":"明_京師",
		"districtModern":"中國-河北省-滄州市-河間市",
		"note":null,
		"lang":"中文",
		"shortAuthorityID":"PL3319",
		"names":"",
		"pinyin":[]
	},
	{
		"authorityID":"PL000000003320",
		"name":"辛莊",
		"dynasty":"清",
		"long":"116.106",
		"lat":"38.3705",
		"districtHistorical":"清_直隸",
		"districtModern":"中國-河北省-滄州市-河間市",
		"note":null,
		"lang":"中文",
		"shortAuthorityID":"PL3320",
		"names":"",
		"pinyin":{
			"辛莊":"xīn zhuāng"
		}
	},
	{
		"authorityID":"PL000000003321",
		"name":"武垣",
		"dynasty":"北魏",
		"long":"116.0844",
		"lat":"38.3411",
		"districtHistorical":"北朝 魏_瀛州",
		"districtModern":"中國-河北省-滄州市-河間市",
		"note":null,
		"lang":"中文",
		"shortAuthorityID":"PL3321",
		"names":"",
		"pinyin":{
			"武垣":"wǔ yuán"
		}
	},
	{
		"authorityID":"PL000000003322",
		"name":"河間郡",
		"dynasty":"北魏",
		"long":"116.0844",
		"lat":"38.3411",
		"districtHistorical":"北朝 魏_瀛州",
		"districtModern":"中國-河北省-滄州市-河間市",
		"note":"漢河間國，治樂城，即今直隸獻縣治，後魏初為河間郡，在今河間縣西南三十五里，尋分置瀛州，隋廢郡存州，又改州為河間郡，并置河間縣城為郡治，即今河間縣治，唐復曰瀛州，尋曰河間郡，後仍為瀛州，宋曰瀛州河間郡，升為河間府，元置河間路總管府，明曰河間府，清因之，屬直隸省，民國廢。（<a target=\"_blank\" href=\"https:\/\/zh.wikipedia.org\/wiki\/%E6%B2%B3%E9%96%93%E9%83%A1\">https:\/\/zh.wikipedia.org\/wiki\/%E6%B2%B3%E9%96%93%E9%83%A1<\/a>，2013.07.11）",
		"lang":"中文",
		"shortAuthorityID":"PL3322",
		"names":"",
		"pinyin":[]
	},
	{
		"authorityID":"PL000000003323",
		"name":"武垣",
		"dynasty":"西晉",
		"long":"116.0773",
		"lat":"38.3344",
		"districtHistorical":"西晉_冀州",
		"districtModern":"中國-河北省-滄州市-河間市",
		"note":null,
		"lang":"中文",
		"shortAuthorityID":"PL3323",
		"names":"",
		"pinyin":{
			"武垣":"wǔ yuán"
		}
	},
	{
		"authorityID":"PL000000003324",
		"name":"武垣",
		"dynasty":"曹魏",
		"long":"116.0773",
		"lat":"38.3344",
		"districtHistorical":"三國 魏_冀州",
		"districtModern":"中國-河北省-滄州市-河間市",
		"note":null,
		"lang":"中文",
		"shortAuthorityID":"PL3324",
		"names":"",
		"pinyin":{
			"武垣":"wǔ yuán"
		}
	},
	{
		"authorityID":"PL000000003325",
		"name":"大同中屯衛",
		"dynasty":"明",
		"long":"116.0952",
		"lat":"38.4349",
		"districtHistorical":"明_京師",
		"districtModern":"中國-河北省-滄州市-河間市",
		"note":null,
		"lang":"中文",
		"shortAuthorityID":"PL3325",
		"names":"",
		"pinyin":[]
	},
	{
		"authorityID":"PL000000003326",
		"name":"瀋陽中屯衛",
		"dynasty":"明",
		"long":"116.0952",
		"lat":"38.4349",
		"districtHistorical":"明_京師",
		"districtModern":"中國-河北省-滄州市-河間市",
		"note":null,
		"lang":"中文",
		"shortAuthorityID":"PL3326",
		"names":"",
		"pinyin":[]
	},
	{
		"authorityID":"PL000000003327",
		"name":"出塵之塔",
		"dynasty":"沒有給定朝代",
		"long":"113.941203",
		"lat":"29.544693",
		"districtHistorical":null,
		"districtModern":"中國-湖北省-咸寧市-崇陽縣",
		"note":"唐巖頭全豁之塔。（T51n2076_p0327a10；祖堂集：137）",
		"lang":"中文",
		"shortAuthorityID":"PL3327",
		"names":"",
		"pinyin":{
			"出塵之塔":"chū chén zhī tǎ"
		}
	},
	{
		"authorityID":"PL000000003328",
		"name":"馬頭鎮",
		"dynasty":"清",
		"long":"116.7794",
		"lat":"39.3056",
		"districtHistorical":"清_直隸",
		"districtModern":"中國-河北省-廊坊市-安次區",
		"note":null,
		"lang":"中文",
		"shortAuthorityID":"PL3328",
		"names":"",
		"pinyin":[]
	},
	{
		"authorityID":"PL000000003329",
		"name":"東安",
		"dynasty":"明",
		"long":"116.7276",
		"lat":"39.4103",
		"districtHistorical":"明_京師",
		"districtModern":"中國-河北省-廊坊市-安次區",
		"note":null,
		"lang":"中文",
		"shortAuthorityID":"PL3329",
		"names":"",
		"pinyin":{
			"東安":"dōng ān"
		}
	},
	{
		"authorityID":"PL000000003330",
		"name":"東安",
		"dynasty":"清",
		"long":"116.7306",
		"lat":"39.415",
		"districtHistorical":"清_直隸",
		"districtModern":"中國-河北省-廊坊市-安次區",
		"note":null,
		"lang":"中文",
		"shortAuthorityID":"PL3330",
		"names":"",
		"pinyin":{
			"東安":"dōng ān"
		}
	},
	{
		"authorityID":"PL000000003331",
		"name":"葛漁城",
		"dynasty":"清",
		"long":"116.8421",
		"lat":"39.2628",
		"districtHistorical":"清_直隸",
		"districtModern":"中國-河北省-廊坊市-安次區",
		"note":null,
		"lang":"中文",
		"shortAuthorityID":"PL3331",
		"names":"",
		"pinyin":[]
	},
	{
		"authorityID":"PL000000003332",
		"name":"安次",
		"dynasty":"北魏",
		"long":"116.647",
		"lat":"39.5306",
		"districtHistorical":"北朝 魏_幽州",
		"districtModern":"中國-河北省-廊坊市-安次區",
		"note":null,
		"lang":"中文",
		"shortAuthorityID":"PL3332",
		"names":"",
		"pinyin":[]
	},
	{
		"authorityID":"PL000000003333",
		"name":"安次",
		"dynasty":"隋",
		"long":"116.6413",
		"lat":"39.5366",
		"districtHistorical":"隋_涿郡",
		"districtModern":"中國-河北省-廊坊市-安次區",
		"note":null,
		"lang":"中文",
		"shortAuthorityID":"PL3333",
		"names":"",
		"pinyin":[]
	},
	{
		"authorityID":"PL000000003334",
		"name":"狼城寨",
		"dynasty":"北宋",
		"long":"116.7739",
		"lat":"39.172",
		"districtHistorical":"北宋_河北東路",
		"districtModern":"中國-河北省-廊坊市-安次區",
		"note":null,
		"lang":"中文",
		"shortAuthorityID":"PL3334",
		"names":"",
		"pinyin":[]
	},
	{
		"authorityID":"PL000000003335",
		"name":"黃堝堤",
		"dynasty":"元",
		"long":"116.744",
		"lat":"39.2538",
		"districtHistorical":"元_中書省",
		"districtModern":"中國-河北省-廊坊市-安次區",
		"note":null,
		"lang":"中文",
		"shortAuthorityID":"PL3335",
		"names":"",
		"pinyin":[]
	},
	{
		"authorityID":"PL000000003336",
		"name":"龍山",
		"dynasty":"唐",
		"long":"116.5414",
		"lat":"39.5107",
		"districtHistorical":"唐_河北道",
		"districtModern":"中國-河北省-廊坊市-廣陽區",
		"note":null,
		"lang":"中文",
		"shortAuthorityID":"PL3336",
		"names":"",
		"pinyin":[]
	},
	{
		"authorityID":"PL000000003337",
		"name":"昌州",
		"dynasty":"唐",
		"long":"116.5414",
		"lat":"39.5107",
		"districtHistorical":"唐_河北道",
		"districtModern":"中國-河北省-廊坊市-廣陽區",
		"note":null,
		"lang":"中文",
		"shortAuthorityID":"PL3337",
		"names":"",
		"pinyin":[]
	},
	{
		"authorityID":"PL000000003338",
		"name":"郎坊",
		"dynasty":"清",
		"long":"116.702",
		"lat":"39.5182",
		"districtHistorical":"清_直隸",
		"districtModern":"中國-河北省-廊坊市-廣陽區",
		"note":null,
		"lang":"中文",
		"shortAuthorityID":"PL3338",
		"names":"",
		"pinyin":[]
	},
	{
		"authorityID":"PL000000003339",
		"name":"安次",
		"dynasty":"西晉",
		"long":"116.6529",
		"lat":"39.5397",
		"districtHistorical":"西晉_幽州",
		"districtModern":"中國-河北省-廊坊市-廣陽區",
		"note":null,
		"lang":"中文",
		"shortAuthorityID":"PL3339",
		"names":"",
		"pinyin":[]
	},
	{
		"authorityID":"PL000000003340",
		"name":"安次",
		"dynasty":"曹魏",
		"long":"116.6529",
		"lat":"39.5397",
		"districtHistorical":"三國 魏_幽州",
		"districtModern":"中國-河北省-廊坊市-廣陽區",
		"note":null,
		"lang":"中文",
		"shortAuthorityID":"PL3340",
		"names":"",
		"pinyin":[]
	},
	{
		"authorityID":"PL000000003341",
		"name":"安次",
		"dynasty":"遼",
		"long":"116.5852",
		"lat":"39.5055",
		"districtHistorical":"遼_南京道",
		"districtModern":"中國-河北省-廊坊市-廣陽區",
		"note":null,
		"lang":"中文",
		"shortAuthorityID":"PL3341",
		"names":"",
		"pinyin":[]
	},
	{
		"authorityID":"PL000000003342",
		"name":"安次",
		"dynasty":"唐",
		"long":"116.6001",
		"lat":"39.4998",
		"districtHistorical":"唐_河北道",
		"districtModern":"中國-河北省-廊坊市-廣陽區",
		"note":null,
		"lang":"中文",
		"shortAuthorityID":"PL3342",
		"names":"",
		"pinyin":[]
	},